{"region_data":{"adminCode1":"S","lng":"35","geonameId":923817,"toponymName":"Southern Region","countryId":"927384","fcl":"A","population":5345000,"numberOfChildren":13,"countryCode":"MW","name":"Southern Region","fclName":"country, state, region,...","countryName":"Malawi","fcodeName":"first-order administrative division","adminName1":"Southern Region","lat":"-15.5","fcode":"ADM1"},"country_data":{"ISO":"MW","ISO3":"MWI","ISO_Numeric":"454","fips":"MI","country":"Malawi","capital":"Lilongwe","area":"118480","Population":"15447500","Continent":"AF","tld":".mw","CurrencyCode":"MWK","CurrencyName":"Kwacha","Phone":"265","Postal_Code_Format":"","Postal_Code_Regex":"","Languages":"ny,yao,tum,swk","geonameid":"927384","neighbours":"TZ,MZ,ZM","EquivalentFipsCode":""},"cities":[{"geonameid":"923295","name":"Zomba","asciiname":"Zomba","alternatenames":["Zomba","jomba","song ba","zomba","zonba","Зомба","ზომბა","ゾンバ","松巴","좀바"],"latitude":"-15.38596","longitude":"35.3188","feature_class":"P","feature_code":"PPLA2","country_code":"MW","cc2":"","admin1_code":"S","admin2_code":"23","admin3_code":"","admin4_code":"","population":"80932","elevation":"","dem":"949","timezone":"Africa/Blantyre","modification_date":"2011-04-25"},{"geonameid":"923652","name":"Thyolo","asciiname":"Thyolo","alternatenames":["Cholo","Thyolo"],"latitude":"-16.06775","longitude":"35.14046","feature_class":"P","feature_code":"PPLA2","country_code":"MW","cc2":"","admin1_code":"S","admin2_code":"05","admin3_code":"","admin4_code":"","population":"5775","elevation":"","dem":"912","timezone":"Africa/Blantyre","modification_date":"2011-11-08"},{"geonameid":"924206","name":"Phalombe","asciiname":"Phalombe","alternatenames":["Palombe","Palombe Market","Phalombe"],"latitude":"-15.80635","longitude":"35.65067","feature_class":"P","feature_code":"PPLA2","country_code":"MW","cc2":"","admin1_code":"S","admin2_code":"30","admin3_code":"","admin4_code":"","population":"2663","elevation":"","dem":"766","timezone":"Africa/Blantyre","modification_date":"2011-04-25"},{"geonameid":"924572","name":"Nsanje","asciiname":"Nsanje","alternatenames":["Chimombi","Nsanje","Port Herald"],"latitude":"-16.91995","longitude":"35.26199","feature_class":"P","feature_code":"PPLA2","country_code":"MW","cc2":"","admin1_code":"S","admin2_code":"19","admin3_code":"","admin4_code":"","population":"21774","elevation":"","dem":"55","timezone":"Africa/Blantyre","modification_date":"2011-11-08"},{"geonameid":"924963","name":"Neno","asciiname":"Neno","alternatenames":[""],"latitude":"-15.39805","longitude":"34.65343","feature_class":"P","feature_code":"PPLA2","country_code":"MW","cc2":"","admin1_code":"S","admin2_code":"31","admin3_code":"","admin4_code":"","population":"0","elevation":"","dem":"907","timezone":"Africa/Blantyre","modification_date":"2011-04-25"},{"geonameid":"925596","name":"Mwanza","asciiname":"Mwanza","alternatenames":["Mwanza"],"latitude":"-15.60262","longitude":"34.52479","feature_class":"P","feature_code":"PPLA2","country_code":"MW","cc2":"","admin1_code":"S","admin2_code":"25","admin3_code":"","admin4_code":"","population":"11379","elevation":"","dem":"654","timezone":"Africa/Blantyre","modification_date":"2011-11-08"},{"geonameid":"925789","name":"Mulanje","asciiname":"Mulanje","alternatenames":["Mlange","Mlanje","Mlanje Boma","Mulanje"],"latitude":"-16.03163","longitude":"35.5","feature_class":"P","feature_code":"PPLA2","country_code":"MW","cc2":"","admin1_code":"S","admin2_code":"29","admin3_code":"","admin4_code":"","population":"16483","elevation":"","dem":"609","timezone":"Africa/Blantyre","modification_date":"2011-11-08"},{"geonameid":"926308","name":"Monkey Bay","asciiname":"Monkey Bay","alternatenames":["Lusumbwe","MYZ","Monkey Bay"],"latitude":"-14.08239","longitude":"34.91652","feature_class":"P","feature_code":"PPL","country_code":"MW","cc2":"","admin1_code":"S","admin2_code":"12","admin3_code":"","admin4_code":"","population":"11619","elevation":"","dem":"484","timezone":"Africa/Blantyre","modification_date":"2012-05-21"},{"geonameid":"927246","name":"Mangochi","asciiname":"Mangochi","alternatenames":["Fort Johnston","MAI","Mangoche","Mangochi","Mponda","Мангочи"],"latitude":"-14.47815","longitude":"35.26448","feature_class":"P","feature_code":"PPLA2","country_code":"MW","cc2":"","admin1_code":"S","admin2_code":"12","admin3_code":"","admin4_code":"","population":"40236","elevation":"","dem":"484","timezone":"Africa/Blantyre","modification_date":"2011-04-25"},{"geonameid":"927643","name":"Machinga","asciiname":"Machinga","alternatenames":[""],"latitude":"-15.16849","longitude":"35.30002","feature_class":"P","feature_code":"PPLA2","country_code":"MW","cc2":"","admin1_code":"S","admin2_code":"28","admin3_code":"","admin4_code":"","population":"1418","elevation":"","dem":"768","timezone":"Africa/Blantyre","modification_date":"2011-11-08"},{"geonameid":"927792","name":"Luchenza","asciiname":"Luchenza","alternatenames":["Luchenya","Luchenza","Lughenza"],"latitude":"-16.00693","longitude":"35.30947","feature_class":"P","feature_code":"PPL","country_code":"MW","cc2":"","admin1_code":"S","admin2_code":"05","admin3_code":"","admin4_code":"","population":"11939","elevation":"","dem":"682","timezone":"Africa/Blantyre","modification_date":"2012-01-18"},{"geonameid":"927834","name":"Liwonde","asciiname":"Liwonde","alternatenames":["Liwonde","Old Liwonde Boma","VUU"],"latitude":"-15.06665","longitude":"35.22543","feature_class":"P","feature_code":"PPL","country_code":"MW","cc2":"","admin1_code":"S","admin2_code":"28","admin3_code":"","admin4_code":"","population":"22469","elevation":"","dem":"499","timezone":"Africa/Blantyre","modification_date":"2013-04-27"},{"geonameid":"930580","name":"Chiradzulu","asciiname":"Chiradzulu","alternatenames":["Chiradzulu","Chiradzulu Boma"],"latitude":"-15.67461","longitude":"35.14071","feature_class":"P","feature_code":"PPLA2","country_code":"MW","cc2":"","admin1_code":"S","admin2_code":"03","admin3_code":"","admin4_code":"","population":"1580","elevation":"","dem":"1118","timezone":"Africa/Blantyre","modification_date":"2011-11-08"},{"geonameid":"931070","name":"Chikwawa","asciiname":"Chikwawa","alternatenames":["Chikwawa"],"latitude":"-16.03352","longitude":"34.80091","feature_class":"P","feature_code":"PPLA2","country_code":"MW","cc2":"","admin1_code":"S","admin2_code":"02","admin3_code":"","admin4_code":"","population":"6987","elevation":"","dem":"106","timezone":"Africa/Blantyre","modification_date":"2011-11-09"},{"geonameid":"931755","name":"Blantyre","asciiname":"Blantyre","alternatenames":["BLZ","Blantair","Blantairas","Blantajer","Blantajr","Blantyre","Blantyre-Limbe","Gorad Blantajr","Kapeni","beullaentaieo","blamtayara","blantyry","bu lan tai er","burantaiya","Μπλαντάιρ","Блантайр","Блантајер","Горад Блантайр","بلانتيري","ब्लँटायर","ブランタイヤ","布兰太尔","블랜타이어"],"latitude":"-15.78499","longitude":"35.00854","feature_class":"P","feature_code":"PPLA","country_code":"MW","cc2":"","admin1_code":"S","admin2_code":"24","admin3_code":"","admin4_code":"","population":"584877","elevation":"","dem":"1041","timezone":"Africa/Blantyre","modification_date":"2014-07-21"},{"geonameid":"931865","name":"Balaka","asciiname":"Balaka","alternatenames":["Balaka","Balakas","Palaka","Балака"],"latitude":"-14.97928","longitude":"34.95575","feature_class":"P","feature_code":"PPLA2","country_code":"MW","cc2":"","admin1_code":"S","admin2_code":"26","admin3_code":"","admin4_code":"","population":"18902","elevation":"","dem":"633","timezone":"Africa/Blantyre","modification_date":"2011-11-08"},{"geonameid":"7839184","name":"Makata","asciiname":"Makata","alternatenames":[""],"latitude":"-15.78721","longitude":"35.03046","feature_class":"P","feature_code":"PPLA3","country_code":"MW","cc2":"","admin1_code":"S","admin2_code":"","admin3_code":"","admin4_code":"","population":"0","elevation":"","dem":"1085","timezone":"Africa/Blantyre","modification_date":"2011-06-01"}]}