{"region_data":{"adminCode1":"L","lng":"-7.02121","geonameId":7521314,"toponymName":"Leinster","countryId":"2963597","fcl":"A","population":2504814,"numberOfChildren":15,"countryCode":"IE","name":"Leinster","fclName":"country, state, region,...","countryName":"Ireland","fcodeName":"first-order administrative division","adminName1":"Leinster","lat":"53.16667","fcode":"ADM1"},"country_data":{"ISO":"IE","ISO3":"IRL","ISO_Numeric":"372","fips":"EI","country":"Ireland","capital":"Dublin","area":"70280","Population":"4622917","Continent":"EU","tld":".ie","CurrencyCode":"EUR","CurrencyName":"Euro","Phone":"353","Postal_Code_Format":"","Postal_Code_Regex":"","Languages":"en-IE,ga-IE","geonameid":"2963597","neighbours":"GB","EquivalentFipsCode":""},"cities":[{"geonameid":"2960936","name":"Wicklow","asciiname":"Wicklow","alternatenames":["Cill Maintain","Cill Maintainn","Cill Maintáinn","Cill Manntein","Cill Manntéin","Cill Mantan","Cill Mhanntain","Cill Mhantain","Cill Mhantáin","Wicklow"],"latitude":"52.975","longitude":"-6.04944","feature_class":"P","feature_code":"PPLA2","country_code":"IE","cc2":"","admin1_code":"L","admin2_code":"31","admin3_code":"","admin4_code":"","population":"14048","elevation":"","dem":"53","timezone":"Europe/Dublin","modification_date":"2013-12-08"},{"geonameid":"2960964","name":"Loch Garman","asciiname":"Loch Garman","alternatenames":["Loch Garman","Wexford"],"latitude":"52.33417","longitude":"-6.4575","feature_class":"P","feature_code":"PPLA2","country_code":"IE","cc2":"","admin1_code":"L","admin2_code":"30","admin3_code":"","admin4_code":"","population":"19913","elevation":"","dem":"5","timezone":"Europe/Dublin","modification_date":"2013-08-14"},{"geonameid":"2961077","name":"Tullyallen","asciiname":"Tullyallen","alternatenames":["Tullyallen"],"latitude":"53.73611","longitude":"-6.42278","feature_class":"P","feature_code":"PPL","country_code":"IE","cc2":"","admin1_code":"L","admin2_code":"19","admin3_code":"","admin4_code":"","population":"1358","elevation":"","dem":"65","timezone":"Europe/Dublin","modification_date":"2013-11-26"},{"geonameid":"2961079","name":"Tullow","asciiname":"Tullow","alternatenames":["An Tulach","Tullow"],"latitude":"52.80028","longitude":"-6.73694","feature_class":"P","feature_code":"PPL","country_code":"IE","cc2":"","admin1_code":"L","admin2_code":"01","admin3_code":"","admin4_code":"","population":"3972","elevation":"","dem":"71","timezone":"Europe/Dublin","modification_date":"2013-11-26"},{"geonameid":"2961086","name":"Tullamore","asciiname":"Tullamore","alternatenames":["Talamor","Talamoras","Tallamor","Tulach Mhor","Tulach Mhór","Tulamor","Tullamore","taramoa","thul la mxr","twlamwr","Таламор","Талламор","Тъламор","تولامور","ทูลลามอร์","ტალამორი","タラモア"],"latitude":"53.27389","longitude":"-7.48889","feature_class":"P","feature_code":"PPLA2","country_code":"IE","cc2":"","admin1_code":"L","admin2_code":"23","admin3_code":"","admin4_code":"","population":"11575","elevation":"","dem":"60","timezone":"Europe/Dublin","modification_date":"2012-03-01"},{"geonameid":"2961107","name":"Trim","asciiname":"Trim","alternatenames":["Baile Atha Troim","Baile Átha Troim","Trim","Трим","ტრიმი"],"latitude":"53.555","longitude":"-6.79167","feature_class":"P","feature_code":"PPL","country_code":"IE","cc2":"","admin1_code":"L","admin2_code":"21","admin3_code":"","admin4_code":"","population":"1800","elevation":"","dem":"56","timezone":"Europe/Dublin","modification_date":"2011-05-29"},{"geonameid":"2961224","name":"Thomastown","asciiname":"Thomastown","alternatenames":["Baile Mhic Andain","Baile Mhic Andáin","Thomastown"],"latitude":"52.52667","longitude":"-7.13722","feature_class":"P","feature_code":"PPL","country_code":"IE","cc2":"","admin1_code":"L","admin2_code":"13","admin3_code":"","admin4_code":"","population":"2273","elevation":"","dem":"24","timezone":"Europe/Dublin","modification_date":"2013-11-26"},{"geonameid":"2961231","name":"Termonfeckin","asciiname":"Termonfeckin","alternatenames":["Tearmann Feichin","Tearmann Feichín","Termonfeckin"],"latitude":"53.76333","longitude":"-6.26778","feature_class":"P","feature_code":"PPL","country_code":"IE","cc2":"","admin1_code":"L","admin2_code":"19","admin3_code":"","admin4_code":"","population":"1443","elevation":"","dem":"20","timezone":"Europe/Dublin","modification_date":"2013-11-26"},{"geonameid":"2961235","name":"Terenure","asciiname":"Terenure","alternatenames":["Roundtown","Terenure"],"latitude":"53.30972","longitude":"-6.28528","feature_class":"P","feature_code":"PPL","country_code":"IE","cc2":"","admin1_code":"L","admin2_code":"39","admin3_code":"","admin4_code":"","population":"7674","elevation":"","dem":"44","timezone":"Europe/Dublin","modification_date":"2013-12-11"},{"geonameid":"2961284","name":"Tallaght","asciiname":"Tallaght","alternatenames":["Talagtas","Talat","Talla","Tallaght","Tamhlacht","tla","Талат","Талла","تلا"],"latitude":"53.2859","longitude":"-6.37344","feature_class":"P","feature_code":"PPL","country_code":"IE","cc2":"IE","admin1_code":"L","admin2_code":"07","admin3_code":"","admin4_code":"","population":"64282","elevation":"","dem":"103","timezone":"Europe/Dublin","modification_date":"2010-08-14"},{"geonameid":"2961297","name":"Swords","asciiname":"Swords","alternatenames":["Sord","Sord Cholmcille","Sords","Sordsas","Suords","Swords","aswrdz","si wo si","swwrds","Сордс","Суордс","סוורדס","اسوردز","斯沃司"],"latitude":"53.45972","longitude":"-6.21806","feature_class":"P","feature_code":"PPLA","country_code":"IE","cc2":"","admin1_code":"L","admin2_code":"35","admin3_code":"","admin4_code":"","population":"36924","elevation":"","dem":"17","timezone":"Europe/Dublin","modification_date":"2014-07-08"},{"geonameid":"2961305","name":"Sutton","asciiname":"Sutton","alternatenames":["Sutton"],"latitude":"53.38947","longitude":"-6.11059","feature_class":"P","feature_code":"PPL","country_code":"IE","cc2":"","admin1_code":"L","admin2_code":"07","admin3_code":"","admin4_code":"","population":"3837","elevation":"","dem":"5","timezone":"Europe/Dublin","modification_date":"2013-12-08"},{"geonameid":"2961349","name":"Stradbally","asciiname":"Stradbally","alternatenames":["An Sraidbhaile","An Sráidbhaile","Stradbally"],"latitude":"53.01556","longitude":"-7.15278","feature_class":"P","feature_code":"PPL","country_code":"IE","cc2":"","admin1_code":"L","admin2_code":"15","admin3_code":"","admin4_code":"","population":"1154","elevation":"","dem":"87","timezone":"Europe/Dublin","modification_date":"2013-11-26"},{"geonameid":"2961366","name":"Stamullin","asciiname":"Stamullin","alternatenames":[""],"latitude":"53.62889","longitude":"-6.26833","feature_class":"P","feature_code":"PPL","country_code":"IE","cc2":"","admin1_code":"L","admin2_code":"21","admin3_code":"","admin4_code":"","population":"3130","elevation":"","dem":"36","timezone":"Europe/Dublin","modification_date":"2013-12-08"},{"geonameid":"2961450","name":"Slane","asciiname":"Slane","alternatenames":["Baile Shlaine","Baile Shláine","Slane"],"latitude":"53.71","longitude":"-6.54333","feature_class":"P","feature_code":"PPL","country_code":"IE","cc2":"","admin1_code":"L","admin2_code":"21","admin3_code":"","admin4_code":"","population":"1349","elevation":"","dem":"62","timezone":"Europe/Dublin","modification_date":"2013-11-26"},{"geonameid":"2961461","name":"Skerries","asciiname":"Skerries","alternatenames":["Na Sceiri","Na Sceirí","Skerries"],"latitude":"53.58278","longitude":"-6.10833","feature_class":"P","feature_code":"PPL","country_code":"IE","cc2":"","admin1_code":"L","admin2_code":"35","admin3_code":"","admin4_code":"","population":"9671","elevation":"","dem":"-9999","timezone":"Europe/Dublin","modification_date":"2013-11-26"},{"geonameid":"2961523","name":"Shankill","asciiname":"Shankill","alternatenames":["Shankill"],"latitude":"53.22611","longitude":"-6.12444","feature_class":"P","feature_code":"PPL","country_code":"IE","cc2":"","admin1_code":"L","admin2_code":"07","admin3_code":"","admin4_code":"","population":"10102","elevation":"","dem":"33","timezone":"Europe/Dublin","modification_date":"2013-12-08"},{"geonameid":"2961589","name":"Sandymount","asciiname":"Sandymount","alternatenames":["Sandymount"],"latitude":"53.335","longitude":"-6.21139","feature_class":"P","feature_code":"PPL","country_code":"IE","cc2":"","admin1_code":"L","admin2_code":"07","admin3_code":"","admin4_code":"","population":"8967","elevation":"","dem":"-9999","timezone":"Europe/Dublin","modification_date":"2013-12-08"},{"geonameid":"2961607","name":"Sallins","asciiname":"Sallins","alternatenames":["Na Sollain","Na Solláin","Sallins"],"latitude":"53.24889","longitude":"-6.66611","feature_class":"P","feature_code":"PPL","country_code":"IE","cc2":"","admin1_code":"L","admin2_code":"12","admin3_code":"","admin4_code":"","population":"5283","elevation":"","dem":"77","timezone":"Europe/Dublin","modification_date":"2013-11-26"},{"geonameid":"2961636","name":"Saggart","asciiname":"Saggart","alternatenames":["Saggart","Teach Sagard"],"latitude":"53.28028","longitude":"-6.44444","feature_class":"P","feature_code":"PPL","country_code":"IE","cc2":"IE","admin1_code":"L","admin2_code":"39","admin3_code":"","admin4_code":"","population":"2144","elevation":"","dem":"129","timezone":"Europe/Dublin","modification_date":"2013-11-26"},{"geonameid":"2961651","name":"An Ros","asciiname":"An Ros","alternatenames":["Rush"],"latitude":"53.52424","longitude":"-6.10497","feature_class":"P","feature_code":"PPL","country_code":"IE","cc2":"","admin1_code":"L","admin2_code":"07","admin3_code":"","admin4_code":"","population":"9231","elevation":"","dem":"19","timezone":"Europe/Dublin","modification_date":"2013-12-08"},{"geonameid":"2961690","name":"Rosslare","asciiname":"Rosslare","alternatenames":["Ros Lair","Ros Láir","Rosslare"],"latitude":"52.27583","longitude":"-6.38444","feature_class":"P","feature_code":"PPL","country_code":"IE","cc2":"IE","admin1_code":"L","admin2_code":"30","admin3_code":"","admin4_code":"","population":"1547","elevation":"","dem":"-9999","timezone":"Europe/Dublin","modification_date":"2013-11-26"},{"geonameid":"2961770","name":"Rochfortbridge","asciiname":"Rochfortbridge","alternatenames":["Droichead Chaislean Loiste","Droichead Chaisleán Loiste","Rochfortbridge"],"latitude":"53.41417","longitude":"-7.29611","feature_class":"P","feature_code":"PPL","country_code":"IE","cc2":"","admin1_code":"L","admin2_code":"29","admin3_code":"","admin4_code":"","population":"1494","elevation":"","dem":"86","timezone":"Europe/Dublin","modification_date":"2013-11-26"},{"geonameid":"2961816","name":"Ringsend","asciiname":"Ringsend","alternatenames":["Ringsend"],"latitude":"53.34194","longitude":"-6.22639","feature_class":"P","feature_code":"PPLX","country_code":"IE","cc2":"","admin1_code":"L","admin2_code":"07","admin3_code":"","admin4_code":"","population":"8202","elevation":"","dem":"4","timezone":"Europe/Dublin","modification_date":"2013-12-08"},{"geonameid":"2961872","name":"Ratoath","asciiname":"Ratoath","alternatenames":["Rath To","Ratoath","Ráth Tó"],"latitude":"53.50806","longitude":"-6.4625","feature_class":"P","feature_code":"PPL","country_code":"IE","cc2":"","admin1_code":"L","admin2_code":"21","admin3_code":"","admin4_code":"","population":"9043","elevation":"","dem":"92","timezone":"Europe/Dublin","modification_date":"2013-11-26"},{"geonameid":"2961873","name":"Rathwire","asciiname":"Rathwire","alternatenames":[""],"latitude":"53.50767","longitude":"-7.1351","feature_class":"P","feature_code":"PPL","country_code":"IE","cc2":"","admin1_code":"L","admin2_code":"29","admin3_code":"","admin4_code":"","population":"1226","elevation":"","dem":"86","timezone":"Europe/Dublin","modification_date":"2014-12-03"},{"geonameid":"2961884","name":"Rathnew","asciiname":"Rathnew","alternatenames":["Rath Naoi","Rathnew","Ráth Naoi"],"latitude":"52.99056","longitude":"-6.08528","feature_class":"P","feature_code":"PPL","country_code":"IE","cc2":"","admin1_code":"L","admin2_code":"31","admin3_code":"","admin4_code":"","population":"2964","elevation":"","dem":"28","timezone":"Europe/Dublin","modification_date":"2013-11-26"},{"geonameid":"2961896","name":"Rathmines","asciiname":"Rathmines","alternatenames":["Rathmines"],"latitude":"53.32028","longitude":"-6.26333","feature_class":"P","feature_code":"PPLX","country_code":"IE","cc2":"","admin1_code":"L","admin2_code":"07","admin3_code":"","admin4_code":"","population":"11044","elevation":"","dem":"27","timezone":"Europe/Dublin","modification_date":"2013-12-08"},{"geonameid":"2961918","name":"Rathdrum","asciiname":"Rathdrum","alternatenames":["Rath Droma","Rathdrum","Ráth Droma"],"latitude":"52.92639","longitude":"-6.23556","feature_class":"P","feature_code":"PPL","country_code":"IE","cc2":"","admin1_code":"L","admin2_code":"31","admin3_code":"","admin4_code":"","population":"1586","elevation":"","dem":"145","timezone":"Europe/Dublin","modification_date":"2013-11-26"},{"geonameid":"2961920","name":"Rathdowney","asciiname":"Rathdowney","alternatenames":["Rath Domhnaigh","Rathdowney","Ráth Domhnaigh"],"latitude":"52.85472","longitude":"-7.58028","feature_class":"P","feature_code":"PPL","country_code":"IE","cc2":"","admin1_code":"L","admin2_code":"15","admin3_code":"","admin4_code":"","population":"1208","elevation":"","dem":"102","timezone":"Europe/Dublin","modification_date":"2013-11-26"},{"geonameid":"2961929","name":"Rathcoole","asciiname":"Rathcoole","alternatenames":["Rath Cuil","Rathcoole","Ráth Cúil"],"latitude":"53.28278","longitude":"-6.47278","feature_class":"P","feature_code":"PPL","country_code":"IE","cc2":"","admin1_code":"L","admin2_code":"39","admin3_code":"","admin4_code":"","population":"3421","elevation":"","dem":"114","timezone":"Europe/Dublin","modification_date":"2013-11-26"},{"geonameid":"2961938","name":"Rathangan","asciiname":"Rathangan","alternatenames":["Rath Iomghain","Rathangan","Ráth Iomgháin"],"latitude":"53.22139","longitude":"-6.995","feature_class":"P","feature_code":"PPL","country_code":"IE","cc2":"","admin1_code":"L","admin2_code":"12","admin3_code":"","admin4_code":"","population":"2374","elevation":"","dem":"74","timezone":"Europe/Dublin","modification_date":"2013-11-26"},{"geonameid":"2961960","name":"Raheny","asciiname":"Raheny","alternatenames":["Rakheni","Rath Eanaigh","Ráth Eanaigh","Рахени","Рахені"],"latitude":"53.38681","longitude":"-6.18067","feature_class":"P","feature_code":"PPL","country_code":"IE","cc2":"","admin1_code":"L","admin2_code":"07","admin3_code":"","admin4_code":"","population":"7197","elevation":"","dem":"28","timezone":"Europe/Dublin","modification_date":"2013-12-08"},{"geonameid":"2961994","name":"Prosperous","asciiname":"Prosperous","alternatenames":["An Chorrchoill","Prosperous"],"latitude":"53.29028","longitude":"-6.75389","feature_class":"P","feature_code":"PPL","country_code":"IE","cc2":"","admin1_code":"L","admin2_code":"12","admin3_code":"","admin4_code":"","population":"2248","elevation":"","dem":"90","timezone":"Europe/Dublin","modification_date":"2013-11-26"},{"geonameid":"2962019","name":"Portmarnock","asciiname":"Portmarnock","alternatenames":["Port Mearnog","Port Mearnóg","Portmarnock"],"latitude":"53.42306","longitude":"-6.1375","feature_class":"P","feature_code":"PPL","country_code":"IE","cc2":"","admin1_code":"L","admin2_code":"07","admin3_code":"","admin4_code":"","population":"9285","elevation":"","dem":"4","timezone":"Europe/Dublin","modification_date":"2013-11-26"},{"geonameid":"2962026","name":"Portlaoise","asciiname":"Portlaoise","alternatenames":["Maryboro'","Maryborough","Port Laoighise","Port Laoise","Port Leix","Portlaoise"],"latitude":"53.03441","longitude":"-7.29979","feature_class":"P","feature_code":"PPLA2","country_code":"IE","cc2":"","admin1_code":"L","admin2_code":"15","admin3_code":"","admin4_code":"","population":"13622","elevation":"","dem":"101","timezone":"Europe/Dublin","modification_date":"2011-05-25"},{"geonameid":"2962029","name":"Portarlington","asciiname":"Portarlington","alternatenames":["Cuil an tSudaire","Cúil an tSúdaire","Portarlington"],"latitude":"53.16222","longitude":"-7.19111","feature_class":"P","feature_code":"PPL","country_code":"IE","cc2":"","admin1_code":"L","admin2_code":"15","admin3_code":"","admin4_code":"","population":"7788","elevation":"","dem":"67","timezone":"Europe/Dublin","modification_date":"2013-11-26"},{"geonameid":"2962045","name":"Piltown","asciiname":"Piltown","alternatenames":["Baile an Phoill","Pilltown","Piltown"],"latitude":"52.35333","longitude":"-7.34028","feature_class":"P","feature_code":"PPL","country_code":"IE","cc2":"","admin1_code":"L","admin2_code":"13","admin3_code":"","admin4_code":"","population":"1187","elevation":"","dem":"31","timezone":"Europe/Dublin","modification_date":"2013-11-26"},{"geonameid":"2962054","name":"Daingean","asciiname":"Daingean","alternatenames":["An Daingean","Daingean","Philipstown"],"latitude":"53.29611","longitude":"-7.28944","feature_class":"P","feature_code":"PPL","country_code":"IE","cc2":"","admin1_code":"L","admin2_code":"23","admin3_code":"","admin4_code":"","population":"1037","elevation":"","dem":"79","timezone":"Europe/Dublin","modification_date":"2013-11-26"},{"geonameid":"2962170","name":"Old Kilcullen","asciiname":"Old Kilcullen","alternatenames":["Old Kilcullen"],"latitude":"53.10639","longitude":"-6.76528","feature_class":"P","feature_code":"PPL","country_code":"IE","cc2":"","admin1_code":"L","admin2_code":"12","admin3_code":"","admin4_code":"","population":"2110","elevation":"","dem":"145","timezone":"Europe/Dublin","modification_date":"2012-02-02"},{"geonameid":"2962179","name":"Oldcastle","asciiname":"Oldcastle","alternatenames":["An Seanchaislean","An Seanchaisleán","Olcastle","Oldcastle"],"latitude":"53.76648","longitude":"-7.16284","feature_class":"P","feature_code":"PPL","country_code":"IE","cc2":"","admin1_code":"L","admin2_code":"21","admin3_code":"","admin4_code":"","population":"1384","elevation":"","dem":"102","timezone":"Europe/Dublin","modification_date":"2014-12-03"},{"geonameid":"2962222","name":"Newtown Trim","asciiname":"Newtown Trim","alternatenames":[""],"latitude":"53.55611","longitude":"-6.77","feature_class":"P","feature_code":"PPLX","country_code":"IE","cc2":"","admin1_code":"L","admin2_code":"21","admin3_code":"","admin4_code":"","population":"6781","elevation":"","dem":"53","timezone":"Europe/Dublin","modification_date":"2014-12-03"},{"geonameid":"2962252","name":"New Ross","asciiname":"New Ross","alternatenames":["N'ju-Ross","New Ross","Nju Ros","Nueva Ross","Ros Mhic Thriuin","Ros Mhic Thriúin","Ross","Нью-Росс","Ню Рос"],"latitude":"52.39667","longitude":"-6.93667","feature_class":"P","feature_code":"PPL","country_code":"IE","cc2":"","admin1_code":"L","admin2_code":"30","admin3_code":"","admin4_code":"","population":"6695","elevation":"","dem":"53","timezone":"Europe/Dublin","modification_date":"2012-02-28"},{"geonameid":"2962281","name":"Newcastle","asciiname":"Newcastle","alternatenames":["An Caislean Nua","An Caisleán Nua","Newcastle"],"latitude":"53.30111","longitude":"-6.50222","feature_class":"P","feature_code":"PPL","country_code":"IE","cc2":"","admin1_code":"L","admin2_code":"39","admin3_code":"","admin4_code":"","population":"2659","elevation":"","dem":"87","timezone":"Europe/Dublin","modification_date":"2013-11-26"},{"geonameid":"2962290","name":"Droichead Nua","asciiname":"Droichead Nua","alternatenames":["Droichead Nua","Droichead Nuadh","Newbridge"],"latitude":"53.18194","longitude":"-6.79667","feature_class":"P","feature_code":"PPL","country_code":"IE","cc2":"","admin1_code":"L","admin2_code":"12","admin3_code":"","admin4_code":"","population":"18860","elevation":"","dem":"92","timezone":"Europe/Dublin","modification_date":"2012-01-18"},{"geonameid":"2962308","name":"Navan","asciiname":"Navan","alternatenames":["An Uaimh","An-Uav'","Navan","Navanas","Yn Ooive","na wen","naebeon","navani","navu~an","Ан-Уавь","Наван","נאבאן","ნავანი","ナヴァン","納文","내번"],"latitude":"53.65278","longitude":"-6.68139","feature_class":"P","feature_code":"PPLA2","country_code":"IE","cc2":"","admin1_code":"L","admin2_code":"21","admin3_code":"","admin4_code":"","population":"24545","elevation":"","dem":"35","timezone":"Europe/Dublin","modification_date":"2011-05-29"},{"geonameid":"2962334","name":"Naas","asciiname":"Naas","alternatenames":["An Nas","An Nás","Naas"],"latitude":"53.21583","longitude":"-6.66694","feature_class":"P","feature_code":"PPLA2","country_code":"IE","cc2":"","admin1_code":"L","admin2_code":"12","admin3_code":"","admin4_code":"","population":"20713","elevation":"","dem":"93","timezone":"Europe/Dublin","modification_date":"2013-12-08"},{"geonameid":"2962361","name":"An Muileann gCearr","asciiname":"An Muileann gCearr","alternatenames":["An Muileann gCearr","Mullingar"],"latitude":"53.53333","longitude":"-7.35","feature_class":"P","feature_code":"PPLA2","country_code":"IE","cc2":"","admin1_code":"L","admin2_code":"29","admin3_code":"","admin4_code":"","population":"17262","elevation":"101","dem":"96","timezone":"Europe/Dublin","modification_date":"2010-09-05"},{"geonameid":"2962465","name":"Mountrath","asciiname":"Mountrath","alternatenames":["Maighean Ratha","Maighean Rátha","Mountrath"],"latitude":"52.99889","longitude":"-7.47278","feature_class":"P","feature_code":"PPL","country_code":"IE","cc2":"","admin1_code":"L","admin2_code":"15","admin3_code":"","admin4_code":"","population":"1661","elevation":"","dem":"100","timezone":"Europe/Dublin","modification_date":"2013-11-26"},{"geonameid":"2962476","name":"Mountmellick","asciiname":"Mountmellick","alternatenames":["Mointeach Milic","Mountmellick","Móinteach Mílic"],"latitude":"53.11361","longitude":"-7.32","feature_class":"P","feature_code":"PPL","country_code":"IE","cc2":"","admin1_code":"L","admin2_code":"15","admin3_code":"","admin4_code":"","population":"3547","elevation":"","dem":"76","timezone":"Europe/Dublin","modification_date":"2012-01-18"},{"geonameid":"2962539","name":"Moone","asciiname":"Moone","alternatenames":["Maoin","Moone"],"latitude":"52.97556","longitude":"-6.815","feature_class":"P","feature_code":"PPL","country_code":"IE","cc2":"IE","admin1_code":"L","admin2_code":"12","admin3_code":"","admin4_code":"","population":"1195","elevation":"","dem":"106","timezone":"Europe/Dublin","modification_date":"2013-12-08"},{"geonameid":"2962540","name":"Mooncoin","asciiname":"Mooncoin","alternatenames":["Moin Choinn","Mooncoin","Móin Choinn"],"latitude":"52.28944","longitude":"-7.24833","feature_class":"P","feature_code":"PPL","country_code":"IE","cc2":"IE","admin1_code":"L","admin2_code":"13","admin3_code":"","admin4_code":"","population":"1166","elevation":"","dem":"32","timezone":"Europe/Dublin","modification_date":"2013-11-26"},{"geonameid":"2962543","name":"Monkstown","asciiname":"Monkstown","alternatenames":[""],"latitude":"53.29308","longitude":"-6.15312","feature_class":"P","feature_code":"PPL","country_code":"IE","cc2":"","admin1_code":"L","admin2_code":"07","admin3_code":"","admin4_code":"","population":"5555","elevation":"","dem":"15","timezone":"Europe/Dublin","modification_date":"2013-12-08"},{"geonameid":"2962556","name":"Monasterevin","asciiname":"Monasterevin","alternatenames":["Mainistir Eimhin","Mainistir Eimhín","Monasterevan","Monasterevin"],"latitude":"53.14056","longitude":"-7.06639","feature_class":"P","feature_code":"PPL","country_code":"IE","cc2":"","admin1_code":"L","admin2_code":"12","admin3_code":"","admin4_code":"","population":"3710","elevation":"","dem":"63","timezone":"Europe/Dublin","modification_date":"2013-12-08"},{"geonameid":"2962580","name":"Moate","asciiname":"Moate","alternatenames":[""],"latitude":"53.55","longitude":"-7.71667","feature_class":"P","feature_code":"PPL","country_code":"IE","cc2":"","admin1_code":"L","admin2_code":"29","admin3_code":"","admin4_code":"","population":"1504","elevation":"","dem":"59","timezone":"Europe/Dublin","modification_date":"2010-08-14"},{"geonameid":"2962638","name":"Mount Merrion","asciiname":"Mount Merrion","alternatenames":["Cnoc Mhuirfean","Merrion"],"latitude":"53.30008","longitude":"-6.21504","feature_class":"P","feature_code":"PPLX","country_code":"IE","cc2":"IE","admin1_code":"L","admin2_code":"07","admin3_code":"","admin4_code":"","population":"7846","elevation":"","dem":"44","timezone":"Europe/Dublin","modification_date":"2013-12-08"},{"geonameid":"2962668","name":"Maynooth","asciiname":"Maynooth","alternatenames":["Maigh Nuad","Maynooth","Mejnut","meinusu","mnwth","myynwt","Мейнут","מיינות","منوث","メイヌース"],"latitude":"53.385","longitude":"-6.59361","feature_class":"P","feature_code":"PPL","country_code":"IE","cc2":"","admin1_code":"L","admin2_code":"12","admin3_code":"","admin4_code":"","population":"12510","elevation":"","dem":"56","timezone":"Europe/Dublin","modification_date":"2013-11-26"},{"geonameid":"2962696","name":"Marino","asciiname":"Marino","alternatenames":[""],"latitude":"53.37022","longitude":"-6.23646","feature_class":"P","feature_code":"PPLX","country_code":"IE","cc2":"","admin1_code":"L","admin2_code":"07","admin3_code":"","admin4_code":"","population":"11023","elevation":"","dem":"12","timezone":"Europe/Dublin","modification_date":"2013-12-08"},{"geonameid":"2962725","name":"Malahide","asciiname":"Malahide","alternatenames":["Malahide","Malakhajd","Mullach Ide","Mullach Íde","malahayd","Малахайд","مالاهاید"],"latitude":"53.45083","longitude":"-6.15444","feature_class":"P","feature_code":"PPL","country_code":"IE","cc2":"","admin1_code":"L","admin2_code":"07","admin3_code":"","admin4_code":"","population":"15846","elevation":"","dem":"11","timezone":"Europe/Dublin","modification_date":"2013-11-26"},{"geonameid":"2962769","name":"Lusk","asciiname":"Lusk","alternatenames":["Lusca","Lusk"],"latitude":"53.52743","longitude":"-6.16423","feature_class":"P","feature_code":"PPL","country_code":"IE","cc2":"","admin1_code":"L","admin2_code":"07","admin3_code":"","admin4_code":"","population":"7022","elevation":"","dem":"27","timezone":"Europe/Dublin","modification_date":"2013-11-26"},{"geonameid":"2962785","name":"Lucan","asciiname":"Lucan","alternatenames":["Leamhcan","Leamhcán","Lucan"],"latitude":"53.35736","longitude":"-6.44859","feature_class":"P","feature_code":"PPL","country_code":"IE","cc2":"IE","admin1_code":"L","admin2_code":"07","admin3_code":"","admin4_code":"","population":"15269","elevation":"","dem":"25","timezone":"Europe/Dublin","modification_date":"2013-12-08"},{"geonameid":"2962804","name":"Loughlinstown","asciiname":"Loughlinstown","alternatenames":["Loughlinstown"],"latitude":"53.24389","longitude":"-6.13306","feature_class":"P","feature_code":"PPL","country_code":"IE","cc2":"","admin1_code":"L","admin2_code":"07","admin3_code":"","admin4_code":"","population":"3665","elevation":"","dem":"17","timezone":"Europe/Dublin","modification_date":"2013-12-08"},{"geonameid":"2962827","name":"Longwood","asciiname":"Longwood","alternatenames":["Longwood"],"latitude":"53.45389","longitude":"-6.92194","feature_class":"P","feature_code":"PPL","country_code":"IE","cc2":"","admin1_code":"L","admin2_code":"21","admin3_code":"","admin4_code":"","population":"1378","elevation":"","dem":"66","timezone":"Europe/Dublin","modification_date":"2013-11-26"},{"geonameid":"2962840","name":"Longford","asciiname":"Longford","alternatenames":["An Longfort","Longford","Longfordas","longafarda","longpeodeu","longpordi","lwnjfwrd","rongufodo","Лонгфорд","لونجفورد","लॉंगफ़र्ड","ლონგფორდი","ロングフォード","롱퍼드"],"latitude":"53.72536","longitude":"-7.79823","feature_class":"P","feature_code":"PPLA2","country_code":"IE","cc2":"","admin1_code":"L","admin2_code":"18","admin3_code":"","admin4_code":"","population":"7787","elevation":"","dem":"53","timezone":"Europe/Dublin","modification_date":"2012-03-01"},{"geonameid":"2962974","name":"Leixlip","asciiname":"Leixlip","alternatenames":["Leim an Bhradain","Leixlip","Lejkslip","Lijkslip","Likslip","Léim an Bhradáin","lykslyp","Лейкслип","Лийкслип","Ликслип","لیکسلیپ"],"latitude":"53.36583","longitude":"-6.49556","feature_class":"P","feature_code":"PPL","country_code":"IE","cc2":"","admin1_code":"L","admin2_code":"12","admin3_code":"","admin4_code":"","population":"15452","elevation":"","dem":"48","timezone":"Europe/Dublin","modification_date":"2013-12-08"},{"geonameid":"2963007","name":"Laytown","asciiname":"Laytown","alternatenames":["An Inse","Laytown"],"latitude":"53.68194","longitude":"-6.23917","feature_class":"P","feature_code":"PPL","country_code":"IE","cc2":"","admin1_code":"L","admin2_code":"21","admin3_code":"","admin4_code":"","population":"10889","elevation":"","dem":"7","timezone":"Europe/Dublin","modification_date":"2013-12-08"},{"geonameid":"2963036","name":"Lanesborough","asciiname":"Lanesborough","alternatenames":["Beal Atha Liag","Béal Átha Liag","Lanesborough"],"latitude":"53.66667","longitude":"-7.98333","feature_class":"P","feature_code":"PPL","country_code":"IE","cc2":"","admin1_code":"L","admin2_code":"18","admin3_code":"","admin4_code":"","population":"1377","elevation":"","dem":"53","timezone":"Europe/Dublin","modification_date":"2013-12-08"},{"geonameid":"2963158","name":"Kinnegad","asciiname":"Kinnegad","alternatenames":["Cionn Atha Gad","Cionn Átha Gad","Kinnegad"],"latitude":"53.45222","longitude":"-7.09972","feature_class":"P","feature_code":"PPL","country_code":"IE","cc2":"","admin1_code":"L","admin2_code":"29","admin3_code":"","admin4_code":"","population":"2662","elevation":"","dem":"70","timezone":"Europe/Dublin","modification_date":"2013-11-26"},{"geonameid":"2963398","name":"Kilkenny","asciiname":"Kilkenny","alternatenames":["Canicopolis","Cill Chainnigh","KKY","Keeill Chennee","Kilkeni","Kilkenis","Kilkenni","Kilkenny","kilkeni","kirukeni","Килкени","Килкенни","キルケニー","킬케니"],"latitude":"52.65417","longitude":"-7.25222","feature_class":"P","feature_code":"PPLA2","country_code":"IE","cc2":"","admin1_code":"L","admin2_code":"13","admin3_code":"","admin4_code":"","population":"21589","elevation":"","dem":"48","timezone":"Europe/Dublin","modification_date":"2014-05-09"},{"geonameid":"2963436","name":"Kildare","asciiname":"Kildare","alternatenames":["Cill Dara","Keeill Darey","Kildehr","Kilderas","Kildeur","Килдеър","Килдэр"],"latitude":"53.15611","longitude":"-6.91444","feature_class":"P","feature_code":"PPL","country_code":"IE","cc2":"","admin1_code":"L","admin2_code":"12","admin3_code":"","admin4_code":"","population":"8142","elevation":"","dem":"100","timezone":"Europe/Dublin","modification_date":"2013-11-26"},{"geonameid":"2963444","name":"Kilcullen","asciiname":"Kilcullen","alternatenames":["Cill Chuillinn","Kilcullen"],"latitude":"53.13028","longitude":"-6.74444","feature_class":"P","feature_code":"PPL","country_code":"IE","cc2":"","admin1_code":"L","admin2_code":"12","admin3_code":"","admin4_code":"","population":"3473","elevation":"","dem":"113","timezone":"Europe/Dublin","modification_date":"2013-11-26"},{"geonameid":"2963460","name":"Kilcoole","asciiname":"Kilcoole","alternatenames":["Cill Chomhghaill","Kilcoole"],"latitude":"53.10278","longitude":"-6.065","feature_class":"P","feature_code":"PPL","country_code":"IE","cc2":"","admin1_code":"L","admin2_code":"31","admin3_code":"","admin4_code":"","population":"4049","elevation":"","dem":"18","timezone":"Europe/Dublin","modification_date":"2013-11-26"},{"geonameid":"2963472","name":"Kilcock","asciiname":"Kilcock","alternatenames":["Cill Choca","Kilcock"],"latitude":"53.40222","longitude":"-6.67083","feature_class":"P","feature_code":"PPL","country_code":"IE","cc2":"","admin1_code":"L","admin2_code":"12","admin3_code":"","admin4_code":"","population":"5533","elevation":"","dem":"68","timezone":"Europe/Dublin","modification_date":"2013-11-26"},{"geonameid":"2963499","name":"Kilbeggan","asciiname":"Kilbeggan","alternatenames":["Cill Bheagain","Cill Bheagáin","Kilbeggan"],"latitude":"53.36944","longitude":"-7.50333","feature_class":"P","feature_code":"PPL","country_code":"IE","cc2":"","admin1_code":"L","admin2_code":"29","admin3_code":"","admin4_code":"","population":"1199","elevation":"","dem":"67","timezone":"Europe/Dublin","modification_date":"2013-11-26"},{"geonameid":"2963528","name":"Kells","asciiname":"Kells","alternatenames":["Ceanannas","Ceanannus Mor","Ceanannus Mór","Kells","Kels","Келлс","Келс"],"latitude":"53.72639","longitude":"-6.87917","feature_class":"P","feature_code":"PPL","country_code":"IE","cc2":"","admin1_code":"L","admin2_code":"21","admin3_code":"","admin4_code":"","population":"4820","elevation":"","dem":"77","timezone":"Europe/Dublin","modification_date":"2012-02-28"},{"geonameid":"2963565","name":"Johnstown","asciiname":"Johnstown","alternatenames":[""],"latitude":"53.23833","longitude":"-6.62222","feature_class":"P","feature_code":"PPL","country_code":"IE","cc2":"","admin1_code":"L","admin2_code":"12","admin3_code":"","admin4_code":"","population":"1004","elevation":"","dem":"90","timezone":"Europe/Dublin","modification_date":"2013-11-26"},{"geonameid":"2963722","name":"Howth","asciiname":"Howth","alternatenames":["Binn Eadair","Binn Éadair","Howth","Khout","hoseu","Хоут","호스"],"latitude":"53.38778","longitude":"-6.06528","feature_class":"P","feature_code":"PPL","country_code":"IE","cc2":"","admin1_code":"L","admin2_code":"35","admin3_code":"","admin4_code":"","population":"4574","elevation":"171","dem":"17","timezone":"Europe/Dublin","modification_date":"2013-12-08"},{"geonameid":"2963848","name":"Greystones","asciiname":"Greystones","alternatenames":["Grejstons","Grejstouns","Greystones","Na Clocha Liatha","Грейстонс","Грейстоунс","Грејстонс","გრეისტოუნსი"],"latitude":"53.14083","longitude":"-6.06306","feature_class":"P","feature_code":"PPL","country_code":"IE","cc2":"","admin1_code":"L","admin2_code":"31","admin3_code":"","admin4_code":"","population":"13492","elevation":"80","dem":"19","timezone":"Europe/Dublin","modification_date":"2013-12-08"},{"geonameid":"2963902","name":"Granard","asciiname":"Granard","alternatenames":["Granard","Gránard","Гранард"],"latitude":"53.76667","longitude":"-7.5","feature_class":"P","feature_code":"PPL","country_code":"IE","cc2":"","admin1_code":"L","admin2_code":"18","admin3_code":"","admin4_code":"","population":"1021","elevation":"","dem":"97","timezone":"Europe/Dublin","modification_date":"2013-12-08"},{"geonameid":"2963905","name":"Graiguenamanagh","asciiname":"Graiguenamanagh","alternatenames":["Graig na Manach","Graigue","Graiguenamanagh","Gráig na Manach"],"latitude":"52.54028","longitude":"-6.95472","feature_class":"P","feature_code":"PPL","country_code":"IE","cc2":"IE","admin1_code":"L","admin2_code":"13","admin3_code":"","admin4_code":"","population":"1543","elevation":"","dem":"13","timezone":"Europe/Dublin","modification_date":"2013-12-08"},{"geonameid":"2963962","name":"Gorey","asciiname":"Gorey","alternatenames":["Gorey","Gori","Guaire","gori","Гори","გორი"],"latitude":"52.67472","longitude":"-6.2925","feature_class":"P","feature_code":"PPL","country_code":"IE","cc2":"","admin1_code":"L","admin2_code":"30","admin3_code":"","admin4_code":"","population":"6040","elevation":"","dem":"46","timezone":"Europe/Dublin","modification_date":"2012-01-18"},{"geonameid":"2964102","name":"Glasnevin","asciiname":"Glasnevin","alternatenames":["Glas Naion","Glas Naíon","Glasnevin","Гласневин"],"latitude":"53.38028","longitude":"-6.26417","feature_class":"P","feature_code":"PPL","country_code":"IE","cc2":"","admin1_code":"L","admin2_code":"07","admin3_code":"","admin4_code":"","population":"3633","elevation":"","dem":"40","timezone":"Europe/Dublin","modification_date":"2013-12-08"},{"geonameid":"2964303","name":"Finglas","asciiname":"Finglas","alternatenames":["Finglas","Tinglas"],"latitude":"53.38917","longitude":"-6.29694","feature_class":"P","feature_code":"PPL","country_code":"IE","cc2":"","admin1_code":"L","admin2_code":"33","admin3_code":"","admin4_code":"","population":"19768","elevation":"","dem":"59","timezone":"Europe/Dublin","modification_date":"2013-12-08"},{"geonameid":"2964318","name":"Ferns","asciiname":"Ferns","alternatenames":["Alder Trees","Fearna","Ferns"],"latitude":"52.58833","longitude":"-6.49972","feature_class":"P","feature_code":"PPL","country_code":"IE","cc2":"","admin1_code":"L","admin2_code":"30","admin3_code":"","admin4_code":"","population":"1362","elevation":"","dem":"58","timezone":"Europe/Dublin","modification_date":"2013-11-26"},{"geonameid":"2964322","name":"Ferbane","asciiname":"Ferbane","alternatenames":["An Fear Ban","An Féar Bán","Ferbane"],"latitude":"53.26944","longitude":"-7.82694","feature_class":"P","feature_code":"PPL","country_code":"IE","cc2":"","admin1_code":"L","admin2_code":"23","admin3_code":"","admin4_code":"","population":"1165","elevation":"","dem":"44","timezone":"Europe/Dublin","modification_date":"2013-11-26"},{"geonameid":"2964401","name":"Enniskerry","asciiname":"Enniskerry","alternatenames":["Ath na Sceire","Enniskerry","Áth na Sceire"],"latitude":"53.1925","longitude":"-6.16917","feature_class":"P","feature_code":"PPL","country_code":"IE","cc2":"","admin1_code":"L","admin2_code":"31","admin3_code":"","admin4_code":"","population":"1811","elevation":"","dem":"69","timezone":"Europe/Dublin","modification_date":"2013-11-26"},{"geonameid":"2964403","name":"Enniscorthy","asciiname":"Enniscorthy","alternatenames":["Enniscorthy","Inis Corthaidh","Inis Córthaidh"],"latitude":"52.50083","longitude":"-6.55778","feature_class":"P","feature_code":"PPL","country_code":"IE","cc2":"","admin1_code":"L","admin2_code":"30","admin3_code":"","admin4_code":"","population":"9709","elevation":"","dem":"52","timezone":"Europe/Dublin","modification_date":"2012-02-28"},{"geonameid":"2964407","name":"Enfield","asciiname":"Enfield","alternatenames":["An Bothar Bui","An Bóthar Buí","Enfield","Innfield"],"latitude":"53.41419","longitude":"-6.83229","feature_class":"P","feature_code":"PPL","country_code":"IE","cc2":"IE","admin1_code":"L","admin2_code":"21","admin3_code":"","admin4_code":"","population":"2929","elevation":"","dem":"76","timezone":"Europe/Dublin","modification_date":"2013-11-26"},{"geonameid":"2964434","name":"Edgeworthstown","asciiname":"Edgeworthstown","alternatenames":["Edgeworthstown","Meathas Troim","Meathas Truim","Meathus Truim","Mostrim"],"latitude":"53.7","longitude":"-7.61667","feature_class":"P","feature_code":"PPL","country_code":"IE","cc2":"","admin1_code":"L","admin2_code":"18","admin3_code":"","admin4_code":"","population":"1744","elevation":"","dem":"93","timezone":"Europe/Dublin","modification_date":"2013-11-21"},{"geonameid":"2964436","name":"Edenderry","asciiname":"Edenderry","alternatenames":["Eaden Doire","Edenderry","Éaden Doire"],"latitude":"53.34528","longitude":"-7.04972","feature_class":"P","feature_code":"PPL","country_code":"IE","cc2":"","admin1_code":"L","admin2_code":"23","admin3_code":"","admin4_code":"","population":"4890","elevation":"","dem":"71","timezone":"Europe/Dublin","modification_date":"2012-01-18"},{"geonameid":"2964472","name":"Dunshaughlin","asciiname":"Dunshaughlin","alternatenames":["Dun Seachlainn","Dunshaughlin","Dún Seachlainn"],"latitude":"53.5125","longitude":"-6.54","feature_class":"P","feature_code":"PPL","country_code":"IE","cc2":"","admin1_code":"L","admin2_code":"21","admin3_code":"","admin4_code":"","population":"3903","elevation":"","dem":"100","timezone":"Europe/Dublin","modification_date":"2013-11-26"},{"geonameid":"2964504","name":"Dunleer","asciiname":"Dunleer","alternatenames":["Dun Leire","Dunleer","Dún Léire"],"latitude":"53.835","longitude":"-6.39611","feature_class":"P","feature_code":"PPL","country_code":"IE","cc2":"IE","admin1_code":"L","admin2_code":"19","admin3_code":"","admin4_code":"","population":"1786","elevation":"","dem":"21","timezone":"Europe/Dublin","modification_date":"2013-11-26"},{"geonameid":"2964506","name":"Dún Laoghaire","asciiname":"Dun Laoghaire","alternatenames":["Dan Lere","Dan Lerė","Dan Liri","Dun Laoghaire","Dun Laoire","Dun-Lehare","Dunleary","Dún Laoghaire","Dún Laoire","Kingstown","danlyry","dn lyry","dunlere","Дан Лири","Дун-Лэаре","דן לירי","دانلیری","ดูนเลเร","ダン・レアリー"],"latitude":"53.29395","longitude":"-6.13586","feature_class":"P","feature_code":"PPL","country_code":"IE","cc2":"IE","admin1_code":"L","admin2_code":"34","admin3_code":"","admin4_code":"","population":"185400","elevation":"","dem":"16","timezone":"Europe/Dublin","modification_date":"2014-02-28"},{"geonameid":"2964532","name":"Dundrum","asciiname":"Dundrum","alternatenames":[""],"latitude":"53.29067","longitude":"-6.25714","feature_class":"P","feature_code":"PPL","country_code":"IE","cc2":"","admin1_code":"L","admin2_code":"07","admin3_code":"","admin4_code":"","population":"12152","elevation":"","dem":"60","timezone":"Europe/Dublin","modification_date":"2013-12-08"},{"geonameid":"2964540","name":"Dundalk","asciiname":"Dundalk","alternatenames":["Dandalk","Dandolk","Dandolkas","Doon Jialgan","Dun Dealgan","Dundalk","Dundolk","Dún Dealgan","dandak","dandoku","deng duo ke","Дандалк","Дандолк","Дъндолк","دانداک","დანდოლკი","ダンドーク","邓多克"],"latitude":"54","longitude":"-6.41667","feature_class":"P","feature_code":"PPLA2","country_code":"IE","cc2":"","admin1_code":"L","admin2_code":"19","admin3_code":"","admin4_code":"","population":"33428","elevation":"","dem":"18","timezone":"Europe/Dublin","modification_date":"2012-03-01"},{"geonameid":"2964547","name":"Dunboyne","asciiname":"Dunboyne","alternatenames":["Dunboyne"],"latitude":"53.4","longitude":"-6.46667","feature_class":"P","feature_code":"PPL","country_code":"IE","cc2":"","admin1_code":"L","admin2_code":"21","admin3_code":"","admin4_code":"","population":"6959","elevation":"","dem":"68","timezone":"Europe/Dublin","modification_date":"2013-12-08"},{"geonameid":"2964558","name":"Duleek","asciiname":"Duleek","alternatenames":["Damhliag","Duleek"],"latitude":"53.65667","longitude":"-6.41917","feature_class":"P","feature_code":"PPL","country_code":"IE","cc2":"","admin1_code":"L","admin2_code":"21","admin3_code":"","admin4_code":"","population":"3988","elevation":"","dem":"26","timezone":"Europe/Dublin","modification_date":"2013-11-26"},{"geonameid":"2964574","name":"Dublin","asciiname":"Dublin","alternatenames":["Baile Atha Cliath","Baile Átha Cliath","Ciuda de Dublin","Ciudá de Dublín","DUB","Dablin","Diblin","Difelin","Divlyn","Doublino","Dublin","Dublin city","Dublina","Dublinas","Dublini","Dublino","Dublinu","Dublín","Dublîn","Dueblin","Dulenn","Dulyn","Dyflinn","Düblin","Eblana","Gorad Dublin","dabalina","dablin","dablina","daburin","dbln","dblyn","deobeullin","dou bai lin","dublini","dwblyn","taplin","Δουβλίνο","Горад Дублін","Даблин","Дублин","Дублін","Дъблин","Դուբլին","דבלין","דובלין","دبلن","دوبلين","دوبلین","دۇبلىن","ڈبلن","ډبلن","ܕܒܠܢ","डब्लिन","दब्लिन","ডাবলিন","ਡਬਲਿਨ","டப்லின்","ಡಬ್ಲಿನ್","ഡബ്ലിൻ","ดับลิน","དུབ་ལིན།","ဒပ်ဗလင်မြို့","დუბლინი","ደብሊን","ダブリン","都柏林","더블린"],"latitude":"53.33306","longitude":"-6.24889","feature_class":"P","feature_code":"PPLC","country_code":"IE","cc2":"","admin1_code":"L","admin2_code":"33","admin3_code":"","admin4_code":"","population":"1024027","elevation":"","dem":"17","timezone":"Europe/Dublin","modification_date":"2013-05-30"},{"geonameid":"2964642","name":"Dromiskin","asciiname":"Dromiskin","alternatenames":["Dromiskin"],"latitude":"53.9275","longitude":"-6.41139","feature_class":"P","feature_code":"PPL","country_code":"IE","cc2":"","admin1_code":"L","admin2_code":"19","admin3_code":"","admin4_code":"","population":"1115","elevation":"","dem":"7","timezone":"Europe/Dublin","modification_date":"2013-11-26"},{"geonameid":"2964661","name":"Drogheda","asciiname":"Drogheda","alternatenames":["Droeda","Droehda","Drogeda","Droghad Aah","Drogheda","Drogheda - Droichead Atha","Drogheda - Droichead Átha","Droichead Atha","Droichead Átha","Droida","de luo he da","deuloida","doroheda","drahyda","Дрогеда","Дроида","Дроэда","دراهیدا","ドロヘダ","德羅赫達","드로이다"],"latitude":"53.71889","longitude":"-6.34778","feature_class":"P","feature_code":"PPL","country_code":"IE","cc2":"","admin1_code":"L","admin2_code":"19","admin3_code":"","admin4_code":"","population":"33441","elevation":"","dem":"28","timezone":"Europe/Dublin","modification_date":"2012-02-28"},{"geonameid":"2964745","name":"Donnybrook","asciiname":"Donnybrook","alternatenames":[""],"latitude":"53.31375","longitude":"-6.22274","feature_class":"P","feature_code":"PPL","country_code":"IE","cc2":"","admin1_code":"L","admin2_code":"07","admin3_code":"","admin4_code":"","population":"10645","elevation":"","dem":"17","timezone":"Europe/Dublin","modification_date":"2013-12-08"},{"geonameid":"2964765","name":"Donabate","asciiname":"Donabate","alternatenames":["Domhnach Bat","Donabate"],"latitude":"53.48722","longitude":"-6.15194","feature_class":"P","feature_code":"PPL","country_code":"IE","cc2":"","admin1_code":"L","admin2_code":"07","admin3_code":"","admin4_code":"","population":"6778","elevation":"","dem":"7","timezone":"Europe/Dublin","modification_date":"2013-11-26"},{"geonameid":"2964767","name":"Dollymount","asciiname":"Dollymount","alternatenames":[""],"latitude":"53.36489","longitude":"-6.18032","feature_class":"P","feature_code":"PPL","country_code":"IE","cc2":"","admin1_code":"L","admin2_code":"07","admin3_code":"","admin4_code":"","population":"5070","elevation":"","dem":"11","timezone":"Europe/Dublin","modification_date":"2013-12-08"},{"geonameid":"2964822","name":"Derrinturn","asciiname":"Derrinturn","alternatenames":["Derrinturn"],"latitude":"53.34167","longitude":"-6.94111","feature_class":"P","feature_code":"PPL","country_code":"IE","cc2":"","admin1_code":"L","admin2_code":"12","admin3_code":"","admin4_code":"","population":"1541","elevation":"","dem":"86","timezone":"Europe/Dublin","modification_date":"2013-11-26"},{"geonameid":"2964892","name":"Dalkey","asciiname":"Dalkey","alternatenames":["Dalkey","Deilginis"],"latitude":"53.27833","longitude":"-6.10028","feature_class":"P","feature_code":"PPL","country_code":"IE","cc2":"IE","admin1_code":"L","admin2_code":"07","admin3_code":"","admin4_code":"","population":"6622","elevation":"","dem":"19","timezone":"Europe/Dublin","modification_date":"2013-12-08"},{"geonameid":"2964963","name":"Crumlin","asciiname":"Crumlin","alternatenames":["Crumlin"],"latitude":"53.32417","longitude":"-6.32861","feature_class":"P","feature_code":"PPL","country_code":"IE","cc2":"","admin1_code":"L","admin2_code":"07","admin3_code":"","admin4_code":"","population":"11294","elevation":"","dem":"41","timezone":"Europe/Dublin","modification_date":"2013-11-17"},{"geonameid":"2965092","name":"Courtown","asciiname":"Courtown","alternatenames":["Baile na Cuirte","Baile na Cúirte","Courtown","Courtown Harbour","Cuan Bhaile na Cuirte","Cuan Bhaile na Cúirte"],"latitude":"52.64424","longitude":"-6.22899","feature_class":"P","feature_code":"PPL","country_code":"IE","cc2":"","admin1_code":"L","admin2_code":"30","admin3_code":"","admin4_code":"","population":"2857","elevation":"","dem":"9","timezone":"Europe/Dublin","modification_date":"2013-12-08"},{"geonameid":"2965381","name":"Clondalkin","asciiname":"Clondalkin","alternatenames":["Clondalkin","Cluain Dolcain","Cluain Dolcáin","Klondolkin","klandalkyn","Клондолкин","کلاندالکین","კლონდოლკინი"],"latitude":"53.32444","longitude":"-6.39722","feature_class":"P","feature_code":"PPL","country_code":"IE","cc2":"IE","admin1_code":"L","admin2_code":"07","admin3_code":"","admin4_code":"","population":"14508","elevation":"","dem":"60","timezone":"Europe/Dublin","modification_date":"2013-12-08"},{"geonameid":"2965420","name":"Clogherhead","asciiname":"Clogherhead","alternatenames":["Ceann Chlochair","Clogher","Clogherhead"],"latitude":"53.79361","longitude":"-6.2375","feature_class":"P","feature_code":"PPL","country_code":"IE","cc2":"IE","admin1_code":"L","admin2_code":"19","admin3_code":"","admin4_code":"","population":"1993","elevation":"","dem":"41","timezone":"Europe/Dublin","modification_date":"2013-11-26"},{"geonameid":"2965482","name":"Clara","asciiname":"Clara","alternatenames":["Clara","Cloirtheach","Clóirtheach"],"latitude":"53.3425","longitude":"-7.61389","feature_class":"P","feature_code":"PPL","country_code":"IE","cc2":"","admin1_code":"L","admin2_code":"23","admin3_code":"","admin4_code":"","population":"3242","elevation":"","dem":"55","timezone":"Europe/Dublin","modification_date":"2013-11-26"},{"geonameid":"2965484","name":"Clane","asciiname":"Clane","alternatenames":["Clane","Claonadh"],"latitude":"53.29139","longitude":"-6.68917","feature_class":"P","feature_code":"PPL","country_code":"IE","cc2":"","admin1_code":"L","admin2_code":"12","admin3_code":"","admin4_code":"","population":"6702","elevation":"","dem":"68","timezone":"Europe/Dublin","modification_date":"2013-11-26"},{"geonameid":"2965509","name":"Cherryville","asciiname":"Cherryville","alternatenames":[""],"latitude":"53.15694","longitude":"-6.96667","feature_class":"P","feature_code":"PPL","country_code":"IE","cc2":"","admin1_code":"L","admin2_code":"12","admin3_code":"","admin4_code":"","population":"6380","elevation":"","dem":"99","timezone":"Europe/Dublin","modification_date":"2010-08-14"},{"geonameid":"2965525","name":"Chapelizod","asciiname":"Chapelizod","alternatenames":["Chapelizod"],"latitude":"53.34889","longitude":"-6.34667","feature_class":"P","feature_code":"PPL","country_code":"IE","cc2":"","admin1_code":"L","admin2_code":"07","admin3_code":"","admin4_code":"","population":"5296","elevation":"","dem":"9","timezone":"Europe/Dublin","modification_date":"2013-12-08"},{"geonameid":"2965529","name":"Celbridge","asciiname":"Celbridge","alternatenames":["Celbridge","Cill Droichid","Selbridzh","slbryj","Селбридж","سلبریج"],"latitude":"53.33861","longitude":"-6.54361","feature_class":"P","feature_code":"PPL","country_code":"IE","cc2":"","admin1_code":"L","admin2_code":"12","admin3_code":"","admin4_code":"","population":"19537","elevation":"","dem":"57","timezone":"Europe/Dublin","modification_date":"2013-11-26"},{"geonameid":"2965573","name":"Castlepollard","asciiname":"Castlepollard","alternatenames":["Baile na gCros","Castelpollard","Castlepollard"],"latitude":"53.66667","longitude":"-7.3","feature_class":"P","feature_code":"PPL","country_code":"IE","cc2":"","admin1_code":"L","admin2_code":"29","admin3_code":"","admin4_code":"","population":"1042","elevation":"","dem":"63","timezone":"Europe/Dublin","modification_date":"2013-12-08"},{"geonameid":"2965599","name":"Castleknock","asciiname":"Castleknock","alternatenames":["Caislean Cnucha","Caisleán Cnucha","Kaslnok","kslnak","Каслнок","کسلناک"],"latitude":"53.37483","longitude":"-6.36336","feature_class":"P","feature_code":"PPL","country_code":"IE","cc2":"","admin1_code":"L","admin2_code":"07","admin3_code":"","admin4_code":"","population":"8301","elevation":"","dem":"61","timezone":"Europe/Dublin","modification_date":"2013-12-08"},{"geonameid":"2965632","name":"Castledermot","asciiname":"Castledermot","alternatenames":["Castledermot","Diseart Diarmada","Díseart Diarmada"],"latitude":"52.90889","longitude":"-6.84222","feature_class":"P","feature_code":"PPL","country_code":"IE","cc2":"","admin1_code":"L","admin2_code":"12","admin3_code":"","admin4_code":"","population":"1398","elevation":"","dem":"77","timezone":"Europe/Dublin","modification_date":"2013-11-26"},{"geonameid":"2965643","name":"Castlecomer","asciiname":"Castlecomer","alternatenames":["Caislean an Chomair","Caisleán an Chomair","Castlecomer","Kaslkomer","Каслкомер"],"latitude":"52.80611","longitude":"-7.21056","feature_class":"P","feature_code":"PPL","country_code":"IE","cc2":"","admin1_code":"L","admin2_code":"13","admin3_code":"","admin4_code":"","population":"1456","elevation":"","dem":"123","timezone":"Europe/Dublin","modification_date":"2013-12-08"},{"geonameid":"2965645","name":"Castlebridge","asciiname":"Castlebridge","alternatenames":["Castlebridge","Droichead an Chaisleain","Droichead an Chaisleáin"],"latitude":"52.38639","longitude":"-6.44944","feature_class":"P","feature_code":"PPL","country_code":"IE","cc2":"","admin1_code":"L","admin2_code":"30","admin3_code":"","admin4_code":"","population":"1726","elevation":"","dem":"17","timezone":"Europe/Dublin","modification_date":"2013-11-26"},{"geonameid":"2965653","name":"Castlebellingham","asciiname":"Castlebellingham","alternatenames":["Baile an Ghearlanaigh","Baile an Ghearlánaigh","Castlebellingham"],"latitude":"53.90083","longitude":"-6.39028","feature_class":"P","feature_code":"PPL","country_code":"IE","cc2":"","admin1_code":"L","admin2_code":"19","admin3_code":"","admin4_code":"","population":"1035","elevation":"","dem":"14","timezone":"Europe/Dublin","modification_date":"2013-12-08"},{"geonameid":"2965760","name":"Carnew","asciiname":"Carnew","alternatenames":["Carn an Bhua","Carnew"],"latitude":"52.70806","longitude":"-6.49444","feature_class":"P","feature_code":"PPL","country_code":"IE","cc2":"","admin1_code":"L","admin2_code":"31","admin3_code":"","admin4_code":"","population":"1091","elevation":"","dem":"101","timezone":"Europe/Dublin","modification_date":"2013-11-26"},{"geonameid":"2965768","name":"Carlow","asciiname":"Carlow","alternatenames":["Carlow","Ceatharlach"],"latitude":"52.84083","longitude":"-6.92611","feature_class":"P","feature_code":"PPLA2","country_code":"IE","cc2":"","admin1_code":"L","admin2_code":"01","admin3_code":"","admin4_code":"","population":"20055","elevation":"","dem":"55","timezone":"Europe/Dublin","modification_date":"2011-05-29"},{"geonameid":"2965772","name":"Carlingford","asciiname":"Carlingford","alternatenames":["Cairlinn","Carlingford"],"latitude":"54.04","longitude":"-6.18833","feature_class":"P","feature_code":"PPL","country_code":"IE","cc2":"IE","admin1_code":"L","admin2_code":"19","admin3_code":"","admin4_code":"","population":"1045","elevation":"","dem":"12","timezone":"Europe/Dublin","modification_date":"2013-11-26"},{"geonameid":"2965841","name":"Callan","asciiname":"Callan","alternatenames":["Callain","Callan"],"latitude":"52.545","longitude":"-7.39111","feature_class":"P","feature_code":"PPL","country_code":"IE","cc2":"","admin1_code":"L","admin2_code":"13","admin3_code":"","admin4_code":"","population":"2330","elevation":"","dem":"67","timezone":"Europe/Dublin","modification_date":"2013-11-26"},{"geonameid":"2965882","name":"Cabinteely","asciiname":"Cabinteely","alternatenames":[""],"latitude":"53.26973","longitude":"-6.16058","feature_class":"P","feature_code":"PPL","country_code":"IE","cc2":"","admin1_code":"L","admin2_code":"07","admin3_code":"","admin4_code":"","population":"10038","elevation":"","dem":"41","timezone":"Europe/Dublin","modification_date":"2013-12-08"},{"geonameid":"2965932","name":"Bunclody","asciiname":"Bunclody","alternatenames":["Bun Cloidi","Bun Clóidi","Bunclody","Newtonbarry","Newtownbarry"],"latitude":"52.6553","longitude":"-6.65359","feature_class":"P","feature_code":"PPL","country_code":"IE","cc2":"","admin1_code":"L","admin2_code":"30","admin3_code":"","admin4_code":"","population":"2012","elevation":"","dem":"35","timezone":"Europe/Dublin","modification_date":"2014-07-13"},{"geonameid":"2966022","name":"Bray","asciiname":"Bray","alternatenames":["Bray","Bre","Brej","Brejus","Bri Chualann","Bré","Brėjus","beulei","brei","bry  ayrlnd","bu rui","burei","Брей","Бреј","بری، ایرلند","ბრეი","ブレイ","布瑞","브레이"],"latitude":"53.20278","longitude":"-6.09833","feature_class":"P","feature_code":"PPL","country_code":"IE","cc2":"","admin1_code":"L","admin2_code":"31","admin3_code":"","admin4_code":"","population":"6477","elevation":"","dem":"7","timezone":"Europe/Dublin","modification_date":"2013-12-08"},{"geonameid":"2966101","name":"Blessington","asciiname":"Blessington","alternatenames":["Baile Coimin","Baile Coimín","Blessington"],"latitude":"53.17","longitude":"-6.5325","feature_class":"P","feature_code":"PPL","country_code":"IE","cc2":"","admin1_code":"L","admin2_code":"31","admin3_code":"","admin4_code":"","population":"5010","elevation":"","dem":"207","timezone":"Europe/Dublin","modification_date":"2013-11-26"},{"geonameid":"2966110","name":"Blanchardstown","asciiname":"Blanchardstown","alternatenames":["Baile Bhlainseir","Baile Bhlainséir","Blachardstown","Blanchardstown"],"latitude":"53.38806","longitude":"-6.37556","feature_class":"P","feature_code":"PPL","country_code":"IE","cc2":"","admin1_code":"L","admin2_code":"35","admin3_code":"","admin4_code":"","population":"16511","elevation":"","dem":"49","timezone":"Europe/Dublin","modification_date":"2013-12-08"},{"geonameid":"2966130","name":"Blackrock","asciiname":"Blackrock","alternatenames":[""],"latitude":"53.96405","longitude":"-6.36514","feature_class":"P","feature_code":"PPL","country_code":"IE","cc2":"","admin1_code":"L","admin2_code":"19","admin3_code":"","admin4_code":"","population":"3000","elevation":"","dem":"6","timezone":"Europe/Dublin","modification_date":"2010-08-30"},{"geonameid":"2966154","name":"Birr","asciiname":"Birr","alternatenames":["Biorra","Bir","Birr","Parsonstown","biri","Бир","Бирр","ბირი"],"latitude":"53.09139","longitude":"-7.91333","feature_class":"P","feature_code":"PPL","country_code":"IE","cc2":"","admin1_code":"L","admin2_code":"23","admin3_code":"","admin4_code":"","population":"4549","elevation":"","dem":"52","timezone":"Europe/Dublin","modification_date":"2012-02-28"},{"geonameid":"2966371","name":"Banagher","asciiname":"Banagher","alternatenames":["Banagher","Beannchar"],"latitude":"53.18861","longitude":"-7.98667","feature_class":"P","feature_code":"PPL","country_code":"IE","cc2":"","admin1_code":"L","admin2_code":"23","admin3_code":"","admin4_code":"","population":"1653","elevation":"","dem":"47","timezone":"Europe/Dublin","modification_date":"2013-11-26"},{"geonameid":"2966375","name":"Baltinglass","asciiname":"Baltinglass","alternatenames":["Baltinglass","Bealach Conglais"],"latitude":"52.93722","longitude":"-6.70917","feature_class":"P","feature_code":"PPL","country_code":"IE","cc2":"IE","admin1_code":"L","admin2_code":"31","admin3_code":"","admin4_code":"","population":"2061","elevation":"","dem":"128","timezone":"Europe/Dublin","modification_date":"2013-11-26"},{"geonameid":"2966378","name":"Balrothery","asciiname":"Balrothery","alternatenames":["Balrothery"],"latitude":"53.58828","longitude":"-6.18728","feature_class":"P","feature_code":"PPL","country_code":"IE","cc2":"","admin1_code":"L","admin2_code":"07","admin3_code":"","admin4_code":"","population":"1866","elevation":"","dem":"40","timezone":"Europe/Dublin","modification_date":"2013-12-10"},{"geonameid":"2966420","name":"Ballyragget","asciiname":"Ballyragget","alternatenames":["Ballyragget","Beal Atha Ragad","Béal Átha Ragad"],"latitude":"52.78889","longitude":"-7.33028","feature_class":"P","feature_code":"PPL","country_code":"IE","cc2":"IE","admin1_code":"L","admin2_code":"13","admin3_code":"","admin4_code":"","population":"1089","elevation":"","dem":"76","timezone":"Europe/Dublin","modification_date":"2013-11-26"},{"geonameid":"2966515","name":"Ballymahon","asciiname":"Ballymahon","alternatenames":["Baile Ui Mhathain","Baile Uí Mhatháin","Ballymahon"],"latitude":"53.56667","longitude":"-7.76667","feature_class":"P","feature_code":"PPL","country_code":"IE","cc2":"","admin1_code":"L","admin2_code":"18","admin3_code":"","admin4_code":"","population":"1563","elevation":"","dem":"54","timezone":"Europe/Dublin","modification_date":"2013-11-26"},{"geonameid":"2966670","name":"Ballyboden","asciiname":"Ballyboden","alternatenames":["Ballyboden"],"latitude":"53.28056","longitude":"-6.31639","feature_class":"P","feature_code":"PPL","country_code":"IE","cc2":"","admin1_code":"L","admin2_code":"07","admin3_code":"","admin4_code":"","population":"9611","elevation":"","dem":"89","timezone":"Europe/Dublin","modification_date":"2013-12-08"},{"geonameid":"2966690","name":"Ballivor","asciiname":"Ballivor","alternatenames":["Baile Iomhair","Baile Íomhair","Ballivor"],"latitude":"53.53167","longitude":"-6.96111","feature_class":"P","feature_code":"PPL","country_code":"IE","cc2":"","admin1_code":"L","admin2_code":"21","admin3_code":"","admin4_code":"","population":"1727","elevation":"","dem":"65","timezone":"Europe/Dublin","modification_date":"2013-11-26"},{"geonameid":"2966793","name":"Baldoyle","asciiname":"Baldoyle","alternatenames":["Baile Duill","Baile Dúill","Baldoyle"],"latitude":"53.39972","longitude":"-6.12583","feature_class":"P","feature_code":"PPL","country_code":"IE","cc2":"","admin1_code":"L","admin2_code":"35","admin3_code":"","admin4_code":"","population":"8043","elevation":"","dem":"1","timezone":"Europe/Dublin","modification_date":"2013-12-08"},{"geonameid":"2966794","name":"Balbriggan","asciiname":"Balbriggan","alternatenames":["Baile Brigin","Baile Brigín","Balbrigan","Balbriggan","balbrigani","balbrygan","Балбриган","Балбригган","بالبریگان","ბალბრიგანი"],"latitude":"53.61278","longitude":"-6.18194","feature_class":"P","feature_code":"PPL","country_code":"IE","cc2":"","admin1_code":"L","admin2_code":"07","admin3_code":"","admin4_code":"","population":"23364","elevation":"","dem":"-9999","timezone":"Europe/Dublin","modification_date":"2013-12-08"},{"geonameid":"2966800","name":"Bagenalstown","asciiname":"Bagenalstown","alternatenames":["Bagenalstown","Moneybeg","Muine Bheag"],"latitude":"52.70031","longitude":"-6.96181","feature_class":"P","feature_code":"PPL","country_code":"IE","cc2":"","admin1_code":"L","admin2_code":"01","admin3_code":"","admin4_code":"","population":"3033","elevation":"","dem":"49","timezone":"Europe/Dublin","modification_date":"2011-06-09"},{"geonameid":"2966817","name":"Aughrim","asciiname":"Aughrim","alternatenames":["Aughrim","Eachroim"],"latitude":"52.85333","longitude":"-6.3275","feature_class":"P","feature_code":"PPL","country_code":"IE","cc2":"","admin1_code":"L","admin2_code":"31","admin3_code":"","admin4_code":"","population":"1364","elevation":"","dem":"72","timezone":"Europe/Dublin","modification_date":"2013-11-26"},{"geonameid":"2966837","name":"Athy","asciiname":"Athy","alternatenames":["Adaj","Ataj","Athy","Baile Atha I","Baile Átha Í","atai","Адай","Атай","Атај","ათაი"],"latitude":"52.99139","longitude":"-6.98028","feature_class":"P","feature_code":"PPL","country_code":"IE","cc2":"","admin1_code":"L","admin2_code":"12","admin3_code":"","admin4_code":"","population":"12855","elevation":"","dem":"62","timezone":"Europe/Dublin","modification_date":"2013-12-08"},{"geonameid":"2966839","name":"Athlone","asciiname":"Athlone","alternatenames":["Athlone","Baile Atha Luain","Baile Átha Luain"],"latitude":"53.43333","longitude":"-7.95","feature_class":"P","feature_code":"PPL","country_code":"IE","cc2":"","admin1_code":"L","admin2_code":"29","admin3_code":"","admin4_code":"","population":"15951","elevation":"","dem":"36","timezone":"Europe/Dublin","modification_date":"2012-02-28"},{"geonameid":"2966842","name":"Athgarvan","asciiname":"Athgarvan","alternatenames":["Athgarvan"],"latitude":"53.15389","longitude":"-6.805","feature_class":"P","feature_code":"PPL","country_code":"IE","cc2":"","admin1_code":"L","admin2_code":"12","admin3_code":"","admin4_code":"","population":"1016","elevation":"","dem":"113","timezone":"Europe/Dublin","modification_date":"2013-12-08"},{"geonameid":"2966848","name":"Athboy","asciiname":"Athboy","alternatenames":["Athboy","Baile Atha Bui","Baile Átha Buí"],"latitude":"53.62327","longitude":"-6.91434","feature_class":"P","feature_code":"PPL","country_code":"IE","cc2":"","admin1_code":"L","admin2_code":"21","admin3_code":"","admin4_code":"","population":"2397","elevation":"","dem":"66","timezone":"Europe/Dublin","modification_date":"2014-12-03"},{"geonameid":"2966870","name":"Ashbourne","asciiname":"Ashbourne","alternatenames":["Ashbourne","Cill Dheaglain","Cill Dhéagláin"],"latitude":"53.51163","longitude":"-6.39821","feature_class":"P","feature_code":"PPL","country_code":"IE","cc2":"","admin1_code":"L","admin2_code":"21","admin3_code":"","admin4_code":"","population":"11355","elevation":"","dem":"68","timezone":"Europe/Dublin","modification_date":"2013-12-10"},{"geonameid":"2966883","name":"Arklow","asciiname":"Arklow","alternatenames":["An tInbhear Mor","An tInbhear Mór","Arklou","Arklow","Inver Mooar","akeullo","arklw","Арклоу","آرکلو","არკლოუ","아클로"],"latitude":"52.79306","longitude":"-6.14139","feature_class":"P","feature_code":"PPL","country_code":"IE","cc2":"","admin1_code":"L","admin2_code":"31","admin3_code":"","admin4_code":"","population":"11761","elevation":"","dem":"0","timezone":"Europe/Dublin","modification_date":"2013-12-08"},{"geonameid":"2966925","name":"Ardee","asciiname":"Ardee","alternatenames":["Ardee","Baile Atha Fhirdhia","Baile Átha Fhirdhia"],"latitude":"53.85972","longitude":"-6.54056","feature_class":"P","feature_code":"PPL","country_code":"IE","cc2":"","admin1_code":"L","admin2_code":"19","admin3_code":"","admin4_code":"","population":"4008","elevation":"","dem":"27","timezone":"Europe/Dublin","modification_date":"2012-01-18"},{"geonameid":"2967092","name":"Abbeyleix","asciiname":"Abbeyleix","alternatenames":["Abbeyleix","Mainistir Laoise"],"latitude":"52.89917","longitude":"-7.3575","feature_class":"P","feature_code":"PPL","country_code":"IE","cc2":"","admin1_code":"L","admin2_code":"15","admin3_code":"","admin4_code":"","population":"1827","elevation":"","dem":"97","timezone":"Europe/Dublin","modification_date":"2013-12-08"},{"geonameid":"3226389","name":"Castletown","asciiname":"Castletown","alternatenames":["Castletown"],"latitude":"52.72306","longitude":"-6.18944","feature_class":"P","feature_code":"PPL","country_code":"IE","cc2":"","admin1_code":"L","admin2_code":"30","admin3_code":"","admin4_code":"","population":"1195","elevation":"","dem":"24","timezone":"Europe/Dublin","modification_date":"2013-12-08"},{"geonameid":"3230840","name":"Portraine","asciiname":"Portraine","alternatenames":[""],"latitude":"53.49667","longitude":"-6.11111","feature_class":"P","feature_code":"PPL","country_code":"IE","cc2":"","admin1_code":"L","admin2_code":"07","admin3_code":"","admin4_code":"","population":"1372","elevation":"","dem":"3","timezone":"Europe/Dublin","modification_date":"2013-12-08"},{"geonameid":"3302076","name":"Ballygerry","asciiname":"Ballygerry","alternatenames":[""],"latitude":"52.24917","longitude":"-6.35739","feature_class":"P","feature_code":"PPLX","country_code":"IE","cc2":"","admin1_code":"L","admin2_code":"30","admin3_code":"","admin4_code":"","population":"1123","elevation":"","dem":"8","timezone":"Europe/Dublin","modification_date":"2015-02-14"},{"geonameid":"3304313","name":"Ballinroad","asciiname":"Ballinroad","alternatenames":[""],"latitude":"52.51789","longitude":"-6.40619","feature_class":"P","feature_code":"PPL","country_code":"IE","cc2":"","admin1_code":"L","admin2_code":"30","admin3_code":"","admin4_code":"","population":"1097","elevation":"","dem":"130","timezone":"Europe/Dublin","modification_date":"2013-12-08"},{"geonameid":"3314724","name":"Kill","asciiname":"Kill","alternatenames":["An Chill","Kill"],"latitude":"53.25139","longitude":"-6.59167","feature_class":"P","feature_code":"PPL","country_code":"IE","cc2":"","admin1_code":"L","admin2_code":"12","admin3_code":"","admin4_code":"","population":"3095","elevation":"","dem":"92","timezone":"Europe/Dublin","modification_date":"2013-11-26"},{"geonameid":"3315010","name":"Ashford","asciiname":"Ashford","alternatenames":["Ashford","Ath na Fuinseoige"],"latitude":"53.00833","longitude":"-6.11139","feature_class":"P","feature_code":"PPL","country_code":"IE","cc2":"","admin1_code":"L","admin2_code":"31","admin3_code":"","admin4_code":"","population":"1449","elevation":"","dem":"81","timezone":"Europe/Dublin","modification_date":"2013-11-26"},{"geonameid":"3315082","name":"Kilpedder","asciiname":"Kilpedder","alternatenames":["Kilpedder"],"latitude":"53.10917","longitude":"-6.10667","feature_class":"P","feature_code":"PPLL","country_code":"IE","cc2":"","admin1_code":"L","admin2_code":"31","admin3_code":"","admin4_code":"","population":"1287","elevation":"","dem":"93","timezone":"Europe/Dublin","modification_date":"2013-11-26"},{"geonameid":"3315130","name":"Valleymount","asciiname":"Valleymount","alternatenames":["Valleymount"],"latitude":"53.10389","longitude":"-6.55361","feature_class":"P","feature_code":"PPL","country_code":"IE","cc2":"","admin1_code":"L","admin2_code":"31","admin3_code":"","admin4_code":"","population":"1756","elevation":"","dem":"231","timezone":"Europe/Dublin","modification_date":"2013-12-08"},{"geonameid":"3315162","name":"Kilmacanoge","asciiname":"Kilmacanoge","alternatenames":[""],"latitude":"53.16722","longitude":"-6.13361","feature_class":"P","feature_code":"PPL","country_code":"IE","cc2":"","admin1_code":"L","admin2_code":"31","admin3_code":"","admin4_code":"","population":"1028","elevation":"","dem":"90","timezone":"Europe/Dublin","modification_date":"2013-12-08"},{"geonameid":"3315200","name":"Eadestown","asciiname":"Eadestown","alternatenames":[""],"latitude":"53.20278","longitude":"-6.57806","feature_class":"P","feature_code":"PPL","country_code":"IE","cc2":"","admin1_code":"L","admin2_code":"12","admin3_code":"","admin4_code":"","population":"5346","elevation":"","dem":"175","timezone":"Europe/Dublin","modification_date":"2013-12-08"},{"geonameid":"3315204","name":"Little Bray","asciiname":"Little Bray","alternatenames":[""],"latitude":"53.20444","longitude":"-6.12083","feature_class":"P","feature_code":"PPL","country_code":"IE","cc2":"","admin1_code":"L","admin2_code":"07","admin3_code":"","admin4_code":"","population":"8015","elevation":"","dem":"11","timezone":"Europe/Dublin","modification_date":"2013-12-08"},{"geonameid":"3315276","name":"Firhouse","asciiname":"Firhouse","alternatenames":["Firhouse"],"latitude":"53.28167","longitude":"-6.33917","feature_class":"P","feature_code":"PPL","country_code":"IE","cc2":"","admin1_code":"L","admin2_code":"07","admin3_code":"","admin4_code":"","population":"6859","elevation":"","dem":"84","timezone":"Europe/Dublin","modification_date":"2013-12-08"},{"geonameid":"3315278","name":"Sandyford","asciiname":"Sandyford","alternatenames":[""],"latitude":"53.2747","longitude":"-6.2253","feature_class":"P","feature_code":"PPL","country_code":"IE","cc2":"","admin1_code":"L","admin2_code":"07","admin3_code":"","admin4_code":"","population":"22288","elevation":"","dem":"100","timezone":"Europe/Dublin","modification_date":"2013-12-08"},{"geonameid":"3315280","name":"Foxrock","asciiname":"Foxrock","alternatenames":["Foxrock"],"latitude":"53.26667","longitude":"-6.17417","feature_class":"P","feature_code":"PPL","country_code":"IE","cc2":"","admin1_code":"L","admin2_code":"07","admin3_code":"","admin4_code":"","population":"12870","elevation":"","dem":"71","timezone":"Europe/Dublin","modification_date":"2013-12-08"},{"geonameid":"3315282","name":"Sallynoggin","asciiname":"Sallynoggin","alternatenames":[""],"latitude":"53.27917","longitude":"-6.14058","feature_class":"P","feature_code":"PPL","country_code":"IE","cc2":"","admin1_code":"L","admin2_code":"07","admin3_code":"","admin4_code":"","population":"6916","elevation":"","dem":"42","timezone":"Europe/Dublin","modification_date":"2013-12-08"},{"geonameid":"3315287","name":"Rathgar","asciiname":"Rathgar","alternatenames":[""],"latitude":"53.31457","longitude":"-6.275","feature_class":"P","feature_code":"PPL","country_code":"IE","cc2":"","admin1_code":"L","admin2_code":"07","admin3_code":"","admin4_code":"","population":"8394","elevation":"","dem":"39","timezone":"Europe/Dublin","modification_date":"2013-12-08"},{"geonameid":"3315304","name":"Artane","asciiname":"Artane","alternatenames":[""],"latitude":"53.38712","longitude":"-6.2138","feature_class":"P","feature_code":"PPL","country_code":"IE","cc2":"","admin1_code":"L","admin2_code":"07","admin3_code":"","admin4_code":"","population":"5328","elevation":"","dem":"39","timezone":"Europe/Dublin","modification_date":"2013-11-16"},{"geonameid":"3315311","name":"Beaumont","asciiname":"Beaumont","alternatenames":["Beaumont"],"latitude":"53.39139","longitude":"-6.24056","feature_class":"P","feature_code":"PPL","country_code":"IE","cc2":"","admin1_code":"L","admin2_code":"07","admin3_code":"","admin4_code":"","population":"8609","elevation":"","dem":"52","timezone":"Europe/Dublin","modification_date":"2013-12-08"},{"geonameid":"3315312","name":"Drumcondra","asciiname":"Drumcondra","alternatenames":["Droim Conrach"],"latitude":"53.37058","longitude":"-6.25298","feature_class":"P","feature_code":"PPL","country_code":"IE","cc2":"","admin1_code":"L","admin2_code":"07","admin3_code":"","admin4_code":"","population":"4465","elevation":"","dem":"14","timezone":"Europe/Dublin","modification_date":"2013-11-17"},{"geonameid":"3315315","name":"Ballymun","asciiname":"Ballymun","alternatenames":[""],"latitude":"53.39807","longitude":"-6.26693","feature_class":"P","feature_code":"PPL","country_code":"IE","cc2":"","admin1_code":"L","admin2_code":"07","admin3_code":"","admin4_code":"","population":"6262","elevation":"","dem":"62","timezone":"Europe/Dublin","modification_date":"2013-12-08"},{"geonameid":"3315319","name":"Cabra","asciiname":"Cabra","alternatenames":["Cabra"],"latitude":"53.36694","longitude":"-6.29444","feature_class":"P","feature_code":"PPL","country_code":"IE","cc2":"","admin1_code":"L","admin2_code":"07","admin3_code":"","admin4_code":"","population":"4389","elevation":"","dem":"36","timezone":"Europe/Dublin","modification_date":"2013-12-08"},{"geonameid":"3315332","name":"Hartstown","asciiname":"Hartstown","alternatenames":[""],"latitude":"53.39306","longitude":"-6.42694","feature_class":"P","feature_code":"PPL","country_code":"IE","cc2":"","admin1_code":"L","admin2_code":"07","admin3_code":"","admin4_code":"","population":"5882","elevation":"","dem":"61","timezone":"Europe/Dublin","modification_date":"2013-12-08"},{"geonameid":"3315378","name":"Ballyfermot","asciiname":"Ballyfermot","alternatenames":["Ballyfermot"],"latitude":"53.34528","longitude":"-6.35889","feature_class":"P","feature_code":"PPL","country_code":"IE","cc2":"","admin1_code":"L","admin2_code":"07","admin3_code":"","admin4_code":"","population":"8558","elevation":"","dem":"42","timezone":"Europe/Dublin","modification_date":"2013-11-17"},{"geonameid":"3315404","name":"Templeogue","asciiname":"Templeogue","alternatenames":["Teach Mealog","Teach Mealóg","Templeogue","Temploug","tmplwg","Темплоуг","تمپلوگ"],"latitude":"53.29528","longitude":"-6.30889","feature_class":"P","feature_code":"PPLX","country_code":"IE","cc2":"","admin1_code":"L","admin2_code":"07","admin3_code":"","admin4_code":"","population":"7023","elevation":"","dem":"57","timezone":"Europe/Dublin","modification_date":"2013-12-08"},{"geonameid":"3315430","name":"Oldbawn","asciiname":"Oldbawn","alternatenames":["Oldbawn"],"latitude":"53.27556","longitude":"-6.3675","feature_class":"P","feature_code":"PPL","country_code":"IE","cc2":"","admin1_code":"L","admin2_code":"07","admin3_code":"","admin4_code":"","population":"9784","elevation":"","dem":"104","timezone":"Europe/Dublin","modification_date":"2013-11-18"},{"geonameid":"6690994","name":"Rialto","asciiname":"Rialto","alternatenames":[""],"latitude":"53.33625","longitude":"-6.29718","feature_class":"P","feature_code":"PPLX","country_code":"IE","cc2":"","admin1_code":"L","admin2_code":"","admin3_code":"","admin4_code":"","population":"3652","elevation":"","dem":"20","timezone":"Europe/Dublin","modification_date":"2013-11-17"},{"geonameid":"6691010","name":"Ballinteer","asciiname":"Ballinteer","alternatenames":[""],"latitude":"53.27409","longitude":"-6.25397","feature_class":"P","feature_code":"PPLX","country_code":"IE","cc2":"","admin1_code":"L","admin2_code":"","admin3_code":"","admin4_code":"","population":"8547","elevation":"","dem":"98","timezone":"Europe/Dublin","modification_date":"2013-11-17"},{"geonameid":"6691033","name":"Donaghmede","asciiname":"Donaghmede","alternatenames":["Domhnach Mide"],"latitude":"53.39845","longitude":"-6.16179","feature_class":"P","feature_code":"PPLX","country_code":"IE","cc2":"","admin1_code":"L","admin2_code":"","admin3_code":"","admin4_code":"","population":"15299","elevation":"","dem":"18","timezone":"Europe/Dublin","modification_date":"2013-11-17"},{"geonameid":"6857857","name":"Charlesland","asciiname":"Charlesland","alternatenames":["Charlesland"],"latitude":"53.12771","longitude":"-6.06347","feature_class":"P","feature_code":"PPL","country_code":"IE","cc2":"","admin1_code":"L","admin2_code":"","admin3_code":"","admin4_code":"","population":"1800","elevation":"90","dem":"12","timezone":"Europe/Dublin","modification_date":"2012-05-30"},{"geonameid":"8642910","name":"Balally","asciiname":"Balally","alternatenames":["Baile Amhlaoibh"],"latitude":"53.27504","longitude":"-6.23594","feature_class":"P","feature_code":"PPL","country_code":"IE","cc2":"","admin1_code":"L","admin2_code":"","admin3_code":"","admin4_code":"","population":"9051","elevation":"","dem":"96","timezone":"Europe/Dublin","modification_date":"2013-11-16"},{"geonameid":"8658946","name":"Kinsealy-Drinan","asciiname":"Kinsealy-Drinan","alternatenames":[""],"latitude":"53.44395","longitude":"-6.20334","feature_class":"P","feature_code":"PPL","country_code":"IE","cc2":"","admin1_code":"L","admin2_code":"","admin3_code":"","admin4_code":"","population":"5814","elevation":"","dem":"25","timezone":"Europe/Dublin","modification_date":"2013-12-31"}]}