{"region_data":{"adminCode1":"M","lng":"-8.71667","geonameId":7521315,"toponymName":"Munster","countryId":"2963597","fcl":"A","population":1246088,"numberOfChildren":10,"countryCode":"IE","name":"Munster","fclName":"country, state, region,...","countryName":"Ireland","fcodeName":"first-order administrative division","adminName1":"Munster","lat":"52.34333","fcode":"ADM1"},"country_data":{"ISO":"IE","ISO3":"IRL","ISO_Numeric":"372","fips":"EI","country":"Ireland","capital":"Dublin","area":"70280","Population":"4622917","Continent":"EU","tld":".ie","CurrencyCode":"EUR","CurrencyName":"Euro","Phone":"353","Postal_Code_Format":"","Postal_Code_Regex":"","Languages":"en-IE,ga-IE","geonameid":"2963597","neighbours":"GB","EquivalentFipsCode":""},"cities":[{"geonameid":"2960869","name":"Youghal","asciiname":"Youghal","alternatenames":["Eochaill","Jol","Yoal","Youghal","ioli","Йол","იოლი"],"latitude":"51.95","longitude":"-7.85056","feature_class":"P","feature_code":"PPL","country_code":"IE","cc2":"","admin1_code":"M","admin2_code":"04","admin3_code":"","admin4_code":"","population":"6868","elevation":"","dem":"60","timezone":"Europe/Dublin","modification_date":"2014-05-31"},{"geonameid":"2960952","name":"Whitegate","asciiname":"Whitegate","alternatenames":["An Geata Ban","An Geata Bán","Whitegate"],"latitude":"51.83056","longitude":"-8.22972","feature_class":"P","feature_code":"PPL","country_code":"IE","cc2":"","admin1_code":"M","admin2_code":"04","admin3_code":"","admin4_code":"","population":"1067","elevation":"","dem":"42","timezone":"Europe/Dublin","modification_date":"2013-11-26"},{"geonameid":"2960987","name":"Watergrasshill","asciiname":"Watergrasshill","alternatenames":["Cnocan na Biolrai","Cnocán na Biolraí","Watergrasshill"],"latitude":"52.01139","longitude":"-8.34417","feature_class":"P","feature_code":"PPL","country_code":"IE","cc2":"","admin1_code":"M","admin2_code":"04","admin3_code":"","admin4_code":"","population":"1161","elevation":"","dem":"182","timezone":"Europe/Dublin","modification_date":"2013-11-26"},{"geonameid":"2960992","name":"Waterford","asciiname":"Waterford","alternatenames":["Port Lairge","Port Láirge","Purt Largey","Uoterford","Uoturford","Voterford","Voterfordas","WAT","Waterford","Waterford city","u~otafodo","watrfwrd","wo te fu de","woteopeodeu","Вотерфорд","Уотерфорд","Уотърфорд","واترفورد","უოტერფორდი","ウォーターフォード","沃特福德","워터퍼드"],"latitude":"52.25833","longitude":"-7.11194","feature_class":"P","feature_code":"PPLA2","country_code":"IE","cc2":"","admin1_code":"M","admin2_code":"27","admin3_code":"","admin4_code":"","population":"47904","elevation":"","dem":"10","timezone":"Europe/Dublin","modification_date":"2012-03-01"},{"geonameid":"2961120","name":"Trá Mhór","asciiname":"Tra Mhor","alternatenames":["Tramore"],"latitude":"52.16235","longitude":"-7.15244","feature_class":"P","feature_code":"PPL","country_code":"IE","cc2":"","admin1_code":"M","admin2_code":"27","admin3_code":"","admin4_code":"","population":"9164","elevation":"","dem":"43","timezone":"Europe/Dublin","modification_date":"2010-08-14"},{"geonameid":"2961123","name":"Tralee","asciiname":"Tralee","alternatenames":["Tra Li","Traie Lee","Tralee","Trali","Trá Lí","torari","traly","Трали","ترالی","ტრალი","トラリー"],"latitude":"52.27042","longitude":"-9.70264","feature_class":"P","feature_code":"PPLA2","country_code":"IE","cc2":"","admin1_code":"M","admin2_code":"11","admin3_code":"","admin4_code":"","population":"22941","elevation":"10","dem":"8","timezone":"Europe/Dublin","modification_date":"2014-12-18"},{"geonameid":"2961129","name":"Tower","asciiname":"Tower","alternatenames":["Tower","Tower Village"],"latitude":"51.91667","longitude":"-8.6","feature_class":"P","feature_code":"PPL","country_code":"IE","cc2":"","admin1_code":"M","admin2_code":"04","admin3_code":"","admin4_code":"","population":"3306","elevation":"","dem":"94","timezone":"Europe/Dublin","modification_date":"2013-11-26"},{"geonameid":"2961192","name":"Tipperary","asciiname":"Tipperary","alternatenames":["Tiobraid Arann","Tiobraid Árann","Tipperaria","Tipperary","Tipperehri","Tipurari","tipeoleli","Типперэри","Типърари","티퍼레리"],"latitude":"52.47333","longitude":"-8.15583","feature_class":"P","feature_code":"PPL","country_code":"IE","cc2":"","admin1_code":"M","admin2_code":"26","admin3_code":"","admin4_code":"","population":"4976","elevation":"","dem":"91","timezone":"Europe/Dublin","modification_date":"2012-02-28"},{"geonameid":"2961214","name":"Thurles","asciiname":"Thurles","alternatenames":["Durlas","Durlas Eile","Dúrlas Éile","Thurles","Tjorls","Turles","teolleseu","terlesi","Търлес","Тёрлс","თერლესი","털레스"],"latitude":"52.68194","longitude":"-7.80222","feature_class":"P","feature_code":"PPL","country_code":"IE","cc2":"","admin1_code":"M","admin2_code":"26","admin3_code":"","admin4_code":"","population":"7588","elevation":"","dem":"102","timezone":"Europe/Dublin","modification_date":"2012-02-28"},{"geonameid":"2961237","name":"Templemore","asciiname":"Templemore","alternatenames":["An Teampall Mor","An Teampall Mór","Templemore","Templmor","Tempulmor","Темплмор","Темпълмор"],"latitude":"52.79472","longitude":"-7.83389","feature_class":"P","feature_code":"PPL","country_code":"IE","cc2":"","admin1_code":"M","admin2_code":"26","admin3_code":"","admin4_code":"","population":"2264","elevation":"","dem":"114","timezone":"Europe/Dublin","modification_date":"2015-05-24"},{"geonameid":"2961459","name":"Skibbereen","asciiname":"Skibbereen","alternatenames":["An Sciobairin","Skibbereen"],"latitude":"51.55","longitude":"-9.26667","feature_class":"P","feature_code":"PPL","country_code":"IE","cc2":"","admin1_code":"M","admin2_code":"04","admin3_code":"","admin4_code":"","population":"2098","elevation":"","dem":"5","timezone":"Europe/Dublin","modification_date":"2012-02-28"},{"geonameid":"2961470","name":"Sixmilebridge","asciiname":"Sixmilebridge","alternatenames":["Droichead Abhann O gCearnaigh","Droíchead Abhann Ó gCearnaigh","Sixmilebridge"],"latitude":"52.74139","longitude":"-8.77417","feature_class":"P","feature_code":"PPL","country_code":"IE","cc2":"","admin1_code":"M","admin2_code":"03","admin3_code":"","admin4_code":"","population":"2507","elevation":"","dem":"12","timezone":"Europe/Dublin","modification_date":"2013-11-26"},{"geonameid":"2961730","name":"Roscrea","asciiname":"Roscrea","alternatenames":["Ros Cre","Ros Cré","Roscrea","Roskrej","Роскрей"],"latitude":"52.95111","longitude":"-7.80167","feature_class":"P","feature_code":"PPL","country_code":"IE","cc2":"","admin1_code":"M","admin2_code":"26","admin3_code":"","admin4_code":"","population":"5403","elevation":"","dem":"113","timezone":"Europe/Dublin","modification_date":"2015-05-24"},{"geonameid":"2961905","name":"Rathkeale","asciiname":"Rathkeale","alternatenames":["Rath Caola","Rathkeale","Ráth Caola"],"latitude":"52.52444","longitude":"-8.93806","feature_class":"P","feature_code":"PPL","country_code":"IE","cc2":"","admin1_code":"M","admin2_code":"16","admin3_code":"","admin4_code":"","population":"1550","elevation":"","dem":"41","timezone":"Europe/Dublin","modification_date":"2013-11-26"},{"geonameid":"2961924","name":"Rathcormac","asciiname":"Rathcormac","alternatenames":["Rath Chormaic","Rathcormac","Rathcormack","Ráth Chormaic"],"latitude":"52.07694","longitude":"-8.28194","feature_class":"P","feature_code":"PPL","country_code":"IE","cc2":"IE","admin1_code":"M","admin2_code":"04","admin3_code":"","admin4_code":"","population":"1534","elevation":"","dem":"56","timezone":"Europe/Dublin","modification_date":"2013-11-26"},{"geonameid":"2962025","name":"Portlaw","asciiname":"Portlaw","alternatenames":["Port Lach","Port Lách","Portlaw"],"latitude":"52.28833","longitude":"-7.32056","feature_class":"P","feature_code":"PPL","country_code":"IE","cc2":"","admin1_code":"M","admin2_code":"27","admin3_code":"","admin4_code":"","population":"1696","elevation":"","dem":"22","timezone":"Europe/Dublin","modification_date":"2013-11-26"},{"geonameid":"2962066","name":"Passage West","asciiname":"Passage West","alternatenames":["An Pasaiste","An Pasáiste","Passage","Passage West"],"latitude":"51.87389","longitude":"-8.34444","feature_class":"P","feature_code":"PPL","country_code":"IE","cc2":"","admin1_code":"M","admin2_code":"04","admin3_code":"","admin4_code":"","population":"4907","elevation":"","dem":"17","timezone":"Europe/Dublin","modification_date":"2012-01-18"},{"geonameid":"2962257","name":"Newport","asciiname":"Newport","alternatenames":["An Port Nua","Newport"],"latitude":"52.71111","longitude":"-8.40972","feature_class":"P","feature_code":"PPL","country_code":"IE","cc2":"","admin1_code":"M","admin2_code":"26","admin3_code":"","admin4_code":"","population":"1806","elevation":"","dem":"55","timezone":"Europe/Dublin","modification_date":"2015-05-24"},{"geonameid":"2962262","name":"Newmarket on Fergus","asciiname":"Newmarket on Fergus","alternatenames":["Cora Chaitlin","Cora Chaitlín","Newmarket on Fergus"],"latitude":"52.76","longitude":"-8.89556","feature_class":"P","feature_code":"PPL","country_code":"IE","cc2":"","admin1_code":"M","admin2_code":"03","admin3_code":"","admin4_code":"","population":"1773","elevation":"","dem":"17","timezone":"Europe/Dublin","modification_date":"2013-12-08"},{"geonameid":"2962283","name":"Newcastle West","asciiname":"Newcastle West","alternatenames":["An Caislean Nua","An Caisleán Nua","Newcastle","Newcastle West"],"latitude":"52.44917","longitude":"-9.06111","feature_class":"P","feature_code":"PPL","country_code":"IE","cc2":"","admin1_code":"M","admin2_code":"16","admin3_code":"","admin4_code":"","population":"6327","elevation":"","dem":"59","timezone":"Europe/Dublin","modification_date":"2013-11-26"},{"geonameid":"2962304","name":"Nenagh","asciiname":"Nenagh","alternatenames":["An tAonach","Aonach Urmhumhan","Nenagh","Nina","The Meeting","nina","Нина","ნინა"],"latitude":"52.86194","longitude":"-8.19667","feature_class":"P","feature_code":"PPLA","country_code":"IE","cc2":"","admin1_code":"M","admin2_code":"26","admin3_code":"","admin4_code":"","population":"5500","elevation":"","dem":"52","timezone":"Europe/Dublin","modification_date":"2015-05-24"},{"geonameid":"2962522","name":"Moroe","asciiname":"Moroe","alternatenames":[""],"latitude":"52.65111","longitude":"-8.39611","feature_class":"P","feature_code":"PPL","country_code":"IE","cc2":"","admin1_code":"M","admin2_code":"16","admin3_code":"","admin4_code":"","population":"1271","elevation":"","dem":"85","timezone":"Europe/Dublin","modification_date":"2013-11-26"},{"geonameid":"2962587","name":"Mitchelstown","asciiname":"Mitchelstown","alternatenames":["Baile Mhisteala","Baile Mhistéala","Mitchelstown"],"latitude":"52.26583","longitude":"-8.26806","feature_class":"P","feature_code":"PPL","country_code":"IE","cc2":"","admin1_code":"M","admin2_code":"04","admin3_code":"","admin4_code":"","population":"3677","elevation":"","dem":"101","timezone":"Europe/Dublin","modification_date":"2013-11-26"},{"geonameid":"2962613","name":"Millstreet","asciiname":"Millstreet","alternatenames":["Millstreet","Sraid an Mhuilinn","Sráid an Mhuilinn"],"latitude":"52.06667","longitude":"-9.06667","feature_class":"P","feature_code":"PPL","country_code":"IE","cc2":"","admin1_code":"M","admin2_code":"04","admin3_code":"","admin4_code":"","population":"1574","elevation":"","dem":"105","timezone":"Europe/Dublin","modification_date":"2013-11-26"},{"geonameid":"2962630","name":"Midleton","asciiname":"Midleton","alternatenames":["Mainister na Corann","Middleton","Midleton"],"latitude":"51.91526","longitude":"-8.18052","feature_class":"P","feature_code":"PPL","country_code":"IE","cc2":"","admin1_code":"M","admin2_code":"04","admin3_code":"","admin4_code":"","population":"8891","elevation":"","dem":"10","timezone":"Europe/Dublin","modification_date":"2011-05-29"},{"geonameid":"2962714","name":"Mallow","asciiname":"Mallow","alternatenames":["Maigh Eala","Mala","Mallou","Mallow","Malou","Malovas","Маллоу","Малоу"],"latitude":"52.13333","longitude":"-8.63333","feature_class":"P","feature_code":"PPL","country_code":"IE","cc2":"","admin1_code":"M","admin2_code":"04","admin3_code":"","admin4_code":"","population":"9495","elevation":"","dem":"58","timezone":"Europe/Dublin","modification_date":"2012-02-28"},{"geonameid":"2962745","name":"Macroom","asciiname":"Macroom","alternatenames":["Macroom","Maigh Chromtha","Makrum","Макрум"],"latitude":"51.9","longitude":"-8.95","feature_class":"P","feature_code":"PPL","country_code":"IE","cc2":"","admin1_code":"M","admin2_code":"04","admin3_code":"","admin4_code":"","population":"3169","elevation":"","dem":"150","timezone":"Europe/Dublin","modification_date":"2012-02-28"},{"geonameid":"2962864","name":"Listowel","asciiname":"Listowel","alternatenames":["Lios Tuathail","Listouehl","Listouul","Listowel","Листоуъл","Листоуэл"],"latitude":"52.44639","longitude":"-9.485","feature_class":"P","feature_code":"PPL","country_code":"IE","cc2":"","admin1_code":"M","admin2_code":"11","admin3_code":"","admin4_code":"","population":"4143","elevation":"","dem":"26","timezone":"Europe/Dublin","modification_date":"2012-02-28"},{"geonameid":"2962943","name":"Luimneach","asciiname":"Luimneach","alternatenames":["Limereick","Limerick","Limerick city","Limerik","Limerika","Limerikas","Luimneach","lymryq","rimurikku","Лимерик","לימריק","リムリック"],"latitude":"52.66472","longitude":"-8.62306","feature_class":"P","feature_code":"PPLA2","country_code":"IE","cc2":"","admin1_code":"M","admin2_code":"16","admin3_code":"","admin4_code":"","population":"90054","elevation":"","dem":"7","timezone":"Europe/Dublin","modification_date":"2012-03-30"},{"geonameid":"2963155","name":"Kinsale","asciiname":"Kinsale","alternatenames":["Cionn tSaile","Cionn tSáile","Kinsale","Kinseilis","Kinsejl","Kione Sailley","qynsyyl","Кинсейл","קינסייל"],"latitude":"51.7075","longitude":"-8.53056","feature_class":"P","feature_code":"PPL","country_code":"IE","cc2":"","admin1_code":"M","admin2_code":"04","admin3_code":"","admin4_code":"","population":"3843","elevation":"","dem":"45","timezone":"Europe/Dublin","modification_date":"2012-02-28"},{"geonameid":"2963218","name":"Kilrush","asciiname":"Kilrush","alternatenames":["Cill Rois","Kilrash","Kilrush","Килраш"],"latitude":"52.63972","longitude":"-9.48333","feature_class":"P","feature_code":"PPL","country_code":"IE","cc2":"","admin1_code":"M","admin2_code":"03","admin3_code":"","admin4_code":"","population":"2712","elevation":"","dem":"16","timezone":"Europe/Dublin","modification_date":"2012-02-28"},{"geonameid":"2963275","name":"Kilmallock","asciiname":"Kilmallock","alternatenames":["Cill Mocheallog","Cill Mocheallóg","Kilmailock","Kilmallock"],"latitude":"52.4","longitude":"-8.57722","feature_class":"P","feature_code":"PPL","country_code":"IE","cc2":"","admin1_code":"M","admin2_code":"16","admin3_code":"","admin4_code":"","population":"1635","elevation":"","dem":"87","timezone":"Europe/Dublin","modification_date":"2013-11-26"},{"geonameid":"2963299","name":"Killumney","asciiname":"Killumney","alternatenames":["Killumney"],"latitude":"51.86667","longitude":"-8.65","feature_class":"P","feature_code":"PPL","country_code":"IE","cc2":"","admin1_code":"M","admin2_code":"04","admin3_code":"","admin4_code":"","population":"1046","elevation":"","dem":"51","timezone":"Europe/Dublin","modification_date":"2013-11-26"},{"geonameid":"2963311","name":"Killorglin","asciiname":"Killorglin","alternatenames":["Cill Orglan","Killorglin"],"latitude":"52.1","longitude":"-9.78333","feature_class":"P","feature_code":"PPL","country_code":"IE","cc2":"","admin1_code":"M","admin2_code":"11","admin3_code":"","admin4_code":"","population":"2082","elevation":"","dem":"32","timezone":"Europe/Dublin","modification_date":"2013-11-26"},{"geonameid":"2963370","name":"Cill Airne","asciiname":"Cill Airne","alternatenames":["Cill Airne","Killarney"],"latitude":"52.05","longitude":"-9.51667","feature_class":"P","feature_code":"PPL","country_code":"IE","cc2":"IE","admin1_code":"M","admin2_code":"11","admin3_code":"","admin4_code":"","population":"7300","elevation":"","dem":"26","timezone":"Europe/Dublin","modification_date":"2012-01-18"},{"geonameid":"2963376","name":"Killaloe","asciiname":"Killaloe","alternatenames":["Cill Dalua","Killaloe"],"latitude":"52.80667","longitude":"-8.44361","feature_class":"P","feature_code":"PPL","country_code":"IE","cc2":"","admin1_code":"M","admin2_code":"03","admin3_code":"","admin4_code":"","population":"1292","elevation":"","dem":"55","timezone":"Europe/Dublin","modification_date":"2013-11-26"},{"geonameid":"2963522","name":"Kenmare","asciiname":"Kenmare","alternatenames":["Kenmare","Kevmare","Neidin"],"latitude":"51.88333","longitude":"-9.58333","feature_class":"P","feature_code":"PPL","country_code":"IE","cc2":"","admin1_code":"M","admin2_code":"11","admin3_code":"","admin4_code":"","population":"2175","elevation":"","dem":"8","timezone":"Europe/Dublin","modification_date":"2013-11-26"},{"geonameid":"2963555","name":"Kanturk","asciiname":"Kanturk","alternatenames":["Ceann Toirc","Kanturk"],"latitude":"52.16667","longitude":"-8.9","feature_class":"P","feature_code":"PPL","country_code":"IE","cc2":"","admin1_code":"M","admin2_code":"04","admin3_code":"","admin4_code":"","population":"2263","elevation":"","dem":"79","timezone":"Europe/Dublin","modification_date":"2013-11-26"},{"geonameid":"2964310","name":"Fethard","asciiname":"Fethard","alternatenames":["Fethard","Fiodh Ard"],"latitude":"52.46722","longitude":"-7.69111","feature_class":"P","feature_code":"PPL","country_code":"IE","cc2":"IE","admin1_code":"M","admin2_code":"26","admin3_code":"","admin4_code":"","population":"1541","elevation":"","dem":"64","timezone":"Europe/Dublin","modification_date":"2013-11-26"},{"geonameid":"2964320","name":"Fermoy","asciiname":"Fermoy","alternatenames":["Fermoj","Fermoy","Furmoj","Mainistir Fhear Mai","Mainistir Fhear Maigh","Mainistir Fhear Maí","Mannishter er Maigh","famoi","Фермой","Фърмой","ファーモイ"],"latitude":"52.13583","longitude":"-8.27583","feature_class":"P","feature_code":"PPL","country_code":"IE","cc2":"","admin1_code":"M","admin2_code":"04","admin3_code":"","admin4_code":"","population":"4933","elevation":"","dem":"54","timezone":"Europe/Dublin","modification_date":"2012-02-28"},{"geonameid":"2964405","name":"Ennis","asciiname":"Ennis","alternatenames":["Ehnnis","Enis","Enisas","Ennis","Inis","Innys","anys","eniseu","enisi","enisu","Енис","Эннис","אניס","انیس","ენისი","エニス","에니스"],"latitude":"52.84361","longitude":"-8.98639","feature_class":"P","feature_code":"PPLA2","country_code":"IE","cc2":"","admin1_code":"M","admin2_code":"03","admin3_code":"","admin4_code":"","population":"24427","elevation":"3","dem":"5","timezone":"Europe/Dublin","modification_date":"2011-09-13"},{"geonameid":"2964492","name":"Dunmore East","asciiname":"Dunmore East","alternatenames":["Dun Mor","Dunmore","Dunmore East","Dún Mór"],"latitude":"52.15139","longitude":"-6.98611","feature_class":"P","feature_code":"PPL","country_code":"IE","cc2":"","admin1_code":"M","admin2_code":"27","admin3_code":"","admin4_code":"","population":"1559","elevation":"","dem":"-9999","timezone":"Europe/Dublin","modification_date":"2013-12-08"},{"geonameid":"2964496","name":"Dunmanway","asciiname":"Dunmanway","alternatenames":["Dun Manmhai","Dunmanway","Dún Mánmhaí"],"latitude":"51.71667","longitude":"-9.11667","feature_class":"P","feature_code":"PPL","country_code":"IE","cc2":"","admin1_code":"M","admin2_code":"04","admin3_code":"","admin4_code":"","population":"1585","elevation":"","dem":"65","timezone":"Europe/Dublin","modification_date":"2013-11-26"},{"geonameid":"2964528","name":"Dungarvan","asciiname":"Dungarvan","alternatenames":["Dangarvan","Dun Garbhan","Dungarvan","Dún Garbhán","dangarvani","Дангарван","Дънгарван","დანგარვანი"],"latitude":"52.08806","longitude":"-7.62528","feature_class":"P","feature_code":"PPL","country_code":"IE","cc2":"","admin1_code":"M","admin2_code":"27","admin3_code":"","admin4_code":"","population":"7551","elevation":"","dem":"12","timezone":"Europe/Dublin","modification_date":"2012-02-28"},{"geonameid":"2964782","name":"Dingle","asciiname":"Dingle","alternatenames":["An Daingean","Dingl","Dingle","Dinglis","Yn Dein","dinguru","Дингл","ディングル"],"latitude":"52.14083","longitude":"-10.26889","feature_class":"P","feature_code":"PPL","country_code":"IE","cc2":"","admin1_code":"M","admin2_code":"11","admin3_code":"","admin4_code":"","population":"1965","elevation":"","dem":"12","timezone":"Europe/Dublin","modification_date":"2013-12-08"},{"geonameid":"2964820","name":"Derry","asciiname":"Derry","alternatenames":[""],"latitude":"51.58666","longitude":"-9.05026","feature_class":"P","feature_code":"PPL","country_code":"IE","cc2":"","admin1_code":"M","admin2_code":"04","admin3_code":"","admin4_code":"","population":"10000","elevation":"","dem":"54","timezone":"Europe/Dublin","modification_date":"2010-08-30"},{"geonameid":"2964985","name":"Crosshaven","asciiname":"Crosshaven","alternatenames":["Bun an Tabhairne","Bun an Tábhairne","Crosshaven"],"latitude":"51.79833","longitude":"-8.30083","feature_class":"P","feature_code":"PPL","country_code":"IE","cc2":"","admin1_code":"M","admin2_code":"04","admin3_code":"","admin4_code":"","population":"2093","elevation":"","dem":"76","timezone":"Europe/Dublin","modification_date":"2013-11-26"},{"geonameid":"2964999","name":"Croom","asciiname":"Croom","alternatenames":["Cromadh","Croom"],"latitude":"52.51944","longitude":"-8.71778","feature_class":"P","feature_code":"PPL","country_code":"IE","cc2":"","admin1_code":"M","admin2_code":"16","admin3_code":"","admin4_code":"","population":"1157","elevation":"","dem":"21","timezone":"Europe/Dublin","modification_date":"2013-11-26"},{"geonameid":"2965140","name":"Cork","asciiname":"Cork","alternatenames":["Corc","Corcagia","Corcaigh","Cork","Cork - Corcaigh","Cork city","Corkee","Gorad Kork","Kork","Korka","Korkas","Korkig","ORK","ke ke","khxrk","kokeu","koku","korka","kwrk","qwrq","Κορκ","Горад Корк","Корк","קורק","كورك","کورک","कॉर्क","คอร์ก","კორკი","コーク","科克","코크"],"latitude":"51.89797","longitude":"-8.47061","feature_class":"P","feature_code":"PPLA2","country_code":"IE","cc2":"","admin1_code":"M","admin2_code":"04","admin3_code":"","admin4_code":"","population":"190384","elevation":"","dem":"10","timezone":"Europe/Dublin","modification_date":"2011-11-03"},{"geonameid":"2965260","name":"Cobh","asciiname":"Cobh","alternatenames":["An Cobh","An Cóbh","Cobh","Kouv","Kov","Kovas","Queenstown","ke fu","kovu","kwf","Ков","Коув","كوف","コーヴ","科芙"],"latitude":"51.85722","longitude":"-8.29917","feature_class":"P","feature_code":"PPL","country_code":"IE","cc2":"","admin1_code":"M","admin2_code":"04","admin3_code":"","admin4_code":"","population":"10501","elevation":"","dem":"66","timezone":"Europe/Dublin","modification_date":"2014-10-03"},{"geonameid":"2965276","name":"Cloyne","asciiname":"Cloyne","alternatenames":["Cloyne","Cluain"],"latitude":"51.86278","longitude":"-8.12444","feature_class":"P","feature_code":"PPL","country_code":"IE","cc2":"","admin1_code":"M","admin2_code":"04","admin3_code":"","admin4_code":"","population":"1562","elevation":"","dem":"23","timezone":"Europe/Dublin","modification_date":"2013-11-26"},{"geonameid":"2965353","name":"Cluain Meala","asciiname":"Cluain Meala","alternatenames":["Clonmel","Cluain Meala"],"latitude":"52.355","longitude":"-7.70389","feature_class":"P","feature_code":"PPLA2","country_code":"IE","cc2":"","admin1_code":"M","admin2_code":"26","admin3_code":"","admin4_code":"","population":"17394","elevation":"","dem":"24","timezone":"Europe/Dublin","modification_date":"2015-05-24"},{"geonameid":"2965402","name":"Clonakilty","asciiname":"Clonakilty","alternatenames":["Cloich na Coillte","Clonakilty","Klonakilti","Klounakilti","Клонакилти","Клоунакилти"],"latitude":"51.62306","longitude":"-8.87056","feature_class":"P","feature_code":"PPL","country_code":"IE","cc2":"","admin1_code":"M","admin2_code":"04","admin3_code":"","admin4_code":"","population":"4065","elevation":"","dem":"53","timezone":"Europe/Dublin","modification_date":"2012-02-28"},{"geonameid":"2965516","name":"Ráth Luirc","asciiname":"Rath Luirc","alternatenames":["Charleville","Rath Luirc","Ráth Luirc"],"latitude":"52.35","longitude":"-8.68333","feature_class":"P","feature_code":"PPL","country_code":"IE","cc2":"","admin1_code":"M","admin2_code":"04","admin3_code":"","admin4_code":"","population":"3672","elevation":"","dem":"111","timezone":"Europe/Dublin","modification_date":"2013-12-08"},{"geonameid":"2965590","name":"Castlemartyr","asciiname":"Castlemartyr","alternatenames":["Baile na Martra","Castlemartyr"],"latitude":"51.91028","longitude":"-8.05389","feature_class":"P","feature_code":"PPL","country_code":"IE","cc2":"","admin1_code":"M","admin2_code":"04","admin3_code":"","admin4_code":"","population":"1277","elevation":"","dem":"12","timezone":"Europe/Dublin","modification_date":"2013-11-26"},{"geonameid":"2965604","name":"Castleisland","asciiname":"Castleisland","alternatenames":["Castleisland","Oilean Ciarrai","Oileán Ciarraí"],"latitude":"52.23333","longitude":"-9.46667","feature_class":"P","feature_code":"PPL","country_code":"IE","cc2":"","admin1_code":"M","admin2_code":"11","admin3_code":"","admin4_code":"","population":"2513","elevation":"","dem":"29","timezone":"Europe/Dublin","modification_date":"2013-11-26"},{"geonameid":"2965664","name":"Cashel","asciiname":"Cashel","alternatenames":["Caiseal","Cashel"],"latitude":"52.51583","longitude":"-7.88556","feature_class":"P","feature_code":"PPL","country_code":"IE","cc2":"","admin1_code":"M","admin2_code":"26","admin3_code":"","admin4_code":"","population":"2798","elevation":"","dem":"111","timezone":"Europe/Dublin","modification_date":"2012-02-28"},{"geonameid":"2965694","name":"Carrigtwohill","asciiname":"Carrigtwohill","alternatenames":["Carraig Thuathail","Carrigtohill","Carrigtwohill"],"latitude":"51.90833","longitude":"-8.26333","feature_class":"P","feature_code":"PPL","country_code":"IE","cc2":"","admin1_code":"M","admin2_code":"04","admin3_code":"","admin4_code":"","population":"4551","elevation":"","dem":"8","timezone":"Europe/Dublin","modification_date":"2013-11-26"},{"geonameid":"2965715","name":"Carrigaline","asciiname":"Carrigaline","alternatenames":["Carraig Ui Leighin","Carraig Uí Leighin","Carrigaline"],"latitude":"51.81167","longitude":"-8.39861","feature_class":"P","feature_code":"PPL","country_code":"IE","cc2":"","admin1_code":"M","admin2_code":"04","admin3_code":"","admin4_code":"","population":"14775","elevation":"","dem":"14","timezone":"Europe/Dublin","modification_date":"2013-11-26"},{"geonameid":"2965726","name":"Carrick-on-Suir","asciiname":"Carrick-on-Suir","alternatenames":["Carraig na Siuire","Carraig na Siúire","Carrick-on-Suir"],"latitude":"52.34917","longitude":"-7.41306","feature_class":"P","feature_code":"PPL","country_code":"IE","cc2":"","admin1_code":"M","admin2_code":"26","admin3_code":"","admin4_code":"","population":"5710","elevation":"","dem":"7","timezone":"Europe/Dublin","modification_date":"2012-02-28"},{"geonameid":"2965852","name":"Cahersiveen","asciiname":"Cahersiveen","alternatenames":["Cahersiveen","Cahersween","Cathair Saidhbhin","Cathair Saidhbhín"],"latitude":"51.94861","longitude":"-10.22222","feature_class":"P","feature_code":"PPL","country_code":"IE","cc2":"","admin1_code":"M","admin2_code":"11","admin3_code":"","admin4_code":"","population":"1168","elevation":"","dem":"15","timezone":"Europe/Dublin","modification_date":"2013-12-08"},{"geonameid":"2965865","name":"Caherconlish","asciiname":"Caherconlish","alternatenames":["Caherconlish","Cathair Chinn Lis"],"latitude":"52.59361","longitude":"-8.47028","feature_class":"P","feature_code":"PPL","country_code":"IE","cc2":"IE","admin1_code":"M","admin2_code":"16","admin3_code":"","admin4_code":"","population":"1279","elevation":"","dem":"60","timezone":"Europe/Dublin","modification_date":"2013-11-26"},{"geonameid":"2965873","name":"Cahir","asciiname":"Cahir","alternatenames":["An Chathair","Caher","Cahir","Án Chathair"],"latitude":"52.37694","longitude":"-7.92167","feature_class":"P","feature_code":"PPL","country_code":"IE","cc2":"","admin1_code":"M","admin2_code":"26","admin3_code":"","admin4_code":"","population":"3578","elevation":"","dem":"56","timezone":"Europe/Dublin","modification_date":"2013-11-26"},{"geonameid":"2966107","name":"Blarney","asciiname":"Blarney","alternatenames":["An Bhlarna","Blarney"],"latitude":"51.93333","longitude":"-8.56667","feature_class":"P","feature_code":"PPL","country_code":"IE","cc2":"","admin1_code":"M","admin2_code":"04","admin3_code":"","admin4_code":"","population":"2437","elevation":"","dem":"37","timezone":"Europe/Dublin","modification_date":"2013-11-26"},{"geonameid":"2966356","name":"Bantry","asciiname":"Bantry","alternatenames":["BYT","Bantri","Bantry","Beanntrai","Beanntraí","baenteuli","ban te li","Бантри","ბანტრი","班特里","밴트리"],"latitude":"51.68333","longitude":"-9.45","feature_class":"P","feature_code":"PPL","country_code":"IE","cc2":"","admin1_code":"M","admin2_code":"04","admin3_code":"","admin4_code":"","population":"3348","elevation":"","dem":"33","timezone":"Europe/Dublin","modification_date":"2013-12-08"},{"geonameid":"2966370","name":"Bandon","asciiname":"Bandon","alternatenames":["Bandon","Bandun","Droichead na Bandan","Droichead na Bandon","bandoni","Бандон","Бандън","ბანდონი"],"latitude":"51.74694","longitude":"-8.7425","feature_class":"P","feature_code":"PPL","country_code":"IE","cc2":"","admin1_code":"M","admin2_code":"04","admin3_code":"","admin4_code":"","population":"5492","elevation":"","dem":"28","timezone":"Europe/Dublin","modification_date":"2012-01-18"},{"geonameid":"2966658","name":"Ballybunnion","asciiname":"Ballybunnion","alternatenames":["Baile an Bhuinneanaigh","Baile an Bhuinneánaigh","Ballybunion","Ballybunnion"],"latitude":"52.51108","longitude":"-9.67097","feature_class":"P","feature_code":"PPL","country_code":"IE","cc2":"","admin1_code":"M","admin2_code":"11","admin3_code":"","admin4_code":"","population":"1354","elevation":"","dem":"28","timezone":"Europe/Dublin","modification_date":"2013-12-08"},{"geonameid":"2966779","name":"Ballina","asciiname":"Ballina","alternatenames":["Ballina"],"latitude":"52.80778","longitude":"-8.43556","feature_class":"P","feature_code":"PPL","country_code":"IE","cc2":"","admin1_code":"M","admin2_code":"26","admin3_code":"","admin4_code":"","population":"2442","elevation":"","dem":"41","timezone":"Europe/Dublin","modification_date":"2013-11-26"},{"geonameid":"2966857","name":"Askeaton","asciiname":"Askeaton","alternatenames":["Askeaton","Eas Geitine","Eas Géitine"],"latitude":"52.59972","longitude":"-8.97556","feature_class":"P","feature_code":"PPL","country_code":"IE","cc2":"","admin1_code":"M","admin2_code":"16","admin3_code":"","admin4_code":"","population":"1149","elevation":"","dem":"7","timezone":"Europe/Dublin","modification_date":"2013-11-26"},{"geonameid":"2967061","name":"Aghada","asciiname":"Aghada","alternatenames":["Aghada"],"latitude":"51.83917","longitude":"-8.21222","feature_class":"P","feature_code":"PPL","country_code":"IE","cc2":"","admin1_code":"M","admin2_code":"04","admin3_code":"","admin4_code":"","population":"1015","elevation":"","dem":"59","timezone":"Europe/Dublin","modification_date":"2013-12-08"},{"geonameid":"2967076","name":"Adare","asciiname":"Adare","alternatenames":["Adare","Ath Dara","Áth Dara"],"latitude":"52.56194","longitude":"-8.79556","feature_class":"P","feature_code":"PPL","country_code":"IE","cc2":"IE","admin1_code":"M","admin2_code":"16","admin3_code":"","admin4_code":"","population":"1106","elevation":"","dem":"10","timezone":"Europe/Dublin","modification_date":"2013-11-26"},{"geonameid":"2967095","name":"Abbeyfeale","asciiname":"Abbeyfeale","alternatenames":["Abbeyfeale","Mainistir na Feile","Mainistir na Féile"],"latitude":"52.38139","longitude":"-9.3025","feature_class":"P","feature_code":"PPL","country_code":"IE","cc2":"","admin1_code":"M","admin2_code":"16","admin3_code":"","admin4_code":"","population":"2007","elevation":"","dem":"59","timezone":"Europe/Dublin","modification_date":"2013-11-26"},{"geonameid":"3305634","name":"Annacotty","asciiname":"Annacotty","alternatenames":["Annacotty"],"latitude":"52.66806","longitude":"-8.54722","feature_class":"P","feature_code":"PPL","country_code":"IE","cc2":"","admin1_code":"M","admin2_code":"16","admin3_code":"","admin4_code":"","population":"2856","elevation":"","dem":"29","timezone":"Europe/Dublin","modification_date":"2013-12-08"},{"geonameid":"3305640","name":"Castleconnell","asciiname":"Castleconnell","alternatenames":["Caislean Ui Chonaill","Caisleáñ Ui Chonaill","Castleconnell"],"latitude":"52.71389","longitude":"-8.49944","feature_class":"P","feature_code":"PPL","country_code":"IE","cc2":"","admin1_code":"M","admin2_code":"16","admin3_code":"","admin4_code":"","population":"1917","elevation":"","dem":"26","timezone":"Europe/Dublin","modification_date":"2013-11-26"},{"geonameid":"3306439","name":"Nenagh Bridge","asciiname":"Nenagh Bridge","alternatenames":[""],"latitude":"52.88167","longitude":"-8.19583","feature_class":"P","feature_code":"PPL","country_code":"IE","cc2":"","admin1_code":"M","admin2_code":"26","admin3_code":"","admin4_code":"","population":"6672","elevation":"","dem":"52","timezone":"Europe/Dublin","modification_date":"2010-08-14"},{"geonameid":"3310247","name":"Shannon","asciiname":"Shannon","alternatenames":["An tSionna","SNN","Shannon","Shannon Town","Shennon","Sionainn","Шеннон"],"latitude":"52.70389","longitude":"-8.86417","feature_class":"P","feature_code":"PPL","country_code":"IE","cc2":"","admin1_code":"M","admin2_code":"03","admin3_code":"","admin4_code":"","population":"9673","elevation":"","dem":"2","timezone":"Europe/Dublin","modification_date":"2014-07-21"},{"geonameid":"7648535","name":"Moyross","asciiname":"Moyross","alternatenames":["Moyross"],"latitude":"52.68198","longitude":"-8.63955","feature_class":"P","feature_code":"PPL","country_code":"IE","cc2":"","admin1_code":"M","admin2_code":"","admin3_code":"","admin4_code":"","population":"4448","elevation":"","dem":"6","timezone":"Europe/Dublin","modification_date":"2012-05-30"}]}