{"region_data":{"countryId":"783754","adminCode1":"40","countryName":"Albania","fclName":"country, state, region,...","countryCode":"AL","lng":"20.08333","fcodeName":"first-order administrative division","toponymName":"Qarku i Beratit","fcl":"A","numberOfChildren":3,"name":"Qarku i Beratit","fcode":"ADM1","geonameId":865730,"lat":"40.63333","adminName1":"Berat","population":141944},"country_data":{"ISO":"AL","ISO3":"ALB","ISO_Numeric":"008","fips":"AL","country":"Albania","capital":"Tirana","area":"28748","Population":"2986952","Continent":"EU","tld":".al","CurrencyCode":"ALL","CurrencyName":"Lek","Phone":"355","Postal_Code_Format":"","Postal_Code_Regex":"","Languages":"sq,el","geonameid":"783754","neighbours":"MK,GR,ME,RS,XK","EquivalentFipsCode":""},"cities":[{"geonameid":"781093","name":"Zhepë","asciiname":"Zhepe","alternatenames":["Xhepa","Xhepe","Xhepë","Zhepa","Zhepe","Zhepë"],"latitude":"40.67778","longitude":"20.28694","feature_class":"P","feature_code":"PPLA3","country_code":"AL","cc2":"","admin1_code":"40","admin2_code":"22","admin3_code":"","admin4_code":"","population":"0","elevation":"","dem":"801","timezone":"Europe/Tirane","modification_date":"2012-06-02"},{"geonameid":"781250","name":"Vërtop","asciiname":"Vertop","alternatenames":["Vertop","Vertopi","Vërtop"],"latitude":"40.62889","longitude":"20.05389","feature_class":"P","feature_code":"PPLA3","country_code":"AL","cc2":"AL","admin1_code":"40","admin2_code":"01","admin3_code":"","admin4_code":"","population":"0","elevation":"","dem":"167","timezone":"Europe/Tirane","modification_date":"2012-06-02"},{"geonameid":"781269","name":"Vendresha e Vogël","asciiname":"Vendresha e Vogel","alternatenames":["Vendresha e Vogel","Vendresha e Vogël","Vendreshe e Vogel","Vëndreshë e Vogël"],"latitude":"40.50722","longitude":"20.13472","feature_class":"P","feature_code":"PPLA3","country_code":"AL","cc2":"AL","admin1_code":"40","admin2_code":"22","admin3_code":"","admin4_code":"","population":"0","elevation":"","dem":"679","timezone":"Europe/Tirane","modification_date":"2012-06-02"},{"geonameid":"781798","name":"Roshnik","asciiname":"Roshnik","alternatenames":["Fikaj","Roshnic","Roshnik","Roshniku","Rosniki","Rroshniku"],"latitude":"40.73278","longitude":"20.03944","feature_class":"P","feature_code":"PPLA3","country_code":"AL","cc2":"AL","admin1_code":"40","admin2_code":"01","admin3_code":"","admin4_code":"","population":"0","elevation":"","dem":"361","timezone":"Europe/Tirane","modification_date":"2012-06-02"},{"geonameid":"781951","name":"Potom","asciiname":"Potom","alternatenames":["Podhom","Potom","Potomi"],"latitude":"40.48833","longitude":"20.37333","feature_class":"P","feature_code":"PPLA3","country_code":"AL","cc2":"AL","admin1_code":"40","admin2_code":"22","admin3_code":"","admin4_code":"","population":"0","elevation":"","dem":"980","timezone":"Europe/Tirane","modification_date":"2012-06-02"},{"geonameid":"781979","name":"Poliçan","asciiname":"Polican","alternatenames":["Polican","Policani","Polichan","Poliçan","Poliçani","Поличан"],"latitude":"40.61222","longitude":"20.09806","feature_class":"P","feature_code":"PPLA3","country_code":"AL","cc2":"","admin1_code":"40","admin2_code":"01","admin3_code":"","admin4_code":"","population":"10663","elevation":"","dem":"328","timezone":"Europe/Tirane","modification_date":"2012-06-02"},{"geonameid":"782544","name":"Leshnjë","asciiname":"Leshnje","alternatenames":["Leshnja","Leshnje","Leshnjë","Lesnia"],"latitude":"40.53694","longitude":"20.31333","feature_class":"P","feature_code":"PPLA3","country_code":"AL","cc2":"AL","admin1_code":"40","admin2_code":"22","admin3_code":"","admin4_code":"","population":"0","elevation":"","dem":"1098","timezone":"Europe/Tirane","modification_date":"2012-06-02"},{"geonameid":"783384","name":"Gjerbës","asciiname":"Gjerbes","alternatenames":["David","Davidh","Davidhi","Devidhi","Gjerbes","Gjerbesi","Gjerbës","Gjerbësi"],"latitude":"40.62917","longitude":"20.25111","feature_class":"P","feature_code":"PPLA3","country_code":"AL","cc2":"AL","admin1_code":"40","admin2_code":"","admin3_code":"","admin4_code":"","population":"0","elevation":"","dem":"821","timezone":"Europe/Tirane","modification_date":"2012-06-02"},{"geonameid":"783408","name":"Çorovodë","asciiname":"Corovode","alternatenames":["Cerevoda","Cerevode","Cerevodë","Chorovoda","Corovoda","Corovode","Gjavan","Zhaban","Çorovoda","Çorovodë","Чоровода"],"latitude":"40.50417","longitude":"20.22722","feature_class":"P","feature_code":"PPLA2","country_code":"AL","cc2":"","admin1_code":"40","admin2_code":"22","admin3_code":"","admin4_code":"","population":"14046","elevation":"","dem":"320","timezone":"Europe/Tirane","modification_date":"2012-06-02"},{"geonameid":"783450","name":"Çepan","asciiname":"Cepan","alternatenames":["Cepan","Cepani","Çepan","Çepani"],"latitude":"40.42056","longitude":"20.26056","feature_class":"P","feature_code":"PPLA3","country_code":"AL","cc2":"AL","admin1_code":"40","admin2_code":"22","admin3_code":"","admin4_code":"","population":"0","elevation":"","dem":"817","timezone":"Europe/Tirane","modification_date":"2012-06-02"},{"geonameid":"865098","name":"Bogovë","asciiname":"Bogove","alternatenames":["Bogova","Bogove","Bogovë"],"latitude":"40.57111","longitude":"20.15","feature_class":"P","feature_code":"PPLA3","country_code":"AL","cc2":"AL","admin1_code":"40","admin2_code":"22","admin3_code":"","admin4_code":"","population":"0","elevation":"","dem":"197","timezone":"Europe/Tirane","modification_date":"2012-06-02"},{"geonameid":"3183780","name":"Velabisht","asciiname":"Velabisht","alternatenames":["Velabisht","Velabishti"],"latitude":"40.70167","longitude":"19.93222","feature_class":"P","feature_code":"PPLA3","country_code":"AL","cc2":"AL","admin1_code":"40","admin2_code":"01","admin3_code":"","admin4_code":"","population":"0","elevation":"","dem":"60","timezone":"Europe/Tirane","modification_date":"2012-06-02"},{"geonameid":"3183814","name":"Ura Vajgurore","asciiname":"Ura Vajgurore","alternatenames":["Ur'e Hasan Beut","Ura Asan Beut","Ura Vajgurore","Ura e Hasan Beut","Ura-Khasan-Beut","Ura-Vaygurore","Ure-Vajgurore","Urë-Vajgurore","Ur’e Hasan Beut","Yefira Hassan Beut"],"latitude":"40.76889","longitude":"19.87778","feature_class":"P","feature_code":"PPLA3","country_code":"AL","cc2":"","admin1_code":"40","admin2_code":"01","admin3_code":"","admin4_code":"","population":"4893","elevation":"","dem":"33","timezone":"Europe/Tirane","modification_date":"2012-06-02"},{"geonameid":"3184013","name":"Sinjë","asciiname":"Sinje","alternatenames":["Signa","Sinja","Sinje","Sinjë"],"latitude":"40.64806","longitude":"19.86806","feature_class":"P","feature_code":"PPLA3","country_code":"AL","cc2":"AL","admin1_code":"40","admin2_code":"01","admin3_code":"","admin4_code":"","population":"0","elevation":"","dem":"757","timezone":"Europe/Tirane","modification_date":"2012-06-02"},{"geonameid":"3184417","name":"Poshnje","asciiname":"Poshnje","alternatenames":["Poshnja","Poshnje"],"latitude":"40.78028","longitude":"19.84417","feature_class":"P","feature_code":"PPLA3","country_code":"AL","cc2":"AL","admin1_code":"40","admin2_code":"01","admin3_code":"","admin4_code":"","population":"0","elevation":"","dem":"31","timezone":"Europe/Tirane","modification_date":"2012-06-02"},{"geonameid":"3184487","name":"Perondi","asciiname":"Perondi","alternatenames":["Perhond","Perhondi","Perhondia","Perhondija","Perondi","Perondia","Perondija"],"latitude":"40.77889","longitude":"19.92306","feature_class":"P","feature_code":"PPLA3","country_code":"AL","cc2":"AL","admin1_code":"40","admin2_code":"34","admin3_code":"","admin4_code":"","population":"0","elevation":"","dem":"41","timezone":"Europe/Tirane","modification_date":"2012-06-02"},{"geonameid":"3184568","name":"Otllak","asciiname":"Otllak","alternatenames":["Otllak","Otllaku"],"latitude":"40.74389","longitude":"19.93528","feature_class":"P","feature_code":"PPLA3","country_code":"AL","cc2":"AL","admin1_code":"40","admin2_code":"01","admin3_code":"","admin4_code":"","population":"0","elevation":"","dem":"42","timezone":"Europe/Tirane","modification_date":"2012-06-02"},{"geonameid":"3185017","name":"Kutalli","asciiname":"Kutalli","alternatenames":["Kutaj","Kutali","Kutalli","Kutallia","Kutallija"],"latitude":"40.78389","longitude":"19.78667","feature_class":"P","feature_code":"PPLA3","country_code":"AL","cc2":"AL","admin1_code":"40","admin2_code":"01","admin3_code":"","admin4_code":"","population":"0","elevation":"","dem":"23","timezone":"Europe/Tirane","modification_date":"2012-06-02"},{"geonameid":"3185060","name":"Kuçovë","asciiname":"Kucove","alternatenames":["Kuchova","Kucova","Kucove","Kuçova","Kuçovë","Petrolia","Qyteti Stalin","Stalin","Кучова"],"latitude":"40.80028","longitude":"19.91667","feature_class":"P","feature_code":"PPLA2","country_code":"AL","cc2":"","admin1_code":"40","admin2_code":"34","admin3_code":"","admin4_code":"","population":"18166","elevation":"","dem":"58","timezone":"Europe/Tirane","modification_date":"2012-06-02"},{"geonameid":"3185107","name":"Kozarë","asciiname":"Kozare","alternatenames":["Kozara","Kozare","Kozarja","Kozarë"],"latitude":"40.83083","longitude":"19.90056","feature_class":"P","feature_code":"PPLA3","country_code":"AL","cc2":"AL","admin1_code":"40","admin2_code":"34","admin3_code":"","admin4_code":"","population":"0","elevation":"","dem":"28","timezone":"Europe/Tirane","modification_date":"2012-06-02"},{"geonameid":"3185860","name":"Cukalat","asciiname":"Cukalat","alternatenames":["Cukakat","Cukala","Cukalat","Cukalati","Cukaljat","Cukelat","Cukelati"],"latitude":"40.73028","longitude":"19.79056","feature_class":"P","feature_code":"PPLA3","country_code":"AL","cc2":"AL","admin1_code":"40","admin2_code":"01","admin3_code":"","admin4_code":"","population":"0","elevation":"","dem":"153","timezone":"Europe/Tirane","modification_date":"2012-06-02"},{"geonameid":"3186084","name":"Berat","asciiname":"Berat","alternatenames":["Belgrad","Beligrad","Berat","Berati","Beration","Beratis","Berta","Bərat","Lezskigrad","Verati","Veration","belateu","berato","brat","byrat","pei la te","Μπεράτ","Белград","Берат","Բերատ","בראט","برات","بیرات","ბერატი","ベラト","培拉特","베라트"],"latitude":"40.70583","longitude":"19.95222","feature_class":"P","feature_code":"PPLA","country_code":"AL","cc2":"","admin1_code":"40","admin2_code":"01","admin3_code":"","admin4_code":"","population":"46866","elevation":"","dem":"66","timezone":"Europe/Tirane","modification_date":"2012-06-03"},{"geonameid":"3186137","name":"Banaj","asciiname":"Banaj","alternatenames":["Banaj","Banani","Bananj","Beran"],"latitude":"40.82472","longitude":"19.83917","feature_class":"P","feature_code":"PPL","country_code":"AL","cc2":"AL","admin1_code":"40","admin2_code":"","admin3_code":"","admin4_code":"","population":"2500","elevation":"","dem":"25","timezone":"Europe/Tirane","modification_date":"2013-05-05"}]}