{"region_data":{"countryId":"783754","adminCode1":"44","countryName":"Albania","fclName":"country, state, region,...","countryCode":"AL","lng":"19.61667","fcodeName":"first-order administrative division","toponymName":"Qarku i Fierit","fcl":"A","numberOfChildren":3,"name":"Qarku i Fierit","fcode":"ADM1","geonameId":3344948,"lat":"40.76667","adminName1":"Fier","population":310331},"country_data":{"ISO":"AL","ISO3":"ALB","ISO_Numeric":"008","fips":"AL","country":"Albania","capital":"Tirana","area":"28748","Population":"2986952","Continent":"EU","tld":".al","CurrencyCode":"ALL","CurrencyName":"Lek","Phone":"355","Postal_Code_Format":"","Postal_Code_Regex":"","Languages":"sq,el","geonameid":"783754","neighbours":"MK,GR,ME,RS,XK","EquivalentFipsCode":""},"cities":[{"geonameid":"3183625","name":"Zharrëz","asciiname":"Zharrez","alternatenames":["Shareza","Sharreza","Zarez","Zhareza","Zhareze","Zharres","Zharresa","Zharresi","Zharrez","Zharreza","Zharrës","Zharrësa","Zharrësi","Zharrëz","Zharrëza","Zharëzë","Žarez"],"latitude":"40.70917","longitude":"19.64972","feature_class":"P","feature_code":"PPLA3","country_code":"AL","cc2":"AL","admin1_code":"44","admin2_code":"05","admin3_code":"","admin4_code":"","population":"0","elevation":"","dem":"34","timezone":"Europe/Tirane","modification_date":"2012-06-02"},{"geonameid":"3183865","name":"Topojë","asciiname":"Topoje","alternatenames":["Topoja","Topoje","Topojë"],"latitude":"40.76306","longitude":"19.43278","feature_class":"P","feature_code":"PPLA3","country_code":"AL","cc2":"AL","admin1_code":"44","admin2_code":"05","admin3_code":"","admin4_code":"","population":"0","elevation":"","dem":"3","timezone":"Europe/Tirane","modification_date":"2012-06-02"},{"geonameid":"3183907","name":"Tërbuf","asciiname":"Terbuf","alternatenames":["Terbuf","Terbufi","Tërbuf","Tërbufi"],"latitude":"41.04","longitude":"19.61417","feature_class":"P","feature_code":"PPLA3","country_code":"AL","cc2":"AL","admin1_code":"44","admin2_code":"","admin3_code":"","admin4_code":"","population":"0","elevation":"","dem":"7","timezone":"Europe/Tirane","modification_date":"2012-06-05"},{"geonameid":"3183959","name":"Strum","asciiname":"Strum","alternatenames":["Ciflik-Struma","Strubi","Strum","Strume","Strumi","Strumë","Çiflik-Struma"],"latitude":"40.75111","longitude":"19.7375","feature_class":"P","feature_code":"PPLA3","country_code":"AL","cc2":"AL","admin1_code":"44","admin2_code":"05","admin3_code":"","admin4_code":"","population":"0","elevation":"","dem":"35","timezone":"Europe/Tirane","modification_date":"2012-06-02"},{"geonameid":"3184230","name":"Ruzhdie","asciiname":"Ruzhdie","alternatenames":["Piekaj","Rozhdia","Rushdie","Rushdije","Rushdijë","Ruzhdie","Ruzhdija","Ruzhdije","Ruzhdijë"],"latitude":"40.67083","longitude":"19.69833","feature_class":"P","feature_code":"PPLA3","country_code":"AL","cc2":"","admin1_code":"44","admin2_code":"05","admin3_code":"","admin4_code":"","population":"0","elevation":"","dem":"268","timezone":"Europe/Tirane","modification_date":"2012-06-02"},{"geonameid":"3184290","name":"Roskovec","asciiname":"Roskovec","alternatenames":["Roscovec","Roskovec","Roskoveci","Rroskoveci","Treg i Frasherit","Tregu-Frasherit","Росковец"],"latitude":"40.7375","longitude":"19.70222","feature_class":"P","feature_code":"PPLA3","country_code":"AL","cc2":"","admin1_code":"44","admin2_code":"05","admin3_code":"","admin4_code":"","population":"6657","elevation":"","dem":"18","timezone":"Europe/Tirane","modification_date":"2012-06-02"},{"geonameid":"3184316","name":"Remas","asciiname":"Remas","alternatenames":["Remas","Remas Pervas","Remasi","Rremas","Rremasi"],"latitude":"40.88639","longitude":"19.51139","feature_class":"P","feature_code":"PPLA3","country_code":"AL","cc2":"AL","admin1_code":"44","admin2_code":"14","admin3_code":"","admin4_code":"","population":"0","elevation":"","dem":"1","timezone":"Europe/Tirane","modification_date":"2012-06-05"},{"geonameid":"3184420","name":"Portëz","asciiname":"Portez","alternatenames":["Portez","Porteza","Porteze","Portëz","Portëza","Portëzë"],"latitude":"40.69917","longitude":"19.57444","feature_class":"P","feature_code":"PPLA3","country_code":"AL","cc2":"AL","admin1_code":"44","admin2_code":"05","admin3_code":"","admin4_code":"","population":"0","elevation":"","dem":"58","timezone":"Europe/Tirane","modification_date":"2012-06-02"},{"geonameid":"3184517","name":"Patos Fshat","asciiname":"Patos Fshat","alternatenames":["Patos Fshat","Patosi Fshat"],"latitude":"40.64278","longitude":"19.65083","feature_class":"P","feature_code":"PPL","country_code":"AL","cc2":"","admin1_code":"44","admin2_code":"","admin3_code":"","admin4_code":"","population":"22679","elevation":"","dem":"157","timezone":"Europe/Tirane","modification_date":"2012-01-19"},{"geonameid":"3184518","name":"Patos","asciiname":"Patos","alternatenames":["Pahtosa","Pahtosi","Patos","Patosi","Патос"],"latitude":"40.68333","longitude":"19.61944","feature_class":"P","feature_code":"PPLA3","country_code":"AL","cc2":"AL","admin1_code":"44","admin2_code":"05","admin3_code":"","admin4_code":"","population":"0","elevation":"","dem":"61","timezone":"Europe/Tirane","modification_date":"2012-06-02"},{"geonameid":"3184606","name":"Ngraçan","asciiname":"Ngracan","alternatenames":["Gracan","Graqani","Graçan","Ngracan","Ngracani","Ngraçan","Ngraçani"],"latitude":"40.64444","longitude":"19.7925","feature_class":"P","feature_code":"PPLA3","country_code":"AL","cc2":"AL","admin1_code":"44","admin2_code":"37","admin3_code":"","admin4_code":"","population":"0","elevation":"","dem":"428","timezone":"Europe/Tirane","modification_date":"2012-06-05"},{"geonameid":"3184755","name":"Mbrostar-Urë","asciiname":"Mbrostar-Ure","alternatenames":["Brostar","Brostar Ferko","Brostari-Ferkaj","Brustar Fioko","Mbrostar","Mbrostar Ferko","Mbrostar-Ure","Mbrostar-Urë","Mbrostari","Mbrotja e Siperme","Mbrotja e Sipërme"],"latitude":"40.75361","longitude":"19.57944","feature_class":"P","feature_code":"PPLA3","country_code":"AL","cc2":"AL","admin1_code":"44","admin2_code":"05","admin3_code":"","admin4_code":"","population":"0","elevation":"","dem":"33","timezone":"Europe/Tirane","modification_date":"2012-06-02"},{"geonameid":"3184862","name":"Lushnjë","asciiname":"Lushnje","alternatenames":["Liusne","Liušnė","Ljushna Cod a Gomares","Ljushnja","Ljusnje","Ljušnje","Lousnia","Lushne","Lushnja","Lushnje","Lushnjë","Lusnje","Lušnje","lu shen nie","lusyunyeo","lwshnyh","rushunya","Лушње","Люшня","لوشنيه","لوشنیہ","ルシュニャ","卢什涅","루슈녀"],"latitude":"40.94194","longitude":"19.705","feature_class":"P","feature_code":"PPLA2","country_code":"AL","cc2":"","admin1_code":"44","admin2_code":"14","admin3_code":"","admin4_code":"","population":"41469","elevation":"","dem":"22","timezone":"Europe/Tirane","modification_date":"2012-06-05"},{"geonameid":"3184930","name":"Libofshë","asciiname":"Libofshe","alternatenames":["Libofsha","Libofshe","Libofshë","Libovfs","Libovfš","Libovshe","Libovshë","Resh Libovtsa","Tregishte"],"latitude":"40.83444","longitude":"19.55222","feature_class":"P","feature_code":"PPLA3","country_code":"AL","cc2":"AL","admin1_code":"44","admin2_code":"05","admin3_code":"","admin4_code":"","population":"0","elevation":"","dem":"7","timezone":"Europe/Tirane","modification_date":"2012-06-02"},{"geonameid":"3184945","name":"Levan","asciiname":"Levan","alternatenames":["Levan","Levan-Samaraj","Levan-Samari","Levani","Levani Samar","Levani Samares","Levani Samarit","Levani Samarës","Levani i Madh"],"latitude":"40.67611","longitude":"19.48972","feature_class":"P","feature_code":"PPLA3","country_code":"AL","cc2":"AL","admin1_code":"44","admin2_code":"05","admin3_code":"","admin4_code":"","population":"0","elevation":"","dem":"12","timezone":"Europe/Tirane","modification_date":"2012-06-02"},{"geonameid":"3185015","name":"Kutë","asciiname":"Kute","alternatenames":["Cuta","Kuta","Kute","Kutë"],"latitude":"40.47333","longitude":"19.76639","feature_class":"P","feature_code":"PPLA3","country_code":"AL","cc2":"AL","admin1_code":"44","admin2_code":"37","admin3_code":"","admin4_code":"","population":"0","elevation":"","dem":"141","timezone":"Europe/Tirane","modification_date":"2012-06-05"},{"geonameid":"3185031","name":"Kurjan","asciiname":"Kurjan","alternatenames":["Kurian","Kuriani","Kurjan","Kurjani","Kurjanj"],"latitude":"40.7175","longitude":"19.74556","feature_class":"P","feature_code":"PPLA3","country_code":"AL","cc2":"AL","admin1_code":"44","admin2_code":"05","admin3_code":"","admin4_code":"","population":"0","elevation":"","dem":"116","timezone":"Europe/Tirane","modification_date":"2012-06-02"},{"geonameid":"3185044","name":"Kuman","asciiname":"Kuman","alternatenames":["Cumani","Kuman","Kumani"],"latitude":"40.72667","longitude":"19.68667","feature_class":"P","feature_code":"PPLA3","country_code":"AL","cc2":"AL","admin1_code":"44","admin2_code":"05","admin3_code":"","admin4_code":"","population":"0","elevation":"","dem":"20","timezone":"Europe/Tirane","modification_date":"2012-06-02"},{"geonameid":"3185077","name":"Krutja e Poshtme","asciiname":"Krutja e Poshtme","alternatenames":["Kruati i Poshtem","Kruati i Poshtëm","Kruatje e Poshteme","Kruatje e Poshtme","Kruatje e Poshtëme","Krutja e Poshteme","Krutja e Poshtme","Krutja e Poshtëme","Krutje e Poshtme","Krutje e Posteme","Krutje e Postëme","Post Kruati"],"latitude":"40.87194","longitude":"19.68083","feature_class":"P","feature_code":"PPLA3","country_code":"AL","cc2":"AL","admin1_code":"44","admin2_code":"14","admin3_code":"","admin4_code":"","population":"0","elevation":"","dem":"10","timezone":"Europe/Tirane","modification_date":"2012-06-05"},{"geonameid":"3185144","name":"Kolonjë","asciiname":"Kolonje","alternatenames":["Colonia","Koljonja","Kolonj","Kolonja","Kolonje","Kolonjë","Колёня"],"latitude":"40.82417","longitude":"19.60389","feature_class":"P","feature_code":"PPLA3","country_code":"AL","cc2":"AL","admin1_code":"44","admin2_code":"14","admin3_code":"","admin4_code":"","population":"0","elevation":"","dem":"33","timezone":"Europe/Tirane","modification_date":"2012-06-05"},{"geonameid":"3185251","name":"Karbunara e Vogël","asciiname":"Karbunara e Vogel","alternatenames":["Karbunara e Poshteme","Karbunara e Poshtme","Karbunara e Poshtëme","Karbunara e Vogel","Karbunara e Vogël","Karbunare e Poshteme","Karbunare e Poshtme","Karbunare e Vogel","Karbunarë e Poshtme","Karbunarë e Poshtëme","Karbunarë e Vogël"],"latitude":"40.92194","longitude":"19.71778","feature_class":"P","feature_code":"PPLA3","country_code":"AL","cc2":"","admin1_code":"44","admin2_code":"14","admin3_code":"","admin4_code":"","population":"0","elevation":"","dem":"20","timezone":"Europe/Tirane","modification_date":"2012-06-05"},{"geonameid":"3185302","name":"Kalenjë","asciiname":"Kalenje","alternatenames":["Kahlenja","Kalenj","Kalenja","Kalenje","Kalenjë"],"latitude":"40.59","longitude":"19.77833","feature_class":"P","feature_code":"PPLA3","country_code":"AL","cc2":"AL","admin1_code":"44","admin2_code":"37","admin3_code":"","admin4_code":"","population":"0","elevation":"","dem":"508","timezone":"Europe/Tirane","modification_date":"2012-06-05"},{"geonameid":"3185363","name":"Hysgjokaj","asciiname":"Hysgjokaj","alternatenames":["Dzokaj","Džokaj","Hysaj","Hysgjokaj","Xhokaj"],"latitude":"40.97167","longitude":"19.78972","feature_class":"P","feature_code":"PPLA3","country_code":"AL","cc2":"AL","admin1_code":"44","admin2_code":"14","admin3_code":"","admin4_code":"","population":"0","elevation":"","dem":"142","timezone":"Europe/Tirane","modification_date":"2012-06-05"},{"geonameid":"3185386","name":"Hekal","asciiname":"Hekal","alternatenames":["Hecali","Hekal","Hekali","Hekalj"],"latitude":"40.56194","longitude":"19.73583","feature_class":"P","feature_code":"PPLA3","country_code":"AL","cc2":"AL","admin1_code":"44","admin2_code":"37","admin3_code":"","admin4_code":"","population":"0","elevation":"","dem":"336","timezone":"Europe/Tirane","modification_date":"2012-06-05"},{"geonameid":"3185465","name":"Greshicë","asciiname":"Greshice","alternatenames":["Greshica","Greshice","Greshicë","Gresic","Grešic"],"latitude":"40.55194","longitude":"19.77833","feature_class":"P","feature_code":"PPLA3","country_code":"AL","cc2":"AL","admin1_code":"44","admin2_code":"37","admin3_code":"","admin4_code":"","population":"0","elevation":"","dem":"326","timezone":"Europe/Tirane","modification_date":"2012-06-05"},{"geonameid":"3185487","name":"Gradishtë","asciiname":"Gradishte","alternatenames":["Gradisht","Gradishta","Gradishte","Gradishti","Gradishtë","Gradista","Gradiza","Gradišta","Qyteze","Qytezë"],"latitude":"40.88806","longitude":"19.58583","feature_class":"P","feature_code":"PPLA3","country_code":"AL","cc2":"AL","admin1_code":"44","admin2_code":"14","admin3_code":"","admin4_code":"","population":"0","elevation":"","dem":"8","timezone":"Europe/Tirane","modification_date":"2012-06-05"},{"geonameid":"3185494","name":"Grabjan","asciiname":"Grabjan","alternatenames":["Grabian","Grabiani","Grabijan","Grabijani","Grabjan","Grabjani","Grobia","Grunasi"],"latitude":"40.95306","longitude":"19.58083","feature_class":"P","feature_code":"PPLA3","country_code":"AL","cc2":"AL","admin1_code":"44","admin2_code":"14","admin3_code":"","admin4_code":"","population":"0","elevation":"","dem":"26","timezone":"Europe/Tirane","modification_date":"2012-06-05"},{"geonameid":"3185527","name":"Golem","asciiname":"Golem","alternatenames":["Cela i Madh","Golem","Golem i Madh","Golem i Math","Golemi","Golemi i Madh","Çela i Madh"],"latitude":"40.96778","longitude":"19.68528","feature_class":"P","feature_code":"PPLA3","country_code":"AL","cc2":"AL","admin1_code":"44","admin2_code":"14","admin3_code":"","admin4_code":"","population":"0","elevation":"","dem":"32","timezone":"Europe/Tirane","modification_date":"2012-06-05"},{"geonameid":"3185648","name":"Fratar","asciiname":"Fratar","alternatenames":["Fratari"],"latitude":"40.5","longitude":"19.81667","feature_class":"P","feature_code":"PPLA3","country_code":"AL","cc2":"AL","admin1_code":"44","admin2_code":"37","admin3_code":"","admin4_code":"","population":"0","elevation":"","dem":"288","timezone":"Europe/Tirane","modification_date":"2012-06-05"},{"geonameid":"3185652","name":"Frakulla e Madhe","asciiname":"Frakulla e Madhe","alternatenames":["Frakula","Frakula e Pasajit","Frakula e Pašajit","Frakull e Madhe","Frakull' e Pashajt","Frakulla e Madhe","Frakulla e Pashajit","Frakulle","Frakulle e Madhe","Frakulle e Pashajt","Frakullë","Frakullë e Madhe","Frakullë e Pashajt","Frakull’ e Pashajt","Frankulle Pashajt"],"latitude":"40.65583","longitude":"19.5025","feature_class":"P","feature_code":"PPLA3","country_code":"AL","cc2":"AL","admin1_code":"44","admin2_code":"05","admin3_code":"","admin4_code":"","population":"0","elevation":"","dem":"19","timezone":"Europe/Tirane","modification_date":"2012-06-02"},{"geonameid":"3185664","name":"Fier-Shegan","asciiname":"Fier-Shegan","alternatenames":["Fier Shegeni","Fier-Shegan","Fier-Shegani","Fieri Shegani"],"latitude":"40.86722","longitude":"19.78528","feature_class":"P","feature_code":"PPLA3","country_code":"AL","cc2":"AL","admin1_code":"44","admin2_code":"14","admin3_code":"","admin4_code":"","population":"0","elevation":"","dem":"19","timezone":"Europe/Tirane","modification_date":"2012-06-05"},{"geonameid":"3185670","name":"Fier-Çifçi","asciiname":"Fier-Cifci","alternatenames":[""],"latitude":"40.71667","longitude":"19.56667","feature_class":"P","feature_code":"PPLX","country_code":"AL","cc2":"","admin1_code":"44","admin2_code":"","admin3_code":"","admin4_code":"","population":"60995","elevation":"","dem":"17","timezone":"Europe/Tirane","modification_date":"2007-05-30"},{"geonameid":"3185672","name":"Fier","asciiname":"Fier","alternatenames":["Fearica","Fier","Fieri","Fieris","Fjer","Fjeri","fei xia er","fieru","fyr","pieleu","Фиер","Фиери","Фјер","فیر","フィエル","非夏爾","피에르"],"latitude":"40.72389","longitude":"19.55611","feature_class":"P","feature_code":"PPLA","country_code":"AL","cc2":"","admin1_code":"44","admin2_code":"","admin3_code":"","admin4_code":"","population":"56297","elevation":"","dem":"20","timezone":"Europe/Tirane","modification_date":"2012-01-19"},{"geonameid":"3185767","name":"Drenovë","asciiname":"Drenove","alternatenames":["Drenova","Drenove","Drenovë","Drnova"],"latitude":"40.60056","longitude":"19.70083","feature_class":"P","feature_code":"PPLA3","country_code":"AL","cc2":"AL","admin1_code":"44","admin2_code":"37","admin3_code":"","admin4_code":"","population":"0","elevation":"","dem":"514","timezone":"Europe/Tirane","modification_date":"2012-06-05"},{"geonameid":"3185797","name":"Divjakë","asciiname":"Divjake","alternatenames":["Diviaka","Divjaca","Divjak","Divjaka","Divjake","Divjakë","Duvijaka","Pisha"],"latitude":"40.99667","longitude":"19.52944","feature_class":"P","feature_code":"PPLA3","country_code":"AL","cc2":"AL","admin1_code":"44","admin2_code":"14","admin3_code":"","admin4_code":"","population":"0","elevation":"","dem":"-1","timezone":"Europe/Tirane","modification_date":"2012-06-05"},{"geonameid":"3185815","name":"Dërmënas","asciiname":"Dermenas","alternatenames":["Dermena","Dermenas","Dermenasi","Dermënasi","Drmanas","Dërmënas"],"latitude":"40.74556","longitude":"19.49389","feature_class":"P","feature_code":"PPLA3","country_code":"AL","cc2":"AL","admin1_code":"44","admin2_code":"05","admin3_code":"","admin4_code":"","population":"0","elevation":"","dem":"4","timezone":"Europe/Tirane","modification_date":"2012-06-02"},{"geonameid":"3185925","name":"Cakran","asciiname":"Cakran","alternatenames":["Cakran","Cakrani","Cakrrani","Zakran"],"latitude":"40.60333","longitude":"19.62611","feature_class":"P","feature_code":"PPLA3","country_code":"AL","cc2":"AL","admin1_code":"44","admin2_code":"05","admin3_code":"","admin4_code":"","population":"0","elevation":"","dem":"86","timezone":"Europe/Tirane","modification_date":"2012-06-02"},{"geonameid":"3185961","name":"Bubullimë","asciiname":"Bubullime","alternatenames":["Bubullima","Bubullime","Bubullimë","Bubulmani","Buhullime","Buhullimë","Bumlulim"],"latitude":"40.81806","longitude":"19.64083","feature_class":"P","feature_code":"PPLA3","country_code":"AL","cc2":"AL","admin1_code":"44","admin2_code":"14","admin3_code":"","admin4_code":"","population":"0","elevation":"","dem":"8","timezone":"Europe/Tirane","modification_date":"2012-06-05"},{"geonameid":"3186145","name":"Ballsh","asciiname":"Ballsh","alternatenames":["Bal'shi","Baleri","Ballesh","Balleshi","Ballsh","Ballshi","Ballësh","Ballëshi","Bals","Balš","Бальши"],"latitude":"40.59889","longitude":"19.73472","feature_class":"P","feature_code":"PPLA2","country_code":"AL","cc2":"","admin1_code":"44","admin2_code":"37","admin3_code":"","admin4_code":"","population":"10361","elevation":"","dem":"206","timezone":"Europe/Tirane","modification_date":"2012-06-05"},{"geonameid":"3186153","name":"Ballagat","asciiname":"Ballagat","alternatenames":["Balagati","Ballagat","Ballagati","Ballajgati"],"latitude":"40.99528","longitude":"19.76528","feature_class":"P","feature_code":"PPLA3","country_code":"AL","cc2":"AL","admin1_code":"44","admin2_code":"14","admin3_code":"","admin4_code":"","population":"0","elevation":"","dem":"179","timezone":"Europe/Tirane","modification_date":"2012-06-05"},{"geonameid":"3186196","name":"Aranitas","asciiname":"Aranitas","alternatenames":["Aranitas","Aranitasi","Aranitesi","Aranitësi","Arositani"],"latitude":"40.59444","longitude":"19.80667","feature_class":"P","feature_code":"PPLA3","country_code":"AL","cc2":"AL","admin1_code":"44","admin2_code":"37","admin3_code":"","admin4_code":"","population":"0","elevation":"","dem":"297","timezone":"Europe/Tirane","modification_date":"2012-06-05"},{"geonameid":"3186208","name":"Allkaj","asciiname":"Allkaj","alternatenames":["Alikaj","Allkaj","Hallkani","Rrethi"],"latitude":"40.8575","longitude":"19.75528","feature_class":"P","feature_code":"PPLA3","country_code":"AL","cc2":"AL","admin1_code":"44","admin2_code":"14","admin3_code":"","admin4_code":"","population":"0","elevation":"","dem":"15","timezone":"Europe/Tirane","modification_date":"2012-06-05"},{"geonameid":"3343829","name":"Dushk","asciiname":"Dushk","alternatenames":["Dushk","Dushku"],"latitude":"40.72667","longitude":"19.75722","feature_class":"P","feature_code":"PPLA3","country_code":"AL","cc2":"AL","admin1_code":"44","admin2_code":"14","admin3_code":"","admin4_code":"","population":"0","elevation":"","dem":"50","timezone":"Europe/Tirane","modification_date":"2012-06-05"},{"geonameid":"3343997","name":"Selitë","asciiname":"Selite","alternatenames":["Selita","Selite","Selitë"],"latitude":"40.5475","longitude":"19.84806","feature_class":"P","feature_code":"PPLA3","country_code":"AL","cc2":"AL","admin1_code":"44","admin2_code":"37","admin3_code":"","admin4_code":"","population":"0","elevation":"","dem":"533","timezone":"Europe/Tirane","modification_date":"2012-06-05"}]}