{"region_data":{"countryId":"783754","adminCode1":"45","countryName":"Albania","fclName":"country, state, region,...","countryCode":"AL","lng":"20.2","fcodeName":"first-order administrative division","toponymName":"Qarku i Gjirokastrës","fcl":"A","numberOfChildren":3,"name":"Qarku i Gjirokastrës","fcode":"ADM1","geonameId":865733,"lat":"40.21667","adminName1":"Gjirokastër","population":0},"country_data":{"ISO":"AL","ISO3":"ALB","ISO_Numeric":"008","fips":"AL","country":"Albania","capital":"Tirana","area":"28748","Population":"2986952","Continent":"EU","tld":".al","CurrencyCode":"ALL","CurrencyName":"Lek","Phone":"355","Postal_Code_Format":"","Postal_Code_Regex":"","Languages":"sq,el","geonameid":"783754","neighbours":"MK,GR,ME,RS,XK","EquivalentFipsCode":""},"cities":[{"geonameid":"363341","name":"Kakavijë","asciiname":"Kakavije","alternatenames":["Cacavia","Kakavi","Kakavia","Kakavija","Kakavije","Kakavijë","Kakavja"],"latitude":"39.90778","longitude":"20.35833","feature_class":"P","feature_code":"PPLA3","country_code":"AL","cc2":"AL","admin1_code":"45","admin2_code":"06","admin3_code":"","admin4_code":"","population":"0","elevation":"","dem":"341","timezone":"Europe/Tirane","modification_date":"2012-06-06"},{"geonameid":"781213","name":"Vithkuq","asciiname":"Vithkuq","alternatenames":["Bithyq","Bityq","Buthuq","Bythyci","Bythyq","Bythyçi","Vithkuq","Vithuq","Vithuqi","Zagor","Zagori","Zagorie"],"latitude":"40.20472","longitude":"20.25944","feature_class":"P","feature_code":"PPLA3","country_code":"AL","cc2":"AL","admin1_code":"45","admin2_code":"06","admin3_code":"","admin4_code":"","population":"0","elevation":"","dem":"675","timezone":"Europe/Tirane","modification_date":"2012-06-06"},{"geonameid":"781405","name":"Topojan","asciiname":"Topojan","alternatenames":["Tapaiani","Topaiani","Topajan","Topojan","Topojani","Topoyani"],"latitude":"40.37722","longitude":"20.21333","feature_class":"P","feature_code":"PPLA3","country_code":"AL","cc2":"AL","admin1_code":"45","admin2_code":"","admin3_code":"","admin4_code":"","population":"0","elevation":"","dem":"648","timezone":"Europe/Tirane","modification_date":"2012-06-11"},{"geonameid":"781443","name":"Tepelenë","asciiname":"Tepelene","alternatenames":["Tepelen","Tepelena","Tepelene","Tepeleni","Tepelenë","Tepelenė","tai pei lai na","tepelleneo","tplnh","Τεπελένι","Тепелена","تپلنه","تپلنہ","台佩莱纳","테펠레너"],"latitude":"40.29583","longitude":"20.01917","feature_class":"P","feature_code":"PPLA2","country_code":"AL","cc2":"","admin1_code":"45","admin2_code":"23","admin3_code":"","admin4_code":"","population":"11955","elevation":"","dem":"212","timezone":"Europe/Tirane","modification_date":"2012-06-07"},{"geonameid":"781481","name":"Sukë","asciiname":"Suke","alternatenames":["Suka","Suke","Sukë"],"latitude":"40.37528","longitude":"20.15472","feature_class":"P","feature_code":"PPLA3","country_code":"AL","cc2":"AL","admin1_code":"45","admin2_code":"17","admin3_code":"","admin4_code":"","population":"0","elevation":"","dem":"259","timezone":"Europe/Tirane","modification_date":"2012-06-06"},{"geonameid":"781578","name":"Skore","asciiname":"Skore","alternatenames":["Shkore","Shkorë","Shore","Shorë","Skore","Skorea","Skoreja"],"latitude":"40.10722","longitude":"20.36639","feature_class":"P","feature_code":"PPLA3","country_code":"AL","cc2":"AL","admin1_code":"45","admin2_code":"06","admin3_code":"","admin4_code":"","population":"0","elevation":"","dem":"790","timezone":"Europe/Tirane","modification_date":"2012-06-06"},{"geonameid":"781763","name":"Saraqinishtë","asciiname":"Saraqinishte","alternatenames":["Sarachinista","Sarakinista","Saranishte","Saraqinisht","Saraqinishta","Saraqinishte","Saraqinishtë"],"latitude":"40.10528","longitude":"20.22944","feature_class":"P","feature_code":"PPLA3","country_code":"AL","cc2":"AL","admin1_code":"45","admin2_code":"06","admin3_code":"","admin4_code":"","population":"0","elevation":"","dem":"708","timezone":"Europe/Tirane","modification_date":"2012-06-06"},{"geonameid":"781877","name":"Qestorat","asciiname":"Qestorat","alternatenames":["Chiesarat","Khiesarat","Qesarat","Qestorat","Qestorati"],"latitude":"40.1175","longitude":"20.19972","feature_class":"P","feature_code":"PPLA3","country_code":"AL","cc2":"AL","admin1_code":"45","admin2_code":"06","admin3_code":"","admin4_code":"","population":"0","elevation":"","dem":"553","timezone":"Europe/Tirane","modification_date":"2012-06-06"},{"geonameid":"782048","name":"Gjinkar","asciiname":"Gjinkar","alternatenames":["Gjinakar","Gjinkan-Petrani","Gjinkar","Gjinkar-Petran","Petran","Petrani","Petrani-Gjinkari","Petranit"],"latitude":"40.19944","longitude":"20.40611","feature_class":"P","feature_code":"PPL","country_code":"AL","cc2":"AL","admin1_code":"45","admin2_code":"","admin3_code":"","admin4_code":"","population":"3243","elevation":"","dem":"311","timezone":"Europe/Tirane","modification_date":"2013-05-05"},{"geonameid":"782049","name":"Petran","asciiname":"Petran","alternatenames":["Pertran","Petran","Qender","Qendra","Qendër"],"latitude":"40.20944","longitude":"20.41833","feature_class":"P","feature_code":"PPLA3","country_code":"AL","cc2":"AL","admin1_code":"45","admin2_code":"17","admin3_code":"","admin4_code":"","population":"0","elevation":"","dem":"271","timezone":"Europe/Tirane","modification_date":"2012-06-06"},{"geonameid":"782070","name":"Përmet","asciiname":"Permet","alternatenames":["Permet","Permeti","Premet","Premete","Premeti","Premetē","Prëmet","Përmet","Пермет"],"latitude":"40.23361","longitude":"20.35167","feature_class":"P","feature_code":"PPLA2","country_code":"AL","cc2":"","admin1_code":"45","admin2_code":"17","admin3_code":"","admin4_code":"","population":"10686","elevation":"","dem":"244","timezone":"Europe/Tirane","modification_date":"2012-06-06"},{"geonameid":"782155","name":"Odrie","asciiname":"Odrie","alternatenames":["Odria"],"latitude":"40.13333","longitude":"20.16667","feature_class":"P","feature_code":"PPLA3","country_code":"AL","cc2":"AL","admin1_code":"45","admin2_code":"06","admin3_code":"","admin4_code":"","population":"0","elevation":"","dem":"286","timezone":"Europe/Tirane","modification_date":"2012-06-06"},{"geonameid":"782169","name":"Picar","asciiname":"Picar","alternatenames":["Novace","Novacë","Picar","Picari"],"latitude":"40.16667","longitude":"20.04833","feature_class":"P","feature_code":"PPLA3","country_code":"AL","cc2":"AL","admin1_code":"45","admin2_code":"06","admin3_code":"","admin4_code":"","population":"0","elevation":"","dem":"295","timezone":"Europe/Tirane","modification_date":"2012-06-06"},{"geonameid":"782523","name":"Libohovë","asciiname":"Libohove","alternatenames":["Libhova","Libohov","Libohova","Libohova Qender","Libohova Qendër","Libohove","Libohovo","Libohovë","Libokhova","Libokhovon","Либохова"],"latitude":"40.03111","longitude":"20.26306","feature_class":"P","feature_code":"PPLA3","country_code":"AL","cc2":"","admin1_code":"45","admin2_code":"06","admin3_code":"","admin4_code":"","population":"3651","elevation":"","dem":"406","timezone":"Europe/Tirane","modification_date":"2012-06-06"},{"geonameid":"782582","name":"Lazarat","asciiname":"Lazarat","alternatenames":["Lazarat","Lazarati","Liazarati","Linzarates"],"latitude":"40.04667","longitude":"20.1475","feature_class":"P","feature_code":"PPLA3","country_code":"AL","cc2":"AL","admin1_code":"45","admin2_code":"06","admin3_code":"","admin4_code":"","population":"0","elevation":"","dem":"457","timezone":"Europe/Tirane","modification_date":"2012-06-06"},{"geonameid":"782843","name":"Këlcyrë","asciiname":"Kelcyre","alternatenames":["Kel'cira","Kelcyra","Kelcyre","Kelcyres","Kelcyrës","Kleisoura","Klisura","Këlcyra","Këlcyrë","Кельцира"],"latitude":"40.31306","longitude":"20.18944","feature_class":"P","feature_code":"PPLA3","country_code":"AL","cc2":"","admin1_code":"45","admin2_code":"17","admin3_code":"","admin4_code":"","population":"2486","elevation":"","dem":"178","timezone":"Europe/Tirane","modification_date":"2012-06-06"},{"geonameid":"782868","name":"Kardhiq","asciiname":"Kardhiq","alternatenames":["Gardiki","Kardhiq","Kardhiqi"],"latitude":"40.12167","longitude":"20.0275","feature_class":"P","feature_code":"PPLA3","country_code":"AL","cc2":"AL","admin1_code":"45","admin2_code":"06","admin3_code":"","admin4_code":"","population":"0","elevation":"","dem":"491","timezone":"Europe/Tirane","modification_date":"2012-06-06"},{"geonameid":"783148","name":"Gjirokastër","asciiname":"Gjirokaster","alternatenames":["Agirocastro","Arghirocastru","Arghyrocastro","Argirocastro","Argirokastro","Argyrokastro","Argyrokastron","Aryirokastro","Aryirokastron","Ergheni","Ergiri","GJirokastra","Ghinokastre","Girokasteris","Girokastra","Girokastro","Gjinokaster","Gjinokastra","Gjinokastre","Gjinokastrer","Gjinokastër","Gjirokaster","Gjirokastra","Gjirokastre","Gjirokastro","Gjirokastrë","Gjirokastër","arjyr","gyrwqstrh","ji nuo ka si te","jilokaseuteoleu","jirokasutora","jyrwkastr","Đirokastra","Αργυρόκαστρο","Ђирокастра","Ѓирокастро","Аргирокастро","Гирокастра","Гирокастро","Гірокастра","גירוקסטרה","ارجیر","جیروکاستر","გიროკასტრა","ジロカストラ","吉诺卡斯特","지로카스터르"],"latitude":"40.07583","longitude":"20.13889","feature_class":"P","feature_code":"PPLA","country_code":"AL","cc2":"","admin1_code":"45","admin2_code":"","admin3_code":"","admin4_code":"","population":"23437","elevation":"","dem":"286","timezone":"Europe/Tirane","modification_date":"2012-01-19"},{"geonameid":"783231","name":"Frashër","asciiname":"Frasher","alternatenames":["Frasceri","Frasher","Frasheri","Frashër","Frashëri","Phrasare","Phrasarë"],"latitude":"40.36889","longitude":"20.42444","feature_class":"P","feature_code":"PPLA3","country_code":"AL","cc2":"AL","admin1_code":"45","admin2_code":"17","admin3_code":"","admin4_code":"","population":"0","elevation":"","dem":"1013","timezone":"Europe/Tirane","modification_date":"2012-06-06"},{"geonameid":"783363","name":"Derviçian","asciiname":"Dervician","alternatenames":["Dervican","Dervicani","Dervician","Derviciani","Dervisciani","Derviçan","Derviçani","Derviçian"],"latitude":"40.0325","longitude":"20.17333","feature_class":"P","feature_code":"PPLA3","country_code":"AL","cc2":"AL","admin1_code":"45","admin2_code":"06","admin3_code":"","admin4_code":"","population":"0","elevation":"","dem":"241","timezone":"Europe/Tirane","modification_date":"2012-06-06"},{"geonameid":"783461","name":"Çarshovë","asciiname":"Carshove","alternatenames":["Carcova","Carcove","Carshova","Carshove","Çarshova","Çarshovë","Çarçova","Çarçovë"],"latitude":"40.11806","longitude":"20.54083","feature_class":"P","feature_code":"PPLA3","country_code":"AL","cc2":"AL","admin1_code":"45","admin2_code":"17","admin3_code":"","admin4_code":"","population":"0","elevation":"","dem":"328","timezone":"Europe/Tirane","modification_date":"2012-06-06"},{"geonameid":"783479","name":"Buz","asciiname":"Buz","alternatenames":["Busi","Buz","Buz i Madh","Buz i Math","Buze","Buzi","Buzi i Madh","Buzi i Math","Buzë"],"latitude":"40.445","longitude":"20.00472","feature_class":"P","feature_code":"PPLA3","country_code":"AL","cc2":"AL","admin1_code":"45","admin2_code":"23","admin3_code":"","admin4_code":"","population":"0","elevation":"","dem":"747","timezone":"Europe/Tirane","modification_date":"2012-06-07"},{"geonameid":"783695","name":"Ballaban","asciiname":"Ballaban","alternatenames":["Balaban","Ballaban","Ballabani"],"latitude":"40.41667","longitude":"20.13444","feature_class":"P","feature_code":"PPLA3","country_code":"AL","cc2":"AL","admin1_code":"45","admin2_code":"17","admin3_code":"","admin4_code":"","population":"0","elevation":"","dem":"322","timezone":"Europe/Tirane","modification_date":"2012-06-06"},{"geonameid":"865202","name":"Piskovë","asciiname":"Piskove","alternatenames":["Piskova","Piskove","Piskovë"],"latitude":"40.27917","longitude":"20.2725","feature_class":"P","feature_code":"PPLA3","country_code":"AL","cc2":"AL","admin1_code":"45","admin2_code":"17","admin3_code":"","admin4_code":"","population":"0","elevation":"","dem":"202","timezone":"Europe/Tirane","modification_date":"2012-06-06"},{"geonameid":"3184397","name":"Progonat","asciiname":"Progonat","alternatenames":["Progonat","Progonati"],"latitude":"40.21333","longitude":"19.94472","feature_class":"P","feature_code":"PPLA3","country_code":"AL","cc2":"AL","admin1_code":"45","admin2_code":"23","admin3_code":"","admin4_code":"","population":"0","elevation":"","dem":"926","timezone":"Europe/Tirane","modification_date":"2012-06-07"},{"geonameid":"3184743","name":"Memaliaj","asciiname":"Memaliaj","alternatenames":["Mamaliaga","Mamaliaj","Memaliaj","Memalianji","Мемалиай"],"latitude":"40.35167","longitude":"19.98028","feature_class":"P","feature_code":"PPLA3","country_code":"AL","cc2":"","admin1_code":"45","admin2_code":"23","admin3_code":"","admin4_code":"","population":"4951","elevation":"","dem":"115","timezone":"Europe/Tirane","modification_date":"2012-06-07"},{"geonameid":"3184887","name":"Luftinjë","asciiname":"Luftinje","alternatenames":["Luftinia","Luftinja","Luftinje","Luftinjë"],"latitude":"40.44278","longitude":"19.95444","feature_class":"P","feature_code":"PPLA3","country_code":"AL","cc2":"AL","admin1_code":"45","admin2_code":"23","admin3_code":"","admin4_code":"","population":"0","elevation":"","dem":"432","timezone":"Europe/Tirane","modification_date":"2012-06-07"},{"geonameid":"3185102","name":"Krahës","asciiname":"Krahes","alternatenames":["Krahes","Krahes Numer Nje","Krahesi","Krahesi Numer Nje","Krahës","Krahës Numër Një","Krahësi","Krahësi Numër Një"],"latitude":"40.43861","longitude":"19.84444","feature_class":"P","feature_code":"PPLA3","country_code":"AL","cc2":"AL","admin1_code":"45","admin2_code":"23","admin3_code":"","admin4_code":"","population":"0","elevation":"","dem":"209","timezone":"Europe/Tirane","modification_date":"2012-06-07"}]}