{"region_data":{"countryId":"3017382","adminCode1":"A2","countryName":"France","fclName":"country, state, region,...","countryCode":"FR","lng":"-2.83333","fcodeName":"first-order administrative division","toponymName":"Bretagne","fcl":"A","numberOfChildren":4,"name":"Brittany","fcode":"ADM1","geonameId":3030293,"lat":"48.16667","adminName1":"Brittany","population":3120288},"country_data":{"ISO":"FR","ISO3":"FRA","ISO_Numeric":"250","fips":"FR","country":"France","capital":"Paris","area":"547030","Population":"64768389","Continent":"EU","tld":".fr","CurrencyCode":"EUR","CurrencyName":"Euro","Phone":"33","Postal_Code_Format":"#####","Postal_Code_Regex":"^(\\d{5})$","Languages":"fr-FR,frp,br,co,ca,eu,oc","geonameid":"3017382","neighbours":"CH,DE,BE,LU,IT,AD,MC,ES","EquivalentFipsCode":""},"cities":[{"geonameid":"2967183","name":"Yvignac-la-Tour","asciiname":"Yvignac-la-Tour","alternatenames":["Ivin'jak-la-Tur","Ivinieg","yi wei ni ya ke la tu","Івіньяк-ла-Тур","Ивиньяк-ла-Тур","伊维尼亚克拉图"],"latitude":"48.35","longitude":"-2.18333","feature_class":"P","feature_code":"PPL","country_code":"FR","cc2":"","admin1_code":"A2","admin2_code":"22","admin3_code":"221","admin4_code":"22391","population":"1124","elevation":"","dem":"79","timezone":"Europe/Paris","modification_date":"2007-11-13"},{"geonameid":"2967234","name":"Yffiniac","asciiname":"Yffiniac","alternatenames":["Ilfinieg","Yffiniac"],"latitude":"48.48428","longitude":"-2.67647","feature_class":"P","feature_code":"PPL","country_code":"FR","cc2":"","admin1_code":"A2","admin2_code":"22","admin3_code":"224","admin4_code":"22389","population":"4392","elevation":"","dem":"11","timezone":"Europe/Paris","modification_date":"2012-01-18"},{"geonameid":"2967879","name":"Vitré","asciiname":"Vitre","alternatenames":["Bitre","Gwitreg","Vitre","Vitreh","Vitré","fytry","vu~itore","wei te lei","Βιτρέ","Витрэ","فيتري","ヴィトレ","维特雷"],"latitude":"48.11776","longitude":"-1.20577","feature_class":"P","feature_code":"PPL","country_code":"FR","cc2":"","admin1_code":"A2","admin2_code":"35","admin3_code":"351","admin4_code":"35360","population":"17266","elevation":"","dem":"115","timezone":"Europe/Paris","modification_date":"2012-01-18"},{"geonameid":"2969105","name":"Vignoc","asciiname":"Vignoc","alternatenames":["Gwinieg","Vignoc"],"latitude":"48.24842","longitude":"-1.78169","feature_class":"P","feature_code":"PPL","country_code":"FR","cc2":"","admin1_code":"A2","admin2_code":"35","admin3_code":"353","admin4_code":"35356","population":"1190","elevation":"","dem":"97","timezone":"Europe/Paris","modification_date":"2012-01-18"},{"geonameid":"2969197","name":"Le Vieux-Marché","asciiname":"Le Vieux-Marche","alternatenames":["Ar C'houerc'had","Le Vieux-Marche","Le Vieux-Marché"],"latitude":"48.6","longitude":"-3.45","feature_class":"P","feature_code":"PPL","country_code":"FR","cc2":"","admin1_code":"A2","admin2_code":"22","admin3_code":"223","admin4_code":"22387","population":"1138","elevation":"","dem":"133","timezone":"Europe/Paris","modification_date":"2009-09-08"},{"geonameid":"2969465","name":"Vezin-le-Coquet","asciiname":"Vezin-le-Coquet","alternatenames":["Gwezin","Vezin","Vezin-le-Coquet"],"latitude":"48.11857","longitude":"-1.75466","feature_class":"P","feature_code":"PPL","country_code":"FR","cc2":"","admin1_code":"A2","admin2_code":"35","admin3_code":"353","admin4_code":"35353","population":"4416","elevation":"","dem":"50","timezone":"Europe/Paris","modification_date":"2012-01-18"},{"geonameid":"2969741","name":"Vern-sur-Seiche","asciiname":"Vern-sur-Seiche","alternatenames":["Gwern-ar-Sec'h","Gwern-ar-Sech","Vern","Vern-sjur-Sesh","Vern-sur-Seiche","Vernum","sai ke he pan wei er en","Верн-сюр-Сеш","塞克河畔韦尔恩"],"latitude":"48.04514","longitude":"-1.60057","feature_class":"P","feature_code":"PPL","country_code":"FR","cc2":"","admin1_code":"A2","admin2_code":"35","admin3_code":"353","admin4_code":"35352","population":"8110","elevation":"","dem":"50","timezone":"Europe/Paris","modification_date":"2012-01-18"},{"geonameid":"2970777","name":"Vannes","asciiname":"Vannes","alternatenames":["Dariorigum","Gwened","VNE","Van","Vanas","Vann","Vannes","Venetens","ban","fan","vani","vu~an'nu","wa ne","Ван","Ванн","באניס","ואן","فان","ვანი","ヴァンヌ","瓦讷","반"],"latitude":"47.66667","longitude":"-2.75","feature_class":"P","feature_code":"PPLA2","country_code":"FR","cc2":"","admin1_code":"A2","admin2_code":"56","admin3_code":"563","admin4_code":"56260","population":"54020","elevation":"","dem":"23","timezone":"Europe/Paris","modification_date":"2011-11-02"},{"geonameid":"2971723","name":"Trévou-Tréguignec","asciiname":"Trevou-Treguignec","alternatenames":["An Trevou","An Trevoù","Trevou-Treguignec","Trevu-Tregin'ek","Trévou-Tréguignec","te lei wu te lei ji gai ke","Треву-Трегиньек","Треву-Трегіньєк","特雷武特雷吉盖克"],"latitude":"48.81869","longitude":"-3.34132","feature_class":"P","feature_code":"PPL","country_code":"FR","cc2":"","admin1_code":"A2","admin2_code":"22","admin3_code":"223","admin4_code":"22379","population":"1421","elevation":"","dem":"41","timezone":"Europe/Paris","modification_date":"2012-01-18"},{"geonameid":"2971751","name":"Trévé","asciiname":"Treve","alternatenames":["Treve","Trévé"],"latitude":"48.21147","longitude":"-2.79317","feature_class":"P","feature_code":"PPL","country_code":"FR","cc2":"","admin1_code":"A2","admin2_code":"22","admin3_code":"224","admin4_code":"22376","population":"1382","elevation":"","dem":"161","timezone":"Europe/Paris","modification_date":"2012-01-18"},{"geonameid":"2971796","name":"Tresbœuf","asciiname":"Tresboeuf","alternatenames":["Tresboeuf","Trevo"],"latitude":"47.88333","longitude":"-1.55","feature_class":"P","feature_code":"PPL","country_code":"FR","cc2":"","admin1_code":"A2","admin2_code":"35","admin3_code":"352","admin4_code":"35343","population":"1011","elevation":"","dem":"100","timezone":"Europe/Paris","modification_date":"2007-11-21"},{"geonameid":"2971825","name":"Trémuson","asciiname":"Tremuson","alternatenames":["Tremuson","Tremuzon","Trémuson"],"latitude":"48.52325","longitude":"-2.84833","feature_class":"P","feature_code":"PPL","country_code":"FR","cc2":"","admin1_code":"A2","admin2_code":"22","admin3_code":"224","admin4_code":"22372","population":"1763","elevation":"","dem":"140","timezone":"Europe/Paris","modification_date":"2012-01-18"},{"geonameid":"2971856","name":"Tréméven","asciiname":"Tremeven","alternatenames":["Tremeven","Tremeven-Kemperle","Tréméven"],"latitude":"47.9","longitude":"-3.53333","feature_class":"P","feature_code":"PPL","country_code":"FR","cc2":"","admin1_code":"A2","admin2_code":"29","admin3_code":"294","admin4_code":"29297","population":"2125","elevation":"","dem":"87","timezone":"Europe/Paris","modification_date":"2012-01-18"},{"geonameid":"2971876","name":"Tremblay","asciiname":"Tremblay","alternatenames":["Kreneg","Tremblay"],"latitude":"48.42216","longitude":"-1.47555","feature_class":"P","feature_code":"PPL","country_code":"FR","cc2":"","admin1_code":"A2","admin2_code":"35","admin3_code":"351","admin4_code":"35341","population":"1571","elevation":"","dem":"81","timezone":"Europe/Paris","modification_date":"2012-01-18"},{"geonameid":"2971889","name":"Trélivan","asciiname":"Trelivan","alternatenames":["Trelivan","Trélivan"],"latitude":"48.43198","longitude":"-2.11748","feature_class":"P","feature_code":"PPL","country_code":"FR","cc2":"","admin1_code":"A2","admin2_code":"22","admin3_code":"221","admin4_code":"22364","population":"2286","elevation":"","dem":"94","timezone":"Europe/Paris","modification_date":"2012-01-18"},{"geonameid":"2971893","name":"Trélévern","asciiname":"Trelevern","alternatenames":["Trelevern","Trelêvern","Trélévern"],"latitude":"48.81071","longitude":"-3.37141","feature_class":"P","feature_code":"PPL","country_code":"FR","cc2":"","admin1_code":"A2","admin2_code":"22","admin3_code":"223","admin4_code":"22363","population":"1374","elevation":"","dem":"60","timezone":"Europe/Paris","modification_date":"2012-01-18"},{"geonameid":"2971926","name":"Trégunc","asciiname":"Tregunc","alternatenames":["Tregenk","Tregon","Tregunc","Trégunc","te lei gan ke","toregan","Трегенк","トレガン","特雷甘克"],"latitude":"47.85","longitude":"-3.85","feature_class":"P","feature_code":"PPL","country_code":"FR","cc2":"","admin1_code":"A2","admin2_code":"29","admin3_code":"294","admin4_code":"29293","population":"6775","elevation":"","dem":"35","timezone":"Europe/Paris","modification_date":"2012-01-18"},{"geonameid":"2971929","name":"Tréguier","asciiname":"Treguier","alternatenames":["Landreger","Trecorium","Treg'e","Tregie","Treguier","Tréguier","te lei ji ye","toregie","Трегие","Трегье","Трегіє","トレギエ","特雷吉耶"],"latitude":"48.78333","longitude":"-3.23333","feature_class":"P","feature_code":"PPL","country_code":"FR","cc2":"","admin1_code":"A2","admin2_code":"22","admin3_code":"223","admin4_code":"22362","population":"3011","elevation":"","dem":"53","timezone":"Europe/Paris","modification_date":"2012-01-18"},{"geonameid":"2971953","name":"Trégastel","asciiname":"Tregastel","alternatenames":["Tregastel","Tregastel-Bourg","Trégastel"],"latitude":"48.81667","longitude":"-3.5","feature_class":"P","feature_code":"PPL","country_code":"FR","cc2":"","admin1_code":"A2","admin2_code":"22","admin3_code":"223","admin4_code":"22353","population":"2341","elevation":"","dem":"34","timezone":"Europe/Paris","modification_date":"2012-01-18"},{"geonameid":"2971976","name":"Treffléan","asciiname":"Trefflean","alternatenames":["Trefflean","Treffléan","Trevlean"],"latitude":"47.68163","longitude":"-2.61287","feature_class":"P","feature_code":"PPL","country_code":"FR","cc2":"","admin1_code":"A2","admin2_code":"56","admin3_code":"563","admin4_code":"56255","population":"1544","elevation":"","dem":"116","timezone":"Europe/Paris","modification_date":"2012-01-18"},{"geonameid":"2971978","name":"Treffiagat","asciiname":"Treffiagat","alternatenames":["Triagad"],"latitude":"47.81667","longitude":"-4.26667","feature_class":"P","feature_code":"PPL","country_code":"FR","cc2":"","admin1_code":"A2","admin2_code":"29","admin3_code":"294","admin4_code":"29284","population":"2376","elevation":"","dem":"18","timezone":"Europe/Paris","modification_date":"2007-11-19"},{"geonameid":"2971988","name":"Trédarzec","asciiname":"Tredarzec","alternatenames":["Tredarzec","Tredarzeg","Trédarzec"],"latitude":"48.78583","longitude":"-3.201","feature_class":"P","feature_code":"PPL","country_code":"FR","cc2":"","admin1_code":"A2","admin2_code":"22","admin3_code":"223","admin4_code":"22347","population":"1068","elevation":"","dem":"49","timezone":"Europe/Paris","modification_date":"2012-01-18"},{"geonameid":"2972009","name":"Trébeurden","asciiname":"Trebeurden","alternatenames":["Treberdan","Trebeurden","Trebjorden","Trébeurden","te lei bo er dang","Требердан","Требёрден","特雷伯尔当"],"latitude":"48.76667","longitude":"-3.56667","feature_class":"P","feature_code":"PPL","country_code":"FR","cc2":"","admin1_code":"A2","admin2_code":"22","admin3_code":"223","admin4_code":"22343","population":"3617","elevation":"","dem":"77","timezone":"Europe/Paris","modification_date":"2012-01-18"},{"geonameid":"2972457","name":"Torcé","asciiname":"Torce","alternatenames":["Torce","Torcé","Tourc'heg"],"latitude":"48.0612","longitude":"-1.26708","feature_class":"P","feature_code":"PPL","country_code":"FR","cc2":"","admin1_code":"A2","admin2_code":"35","admin3_code":"351","admin4_code":"35338","population":"1007","elevation":"","dem":"92","timezone":"Europe/Paris","modification_date":"2012-01-18"},{"geonameid":"2972462","name":"Tonquédec","asciiname":"Tonquedec","alternatenames":["Tonkedeg","Tonquedec","Tonquédec"],"latitude":"48.66886","longitude":"-3.39712","feature_class":"P","feature_code":"PPL","country_code":"FR","cc2":"","admin1_code":"A2","admin2_code":"22","admin3_code":"223","admin4_code":"22340","population":"1120","elevation":"","dem":"93","timezone":"Europe/Paris","modification_date":"2012-01-18"},{"geonameid":"2972544","name":"Tinténiac","asciiname":"Tinteniac","alternatenames":["Tenten'jak","Tinteniac","Tinteniacum","Tintenieg","Tinténiac","tan tai ni a ke","Тентеньяк","坦泰尼阿克"],"latitude":"48.3286","longitude":"-1.8363","feature_class":"P","feature_code":"PPL","country_code":"FR","cc2":"","admin1_code":"A2","admin2_code":"35","admin3_code":"354","admin4_code":"35337","population":"2877","elevation":"","dem":"56","timezone":"Europe/Paris","modification_date":"2012-01-18"},{"geonameid":"2972979","name":"Theix","asciiname":"Theix","alternatenames":["Te","Teiz","Theix","tai zhen","Те","泰镇"],"latitude":"47.62916","longitude":"-2.65186","feature_class":"P","feature_code":"PPL","country_code":"FR","cc2":"","admin1_code":"A2","admin2_code":"56","admin3_code":"563","admin4_code":"56251","population":"5402","elevation":"","dem":"18","timezone":"Europe/Paris","modification_date":"2012-01-18"},{"geonameid":"2973197","name":"Telgruc-sur-Mer","asciiname":"Telgruc-sur-Mer","alternatenames":["Telgruc","Telgruc-sur-Mer","Terrug"],"latitude":"48.23333","longitude":"-4.35","feature_class":"P","feature_code":"PPL","country_code":"FR","cc2":"","admin1_code":"A2","admin2_code":"29","admin3_code":"292","admin4_code":"29280","population":"1944","elevation":"","dem":"94","timezone":"Europe/Paris","modification_date":"2012-01-18"},{"geonameid":"2973297","name":"Taupont","asciiname":"Taupont","alternatenames":["Talbont","Taupont"],"latitude":"47.95961","longitude":"-2.43933","feature_class":"P","feature_code":"PPL","country_code":"FR","cc2":"","admin1_code":"A2","admin2_code":"56","admin3_code":"563","admin4_code":"56249","population":"2051","elevation":"","dem":"80","timezone":"Europe/Paris","modification_date":"2012-01-18"},{"geonameid":"2973303","name":"Taulé","asciiname":"Taule","alternatenames":["Taole","Taule","Taulé","Tole","tuo lai","Толе","托莱"],"latitude":"48.6","longitude":"-3.9","feature_class":"P","feature_code":"PPL","country_code":"FR","cc2":"","admin1_code":"A2","admin2_code":"29","admin3_code":"293","admin4_code":"29279","population":"2941","elevation":"","dem":"82","timezone":"Europe/Paris","modification_date":"2012-01-18"},{"geonameid":"2973492","name":"Talensac","asciiname":"Talensac","alternatenames":["Talensac","Talenseg"],"latitude":"48.10847","longitude":"-1.92829","feature_class":"P","feature_code":"PPL","country_code":"FR","cc2":"","admin1_code":"A2","admin2_code":"35","admin3_code":"353","admin4_code":"35331","population":"2250","elevation":"","dem":"78","timezone":"Europe/Paris","modification_date":"2012-01-18"},{"geonameid":"2973579","name":"Taden","asciiname":"Taden","alternatenames":["Taden"],"latitude":"48.4753","longitude":"-2.01946","feature_class":"P","feature_code":"PPL","country_code":"FR","cc2":"","admin1_code":"A2","admin2_code":"22","admin3_code":"221","admin4_code":"22339","population":"1909","elevation":"","dem":"49","timezone":"Europe/Paris","modification_date":"2012-01-18"},{"geonameid":"2973637","name":"Surzur","asciiname":"Surzur","alternatenames":["Sjurzjur","Surzhur","Surzur","xu er ju","Сюрзюр","叙尔聚"],"latitude":"47.5785","longitude":"-2.62892","feature_class":"P","feature_code":"PPL","country_code":"FR","cc2":"","admin1_code":"A2","admin2_code":"56","admin3_code":"563","admin4_code":"56248","population":"2597","elevation":"","dem":"26","timezone":"Europe/Paris","modification_date":"2012-01-18"},{"geonameid":"2973702","name":"Sulniac","asciiname":"Sulniac","alternatenames":["Sulniac","Sulnieg"],"latitude":"47.67375","longitude":"-2.57136","feature_class":"P","feature_code":"PPL","country_code":"FR","cc2":"","admin1_code":"A2","admin2_code":"56","admin3_code":"563","admin4_code":"56247","population":"2386","elevation":"","dem":"128","timezone":"Europe/Paris","modification_date":"2012-01-18"},{"geonameid":"2973858","name":"Spézet","asciiname":"Spezet","alternatenames":["Speied","Speze","Spezet","Spézet","si pei ze","supeze","Спезе","スペゼ","斯佩泽"],"latitude":"48.2","longitude":"-3.71667","feature_class":"P","feature_code":"PPL","country_code":"FR","cc2":"","admin1_code":"A2","admin2_code":"29","admin3_code":"292","admin4_code":"29278","population":"1881","elevation":"","dem":"89","timezone":"Europe/Paris","modification_date":"2012-01-18"},{"geonameid":"2974423","name":"Sizun","asciiname":"Sizun","alternatenames":["Sizen","Sizun","xi zan","Сизен","Сізен","西赞"],"latitude":"48.4","longitude":"-4.08333","feature_class":"P","feature_code":"PPL","country_code":"FR","cc2":"","admin1_code":"A2","admin2_code":"29","admin3_code":"293","admin4_code":"29277","population":"1970","elevation":"","dem":"103","timezone":"Europe/Paris","modification_date":"2012-01-18"},{"geonameid":"2974424","name":"Sixt-sur-Aff","asciiname":"Sixt-sur-Aff","alternatenames":["Seizh","Sixt","Sixt-sur-Aff"],"latitude":"47.77648","longitude":"-2.07867","feature_class":"P","feature_code":"PPL","country_code":"FR","cc2":"","admin1_code":"A2","admin2_code":"35","admin3_code":"352","admin4_code":"35328","population":"2093","elevation":"","dem":"45","timezone":"Europe/Paris","modification_date":"2012-01-18"},{"geonameid":"2974629","name":"Sibiril","asciiname":"Sibiril","alternatenames":["Sibiril","Sibirill"],"latitude":"48.66667","longitude":"-4.06667","feature_class":"P","feature_code":"PPL","country_code":"FR","cc2":"","admin1_code":"A2","admin2_code":"29","admin3_code":"293","admin4_code":"29276","population":"1207","elevation":"","dem":"50","timezone":"Europe/Paris","modification_date":"2012-01-18"},{"geonameid":"2974691","name":"Sévignac","asciiname":"Sevignac","alternatenames":["Sevignac","Sevinieg","Sévignac"],"latitude":"48.33297","longitude":"-2.33915","feature_class":"P","feature_code":"PPL","country_code":"FR","cc2":"","admin1_code":"A2","admin2_code":"22","admin3_code":"221","admin4_code":"22337","population":"1077","elevation":"","dem":"69","timezone":"Europe/Paris","modification_date":"2012-01-18"},{"geonameid":"2974745","name":"Servon-sur-Vilaine","asciiname":"Servon-sur-Vilaine","alternatenames":["Servon","Servon-sur-Vilaine"],"latitude":"48.12114","longitude":"-1.45971","feature_class":"P","feature_code":"PPL","country_code":"FR","cc2":"","admin1_code":"A2","admin2_code":"35","admin3_code":"353","admin4_code":"35327","population":"3328","elevation":"","dem":"48","timezone":"Europe/Paris","modification_date":"2012-01-18"},{"geonameid":"2974949","name":"Sérent","asciiname":"Serent","alternatenames":["Serent","Sérent"],"latitude":"47.82333","longitude":"-2.50571","feature_class":"P","feature_code":"PPL","country_code":"FR","cc2":"","admin1_code":"A2","admin2_code":"56","admin3_code":"563","admin4_code":"56244","population":"2905","elevation":"","dem":"72","timezone":"Europe/Paris","modification_date":"2012-01-18"},{"geonameid":"2975046","name":"Sens-de-Bretagne","asciiname":"Sens-de-Bretagne","alternatenames":["Sen","Sens","Sens-de-Bretagne"],"latitude":"48.33245","longitude":"-1.53535","feature_class":"P","feature_code":"PPL","country_code":"FR","cc2":"","admin1_code":"A2","admin2_code":"35","admin3_code":"353","admin4_code":"35326","population":"1851","elevation":"","dem":"87","timezone":"Europe/Paris","modification_date":"2012-01-18"},{"geonameid":"2975113","name":"Séné","asciiname":"Sene","alternatenames":["Sene","Sine","Séné"],"latitude":"47.619","longitude":"-2.737","feature_class":"P","feature_code":"PPL","country_code":"FR","cc2":"","admin1_code":"A2","admin2_code":"56","admin3_code":"563","admin4_code":"56243","population":"8465","elevation":"9","dem":"16","timezone":"Europe/Paris","modification_date":"2007-11-29"},{"geonameid":"2975485","name":"Scaër","asciiname":"Scaer","alternatenames":["Scaer","Scaër","Skaer","si ka e","Скаер","斯卡厄"],"latitude":"48.03333","longitude":"-3.7","feature_class":"P","feature_code":"PPL","country_code":"FR","cc2":"","admin1_code":"A2","admin2_code":"29","admin3_code":"294","admin4_code":"29274","population":"5525","elevation":"","dem":"157","timezone":"Europe/Paris","modification_date":"2012-01-18"},{"geonameid":"2975916","name":"Sarzeau","asciiname":"Sarzeau","alternatenames":["Sarzeau","Sarzhav","Sarzo","sa er zuo","Сарзо","萨尔佐"],"latitude":"47.52772","longitude":"-2.76933","feature_class":"P","feature_code":"PPL","country_code":"FR","cc2":"","admin1_code":"A2","admin2_code":"56","admin3_code":"563","admin4_code":"56240","population":"7116","elevation":"","dem":"32","timezone":"Europe/Paris","modification_date":"2012-01-18"},{"geonameid":"2976117","name":"Santec","asciiname":"Santec","alternatenames":["Santec","Santeg"],"latitude":"48.7","longitude":"-4.03333","feature_class":"P","feature_code":"PPL","country_code":"FR","cc2":"","admin1_code":"A2","admin2_code":"29","admin3_code":"293","admin4_code":"29273","population":"2272","elevation":"","dem":"21","timezone":"Europe/Paris","modification_date":"2012-01-18"},{"geonameid":"2976537","name":"Saint-Yvi","asciiname":"Saint-Yvi","alternatenames":["Sant-Ivi"],"latitude":"47.96667","longitude":"-3.93333","feature_class":"P","feature_code":"PPL","country_code":"FR","cc2":"","admin1_code":"A2","admin2_code":"29","admin3_code":"294","admin4_code":"29272","population":"2774","elevation":"","dem":"113","timezone":"Europe/Paris","modification_date":"2007-11-20"},{"geonameid":"2976581","name":"Saint-Vincent-sur-Oust","asciiname":"Saint-Vincent-sur-Oust","alternatenames":["Saint-Vincent","Saint-Vincent-sur-Oust","Sant-Visant-an-Oud","Sant-Visant-an-Oust","Sen-Vensan-sjur-Ust","wu si he pan sheng wan sang","Сен-Венсан-сюр-Уст","乌斯河畔圣万桑"],"latitude":"47.7001","longitude":"-2.14657","feature_class":"P","feature_code":"PPL","country_code":"FR","cc2":"","admin1_code":"A2","admin2_code":"56","admin3_code":"563","admin4_code":"56239","population":"1180","elevation":"","dem":"55","timezone":"Europe/Paris","modification_date":"2012-01-18"},{"geonameid":"2976730","name":"Saint-Urbain","asciiname":"Saint-Urbain","alternatenames":["Lannurvan","Saint-Urbain"],"latitude":"48.4","longitude":"-4.23333","feature_class":"P","feature_code":"PPL","country_code":"FR","cc2":"","admin1_code":"A2","admin2_code":"29","admin3_code":"291","admin4_code":"29270","population":"1273","elevation":"","dem":"76","timezone":"Europe/Paris","modification_date":"2012-01-18"},{"geonameid":"2976756","name":"Saint-Thuriau","asciiname":"Saint-Thuriau","alternatenames":["Saint-Thuriau","Sant-Turiav"],"latitude":"48.01667","longitude":"-2.95","feature_class":"P","feature_code":"PPL","country_code":"FR","cc2":"","admin1_code":"A2","admin2_code":"56","admin3_code":"562","admin4_code":"56237","population":"2000","elevation":"","dem":"102","timezone":"Europe/Paris","modification_date":"2012-01-18"},{"geonameid":"2976757","name":"Saint-Thurial","asciiname":"Saint-Thurial","alternatenames":["Saint-Thurial","Sant-Turiav-Porc'hoed"],"latitude":"48.02924","longitude":"-1.93181","feature_class":"P","feature_code":"PPL","country_code":"FR","cc2":"","admin1_code":"A2","admin2_code":"35","admin3_code":"353","admin4_code":"35319","population":"1770","elevation":"","dem":"72","timezone":"Europe/Paris","modification_date":"2012-01-18"},{"geonameid":"2976759","name":"Saint-Thonan","asciiname":"Saint-Thonan","alternatenames":["Saint-Thonan","Sant-Tonan"],"latitude":"48.48333","longitude":"-4.33333","feature_class":"P","feature_code":"PPL","country_code":"FR","cc2":"","admin1_code":"A2","admin2_code":"29","admin3_code":"291","admin4_code":"29268","population":"1238","elevation":"","dem":"86","timezone":"Europe/Paris","modification_date":"2012-01-18"},{"geonameid":"2976791","name":"Saint-Thégonnec","asciiname":"Saint-Thegonnec","alternatenames":["Saint-Thegonnec","Saint-Thégonnec","Sant-Tegoneg","Sen-Tegonnek","sheng tai ge nei ke","Сен-Тегоннек","圣泰戈内克"],"latitude":"48.51667","longitude":"-3.95","feature_class":"P","feature_code":"PPL","country_code":"FR","cc2":"","admin1_code":"A2","admin2_code":"29","admin3_code":"293","admin4_code":"29266","population":"2387","elevation":"","dem":"89","timezone":"Europe/Paris","modification_date":"2012-01-18"},{"geonameid":"2976846","name":"Saint-Sulpice-la-Forêt","asciiname":"Saint-Sulpice-la-Foret","alternatenames":["Saint-Sulpice","Saint-Sulpice-la-Foret","Saint-Sulpice-la-Forêt","Sant-Suleg-ar-C'hoad"],"latitude":"48.21667","longitude":"-1.57972","feature_class":"P","feature_code":"PPL","country_code":"FR","cc2":"","admin1_code":"A2","admin2_code":"35","admin3_code":"353","admin4_code":"35315","population":"1423","elevation":"","dem":"64","timezone":"Europe/Paris","modification_date":"2012-01-18"},{"geonameid":"2976969","name":"Saint-Senoux","asciiname":"Saint-Senoux","alternatenames":["Saint-Senoux","Sant-Senour"],"latitude":"47.90552","longitude":"-1.78819","feature_class":"P","feature_code":"PPL","country_code":"FR","cc2":"","admin1_code":"A2","admin2_code":"35","admin3_code":"352","admin4_code":"35312","population":"1167","elevation":"","dem":"60","timezone":"Europe/Paris","modification_date":"2012-01-18"},{"geonameid":"2977019","name":"Saint-Sauveur-des-Landes","asciiname":"Saint-Sauveur-des-Landes","alternatenames":["Kersalver-al-Lann","Saint-Sauveur","Saint-Sauveur-des-Landes"],"latitude":"48.34278","longitude":"-1.31248","feature_class":"P","feature_code":"PPL","country_code":"FR","cc2":"","admin1_code":"A2","admin2_code":"35","admin3_code":"351","admin4_code":"35310","population":"1244","elevation":"","dem":"119","timezone":"Europe/Paris","modification_date":"2012-01-18"},{"geonameid":"2977085","name":"Saint-Samson-sur-Rance","asciiname":"Saint-Samson-sur-Rance","alternatenames":["Saint-Samson","Saint-Samson-sur-Rance","Sant-Samzun"],"latitude":"48.49252","longitude":"-2.02865","feature_class":"P","feature_code":"PPL","country_code":"FR","cc2":"","admin1_code":"A2","admin2_code":"22","admin3_code":"221","admin4_code":"22327","population":"1232","elevation":"","dem":"62","timezone":"Europe/Paris","modification_date":"2012-01-18"},{"geonameid":"2977189","name":"Saint-Renan","asciiname":"Saint-Renan","alternatenames":["Lokournan","Saint-Renan","Sen-Renan","san=runan","sheng lei nan","Сен-Ренан","サン＝ルナン","圣雷南"],"latitude":"48.43333","longitude":"-4.61667","feature_class":"P","feature_code":"PPL","country_code":"FR","cc2":"","admin1_code":"A2","admin2_code":"29","admin3_code":"291","admin4_code":"29260","population":"7231","elevation":"","dem":"35","timezone":"Europe/Paris","modification_date":"2012-01-18"},{"geonameid":"2977299","name":"Saint-Quay-Portrieux","asciiname":"Saint-Quay-Portrieux","alternatenames":["Saint-Quay","Saint-Quay-Portrieux","Sant-Ke-Porzh-Olued","Sen-Ke-Porrie","Sen-Ke-Portrijo","sheng qu ai bo er te li e","Сен-Ке-Поррие","Сен-Ке-Порріє","Сен-Ке-Портриё","圣屈艾波尔特里厄"],"latitude":"48.64992","longitude":"-2.83059","feature_class":"P","feature_code":"PPL","country_code":"FR","cc2":"","admin1_code":"A2","admin2_code":"22","admin3_code":"224","admin4_code":"22325","population":"3024","elevation":"","dem":"24","timezone":"Europe/Paris","modification_date":"2012-01-18"},{"geonameid":"2977300","name":"Saint-Quay-Perros","asciiname":"Saint-Quay-Perros","alternatenames":["Saint-Quay","Saint-Quay-Perros","Sant-Ke-Perroz"],"latitude":"48.78333","longitude":"-3.45","feature_class":"P","feature_code":"PPL","country_code":"FR","cc2":"","admin1_code":"A2","admin2_code":"22","admin3_code":"223","admin4_code":"22324","population":"1501","elevation":"","dem":"56","timezone":"Europe/Paris","modification_date":"2012-01-18"},{"geonameid":"2977390","name":"Saint-Pol-de-Léon","asciiname":"Saint-Pol-de-Leon","alternatenames":["Kastell-Paol","Mont-Frimaire","Port-Pol","Saint-Pol-de-Leon","Saint-Pol-de-Léon","Sanctus Paulus Leonensis","Sen-Pol'-de-Leon","san=poru=do=reon","sheng bo de lai weng","Сен-Поль-де-Леон","サン＝ポル＝ド＝レオン","圣波德莱翁"],"latitude":"48.68333","longitude":"-3.98333","feature_class":"P","feature_code":"PPL","country_code":"FR","cc2":"","admin1_code":"A2","admin2_code":"29","admin3_code":"293","admin4_code":"29259","population":"7627","elevation":"","dem":"25","timezone":"Europe/Paris","modification_date":"2012-01-18"},{"geonameid":"2977414","name":"Saint-Pierre-Quiberon","asciiname":"Saint-Pierre-Quiberon","alternatenames":["Saint-Pierre-Quiberon","Sant-Per-Kiberen","Sant-Pêr-Kiberen","Sen-P'err-Kiberon","Sen-Perr-Kiberon","sheng pi ye er qu yi bo long","Сен-Пьерр-Киберон","Сен-Пєрр-Кіберон","圣皮耶尔屈伊伯龙"],"latitude":"47.52061","longitude":"-3.13084","feature_class":"P","feature_code":"PPL","country_code":"FR","cc2":"","admin1_code":"A2","admin2_code":"56","admin3_code":"561","admin4_code":"56234","population":"2322","elevation":"","dem":"6","timezone":"Europe/Paris","modification_date":"2012-01-18"},{"geonameid":"2977497","name":"Saint-Pierre-de-Plesguen","asciiname":"Saint-Pierre-de-Plesguen","alternatenames":["Saint-Pierre","Saint-Pierre-de-Plesguen","Sant-Per-Plewenn","Sant-Pêr-Plewenn","Sen-P'err-de-Plegan","Sen-Perr-de-Plegan","sheng pi ye er de pu lai si gai en","Сен-Пьерр-де-Плеган","Сен-Пєрр-де-Плеган","圣皮耶尔德普莱斯盖恩"],"latitude":"48.44638","longitude":"-1.91278","feature_class":"P","feature_code":"PPL","country_code":"FR","cc2":"","admin1_code":"A2","admin2_code":"35","admin3_code":"354","admin4_code":"35308","population":"2174","elevation":"","dem":"83","timezone":"Europe/Paris","modification_date":"2012-01-18"},{"geonameid":"2977593","name":"Saint-Philibert","asciiname":"Saint-Philibert","alternatenames":["Saint-Philibert","Sant-Filberzh"],"latitude":"47.58821","longitude":"-2.99978","feature_class":"P","feature_code":"PPL","country_code":"FR","cc2":"","admin1_code":"A2","admin2_code":"56","admin3_code":"561","admin4_code":"56233","population":"1344","elevation":"","dem":"14","timezone":"Europe/Paris","modification_date":"2012-01-18"},{"geonameid":"2977610","name":"Saint-Perreux","asciiname":"Saint-Perreux","alternatenames":["Saint-Perreux","Sant-Pereg"],"latitude":"47.66952","longitude":"-2.10809","feature_class":"P","feature_code":"PPL","country_code":"FR","cc2":"","admin1_code":"A2","admin2_code":"56","admin3_code":"563","admin4_code":"56232","population":"1136","elevation":"","dem":"17","timezone":"Europe/Paris","modification_date":"2012-01-18"},{"geonameid":"2977616","name":"Saint-Père","asciiname":"Saint-Pere","alternatenames":["Saint-Pere","Saint-Père","Sant-Per-Poualed","Sant-Pêr-Poualed"],"latitude":"48.58727","longitude":"-1.92413","feature_class":"P","feature_code":"PPL","country_code":"FR","cc2":"","admin1_code":"A2","admin2_code":"35","admin3_code":"354","admin4_code":"35306","population":"2008","elevation":"","dem":"47","timezone":"Europe/Paris","modification_date":"2012-01-18"},{"geonameid":"2977780","name":"Saint-Pabu","asciiname":"Saint-Pabu","alternatenames":["Saint-Pabu","Sant-Pabu"],"latitude":"48.56667","longitude":"-4.6","feature_class":"P","feature_code":"PPL","country_code":"FR","cc2":"","admin1_code":"A2","admin2_code":"29","admin3_code":"291","admin4_code":"29257","population":"1561","elevation":"","dem":"30","timezone":"Europe/Paris","modification_date":"2012-01-18"},{"geonameid":"2977814","name":"Saint-Ouen-des-Alleux","asciiname":"Saint-Ouen-des-Alleux","alternatenames":["Saint-Ouen","Saint-Ouen-des-Alleux","Sant-Owen-an-Alloz"],"latitude":"48.32805","longitude":"-1.4259","feature_class":"P","feature_code":"PPL","country_code":"FR","cc2":"","admin1_code":"A2","admin2_code":"35","admin3_code":"351","admin4_code":"35304","population":"1004","elevation":"","dem":"81","timezone":"Europe/Paris","modification_date":"2012-01-18"},{"geonameid":"2977855","name":"Saint-Nolff","asciiname":"Saint-Nolff","alternatenames":["Saint-Nolff","Sant-Nolf","Sen-Nol'ff","sheng nuo er","Сен-Нольфф","圣诺尔"],"latitude":"47.70365","longitude":"-2.65209","feature_class":"P","feature_code":"PPL","country_code":"FR","cc2":"","admin1_code":"A2","admin2_code":"56","admin3_code":"563","admin4_code":"56231","population":"3571","elevation":"","dem":"77","timezone":"Europe/Paris","modification_date":"2012-01-18"},{"geonameid":"2977869","name":"Saint-Nicolas-du-Pélem","asciiname":"Saint-Nicolas-du-Pelem","alternatenames":["Saint-Nicolas","Saint-Nicolas-du-Pelem","Saint-Nicolas-du-Pélem","Sant-Nikolaz-ar-Pelem","Sen-Nikola-dju-Pelem","sheng ni ke la di pei lang","Сен-Никола-дю-Пелем","Сен-Нікола-дю-Пелем","圣尼科拉迪佩朗"],"latitude":"48.31222","longitude":"-3.16465","feature_class":"P","feature_code":"PPL","country_code":"FR","cc2":"","admin1_code":"A2","admin2_code":"22","admin3_code":"222","admin4_code":"22321","population":"1959","elevation":"","dem":"180","timezone":"Europe/Paris","modification_date":"2012-01-18"},{"geonameid":"2978062","name":"Saint-Méloir-des-Ondes","asciiname":"Saint-Meloir-des-Ondes","alternatenames":["Meloir-Richeux","Méloir-Richeux","Saint Meloir des Ondres","Saint-Meloir-des-Ondes","Saint-Méloir-des-Ondes","Sant-Meleg"],"latitude":"48.6379","longitude":"-1.90448","feature_class":"P","feature_code":"PPL","country_code":"FR","cc2":"","admin1_code":"A2","admin2_code":"35","admin3_code":"354","admin4_code":"35299","population":"3289","elevation":"","dem":"51","timezone":"Europe/Paris","modification_date":"2012-01-18"},{"geonameid":"2978067","name":"Saint-Méen-le-Grand","asciiname":"Saint-Meen-le-Grand","alternatenames":["Meen-Libre","Meen-la-Foret","Méen-Libre","Méen-la-Forêt","Saint-Meen","Saint-Meen-le-Grand","Saint-Méen","Saint-Méen-le-Grand","Sanctus Mevennus","Sant-Meven","Sen-Mean-le-Gran","da sheng mei ang","Сен-Меан-ле-Гран","大圣梅昂"],"latitude":"48.18971","longitude":"-2.19486","feature_class":"P","feature_code":"PPL","country_code":"FR","cc2":"","admin1_code":"A2","admin2_code":"35","admin3_code":"353","admin4_code":"35297","population":"4028","elevation":"","dem":"107","timezone":"Europe/Paris","modification_date":"2012-01-18"},{"geonameid":"2978070","name":"Saint-Médard-sur-Ille","asciiname":"Saint-Medard-sur-Ille","alternatenames":["Saint-Medard","Saint-Medard-sur-Ille","Saint-Médard","Saint-Médard-sur-Ille","Sant-Marzh-an-Il"],"latitude":"48.27202","longitude":"-1.65968","feature_class":"P","feature_code":"PPL","country_code":"FR","cc2":"","admin1_code":"A2","admin2_code":"35","admin3_code":"353","admin4_code":"35296","population":"1248","elevation":"","dem":"76","timezone":"Europe/Paris","modification_date":"2012-01-18"},{"geonameid":"2978211","name":"Saint-Martin-sur-Oust","asciiname":"Saint-Martin-sur-Oust","alternatenames":["Saint-Martin","Saint-Martin-sur-Oust","Sant-Varzhin-an-Oud"],"latitude":"47.746","longitude":"-2.25343","feature_class":"P","feature_code":"PPL","country_code":"FR","cc2":"","admin1_code":"A2","admin2_code":"56","admin3_code":"563","admin4_code":"56229","population":"1384","elevation":"","dem":"10","timezone":"Europe/Paris","modification_date":"2012-01-18"},{"geonameid":"2978351","name":"Saint-Martin-des-Champs","asciiname":"Saint-Martin-des-Champs","alternatenames":["Saint-Martin","Saint-Martin-des-Champs","Sant-Martin-war-ar-Maez","Unite-des-Champs","Unité-des-Champs"],"latitude":"48.58333","longitude":"-3.83333","feature_class":"P","feature_code":"PPL","country_code":"FR","cc2":"","admin1_code":"A2","admin2_code":"29","admin3_code":"293","admin4_code":"29254","population":"5033","elevation":"","dem":"11","timezone":"Europe/Paris","modification_date":"2012-01-18"},{"geonameid":"2978560","name":"Saint-Marc-le-Blanc","asciiname":"Saint-Marc-le-Blanc","alternatenames":["Saint-Marc","Saint-Marc-le-Blanc","Sant-Mezar-Elvinieg"],"latitude":"48.36498","longitude":"-1.40938","feature_class":"P","feature_code":"PPL","country_code":"FR","cc2":"","admin1_code":"A2","admin2_code":"35","admin3_code":"351","admin4_code":"35292","population":"1190","elevation":"","dem":"98","timezone":"Europe/Paris","modification_date":"2012-01-18"},{"geonameid":"2978640","name":"Saint-Malo","asciiname":"Saint-Malo","alternatenames":["Commune-de-la-Victoire","Macloviopolis","Mont-Mamet","Port-Malo","Sain-Malo","Saint Malo","Saint Mâlo","Saint-Malo","Sant-Malou","Sant-Maloù","Sen Malo","Sen-Malo","St-Malo","san malw","sen-malo","sheng ma luo","sn mlw","sn-malw","sn-mlw","Σαιν-Μαλό","Сен Мало","Сен-Мало","סן-מלו","سان مالو","سن ملو","سن-مالو","แซ็ง-มาโล","სენ-მალო","サン・マロ","圣马洛"],"latitude":"48.65","longitude":"-2.01667","feature_class":"P","feature_code":"PPLA3","country_code":"FR","cc2":"","admin1_code":"A2","admin2_code":"35","admin3_code":"354","admin4_code":"35288","population":"50676","elevation":"","dem":"7","timezone":"Europe/Paris","modification_date":"2014-03-08"},{"geonameid":"2978668","name":"Saint-Lunaire","asciiname":"Saint-Lunaire","alternatenames":["Port-Lunaire","Saint-Lunaire","Sant-Luner","Sen-Ljuner","sheng lu nai er","Сен-Люнер","圣吕奈尔"],"latitude":"48.63811","longitude":"-2.11392","feature_class":"P","feature_code":"PPL","country_code":"FR","cc2":"","admin1_code":"A2","admin2_code":"35","admin3_code":"354","admin4_code":"35287","population":"2480","elevation":"","dem":"23","timezone":"Europe/Paris","modification_date":"2012-01-18"},{"geonameid":"2979021","name":"Saint-Just","asciiname":"Saint-Just","alternatenames":["Saint-Just","Sant-Yust"],"latitude":"47.76581","longitude":"-1.96096","feature_class":"P","feature_code":"PPL","country_code":"FR","cc2":"","admin1_code":"A2","admin2_code":"35","admin3_code":"352","admin4_code":"35285","population":"1020","elevation":"","dem":"74","timezone":"Europe/Paris","modification_date":"2012-01-18"},{"geonameid":"2979128","name":"Saint-Julien","asciiname":"Saint-Julien","alternatenames":["Saint-Julien","Sant-Juluan-Pentevr"],"latitude":"48.45142","longitude":"-2.8125","feature_class":"P","feature_code":"PPL","country_code":"FR","cc2":"","admin1_code":"A2","admin2_code":"22","admin3_code":"224","admin4_code":"22307","population":"1897","elevation":"","dem":"161","timezone":"Europe/Paris","modification_date":"2012-01-18"},{"geonameid":"2979160","name":"Saint-Jouan-des-Guérets","asciiname":"Saint-Jouan-des-Guerets","alternatenames":["Saint-Jouan","Saint-Jouan-des-Guerets","Saint-Jouan-des-Guérets","Sant-Yowan-an-Havreg"],"latitude":"48.59932","longitude":"-1.97372","feature_class":"P","feature_code":"PPL","country_code":"FR","cc2":"","admin1_code":"A2","admin2_code":"35","admin3_code":"354","admin4_code":"35284","population":"2725","elevation":"","dem":"43","timezone":"Europe/Paris","modification_date":"2012-01-18"},{"geonameid":"2979195","name":"Saint-Jean-sur-Couesnon","asciiname":"Saint-Jean-sur-Couesnon","alternatenames":["Saint-Jean","Saint-Jean-sur-Couesnon","Sant-Yann-ar-C'houenon"],"latitude":"48.29013","longitude":"-1.36835","feature_class":"P","feature_code":"PPL","country_code":"FR","cc2":"","admin1_code":"A2","admin2_code":"35","admin3_code":"351","admin4_code":"35282","population":"1015","elevation":"","dem":"62","timezone":"Europe/Paris","modification_date":"2012-01-18"},{"geonameid":"2979230","name":"Saint-Jean-la-Poterie","asciiname":"Saint-Jean-la-Poterie","alternatenames":["Saint-Jean","Saint-Jean-la-Poterie","Sant-Yann-ar-Wern"],"latitude":"47.63581","longitude":"-2.1242","feature_class":"P","feature_code":"PPL","country_code":"FR","cc2":"","admin1_code":"A2","admin2_code":"56","admin3_code":"563","admin4_code":"56223","population":"1453","elevation":"","dem":"47","timezone":"Europe/Paris","modification_date":"2012-01-18"},{"geonameid":"2979370","name":"Saint-Jean-Brévelay","asciiname":"Saint-Jean-Brevelay","alternatenames":["Saint-Jean","Saint-Jean-Brevalay","Saint-Jean-Brevelay","Saint-Jean-Brévalay","Saint-Jean-Brévelay","Sant-Yann-Brevele"],"latitude":"47.84497","longitude":"-2.72231","feature_class":"P","feature_code":"PPL","country_code":"FR","cc2":"","admin1_code":"A2","admin2_code":"56","admin3_code":"562","admin4_code":"56222","population":"2647","elevation":"","dem":"107","timezone":"Europe/Paris","modification_date":"2012-01-18"},{"geonameid":"2979405","name":"Saint-Jacut-les-Pins","asciiname":"Saint-Jacut-les-Pins","alternatenames":["Saint-Jacut-les-Pins","Sant-Yagu-ar-Bineg"],"latitude":"47.68581","longitude":"-2.21514","feature_class":"P","feature_code":"PPL","country_code":"FR","cc2":"","admin1_code":"A2","admin2_code":"56","admin3_code":"563","admin4_code":"56221","population":"1677","elevation":"","dem":"58","timezone":"Europe/Paris","modification_date":"2012-01-18"},{"geonameid":"2979415","name":"Saint-Jacques-de-la-Lande","asciiname":"Saint-Jacques-de-la-Lande","alternatenames":["Saint-Jacques","Saint-Jacques-de-la-Lande","Sanctus Iacobus de Landis","Sant-Jakez-Al-Lann","Sant-Jakez-al-Lann","Sen-Zhak-de-la-Land","sheng ya qu ai de la-lang de","Сен-Жак-де-ла-Ланд","圣雅屈埃德拉-朗德"],"latitude":"48.06514","longitude":"-1.72086","feature_class":"P","feature_code":"PPL","country_code":"FR","cc2":"","admin1_code":"A2","admin2_code":"35","admin3_code":"353","admin4_code":"35281","population":"8505","elevation":"","dem":"38","timezone":"Europe/Paris","modification_date":"2012-01-18"},{"geonameid":"2979595","name":"Saint-Hélen","asciiname":"Saint-Helen","alternatenames":["Saint-Helen","Saint-Hélen","Sant-Haelen"],"latitude":"48.47002","longitude":"-1.95894","feature_class":"P","feature_code":"PPL","country_code":"FR","cc2":"","admin1_code":"A2","admin2_code":"22","admin3_code":"221","admin4_code":"22299","population":"1093","elevation":"","dem":"70","timezone":"Europe/Paris","modification_date":"2012-01-18"},{"geonameid":"2979619","name":"Saint-Grégoire","asciiname":"Saint-Gregoire","alternatenames":["Saint-Gregoire","Saint-Grégoire","Sant-Gregor"],"latitude":"48.15085","longitude":"-1.68706","feature_class":"P","feature_code":"PPL","country_code":"FR","cc2":"","admin1_code":"A2","admin2_code":"35","admin3_code":"353","admin4_code":"35278","population":"8058","elevation":"","dem":"44","timezone":"Europe/Paris","modification_date":"2012-01-18"},{"geonameid":"2979638","name":"Saint-Gonnery","asciiname":"Saint-Gonnery","alternatenames":["Saint-Gonnery","Sant-Goneri"],"latitude":"48.12465","longitude":"-2.81848","feature_class":"P","feature_code":"PPL","country_code":"FR","cc2":"","admin1_code":"A2","admin2_code":"56","admin3_code":"562","admin4_code":"56215","population":"1013","elevation":"","dem":"130","timezone":"Europe/Paris","modification_date":"2012-01-18"},{"geonameid":"2979673","name":"Saint-Gilles","asciiname":"Saint-Gilles","alternatenames":["Saint-Gilles","Sant-Jili-Roazhon"],"latitude":"48.15381","longitude":"-1.82477","feature_class":"P","feature_code":"PPL","country_code":"FR","cc2":"","admin1_code":"A2","admin2_code":"35","admin3_code":"353","admin4_code":"35275","population":"3797","elevation":"","dem":"52","timezone":"Europe/Paris","modification_date":"2012-01-18"},{"geonameid":"2979681","name":"Saint-Gildas-de-Rhuys","asciiname":"Saint-Gildas-de-Rhuys","alternatenames":["Abelard","Abélard","Lokentaz","Saint-Gildas","Saint-Gildas de Ruys","Saint-Gildas-de Ruis","Saint-Gildas-de-Rhuys","Sanctus Gildasius Ruiensis","Sen-Zhil'da-de-Rjui","san=jiruda=do=ryuisu","sheng ji er da de lu yi","Сен-Жильда-де-Рюи","Сен-Жильда-де-Рюї","サン＝ジルダ＝ド＝リュイス","圣吉尔达德吕伊"],"latitude":"47.5006","longitude":"-2.83825","feature_class":"P","feature_code":"PPL","country_code":"FR","cc2":"","admin1_code":"A2","admin2_code":"56","admin3_code":"563","admin4_code":"56214","population":"1533","elevation":"","dem":"37","timezone":"Europe/Paris","modification_date":"2012-01-18"},{"geonameid":"2979784","name":"Saint-Germain-en-Coglès","asciiname":"Saint-Germain-en-Cogles","alternatenames":["Saint-Germain","Saint-Germain-en-Cogles","Saint-Germain-en-Coglès","Sant-Jermen-Gougleiz"],"latitude":"48.40531","longitude":"-1.26369","feature_class":"P","feature_code":"PPL","country_code":"FR","cc2":"","admin1_code":"A2","admin2_code":"35","admin3_code":"351","admin4_code":"35273","population":"1957","elevation":"","dem":"126","timezone":"Europe/Paris","modification_date":"2012-01-18"},{"geonameid":"2979926","name":"Saint-Georges-de-Reintembault","asciiname":"Saint-Georges-de-Reintembault","alternatenames":["Saint-Georges","Saint-Georges-de-Reintembault","Sant-Jord-Restembaod"],"latitude":"48.50744","longitude":"-1.24328","feature_class":"P","feature_code":"PPL","country_code":"FR","cc2":"","admin1_code":"A2","admin2_code":"35","admin3_code":"351","admin4_code":"35271","population":"1841","elevation":"","dem":"136","timezone":"Europe/Paris","modification_date":"2012-01-18"},{"geonameid":"2980184","name":"Saint-Évarzec","asciiname":"Saint-Evarzec","alternatenames":["Saint-Evarzec","Saint-Évarzec","Sant-Evarzeg"],"latitude":"47.93333","longitude":"-4.01667","feature_class":"P","feature_code":"PPL","country_code":"FR","cc2":"","admin1_code":"A2","admin2_code":"29","admin3_code":"294","admin4_code":"29247","population":"3091","elevation":"","dem":"51","timezone":"Europe/Paris","modification_date":"2012-01-18"},{"geonameid":"2980231","name":"Saint-Étienne-en-Coglès","asciiname":"Saint-Etienne-en-Cogles","alternatenames":["Saint-Etienne","Saint-Etienne-en-Cogles","Saint-Étienne","Saint-Étienne-en-Coglès","Sant-Stefan-Gougleiz"],"latitude":"48.40172","longitude":"-1.32812","feature_class":"P","feature_code":"PPL","country_code":"FR","cc2":"","admin1_code":"A2","admin2_code":"35","admin3_code":"351","admin4_code":"35267","population":"1562","elevation":"","dem":"110","timezone":"Europe/Paris","modification_date":"2012-01-18"},{"geonameid":"2980350","name":"Saint-Erblon","asciiname":"Saint-Erblon","alternatenames":["Saint-Erblon","Sant-Ervlon-an-Dezerzh"],"latitude":"48.01895","longitude":"-1.65162","feature_class":"P","feature_code":"PPL","country_code":"FR","cc2":"","admin1_code":"A2","admin2_code":"35","admin3_code":"353","admin4_code":"35266","population":"2431","elevation":"","dem":"37","timezone":"Europe/Paris","modification_date":"2012-01-18"},{"geonameid":"2980446","name":"Sainte-Marie","asciiname":"Sainte-Marie","alternatenames":["Lokmaria-Redon","Sainte-Marie"],"latitude":"47.69429","longitude":"-2.0019","feature_class":"P","feature_code":"PPL","country_code":"FR","cc2":"","admin1_code":"A2","admin2_code":"35","admin3_code":"352","admin4_code":"35294","population":"1949","elevation":"","dem":"51","timezone":"Europe/Paris","modification_date":"2012-01-18"},{"geonameid":"2980547","name":"Sainte-Hélène","asciiname":"Sainte-Helene","alternatenames":["Sainte-Helene","Sainte-Hélène","Santez-Elen"],"latitude":"47.71976","longitude":"-3.20359","feature_class":"P","feature_code":"PPL","country_code":"FR","cc2":"","admin1_code":"A2","admin2_code":"56","admin3_code":"561","admin4_code":"56220","population":"1050","elevation":"","dem":"8","timezone":"Europe/Paris","modification_date":"2012-01-18"},{"geonameid":"2980805","name":"Saint-Donan","asciiname":"Saint-Donan","alternatenames":["Saint-Donan","Sant-Donan"],"latitude":"48.46958","longitude":"-2.88442","feature_class":"P","feature_code":"PPL","country_code":"FR","cc2":"","admin1_code":"A2","admin2_code":"22","admin3_code":"224","admin4_code":"22287","population":"1421","elevation":"","dem":"174","timezone":"Europe/Paris","modification_date":"2012-01-18"},{"geonameid":"2980806","name":"Saint-Domineuc","asciiname":"Saint-Domineuc","alternatenames":["Landoveneg","Saint-Domineuc"],"latitude":"48.37191","longitude":"-1.87544","feature_class":"P","feature_code":"PPL","country_code":"FR","cc2":"","admin1_code":"A2","admin2_code":"35","admin3_code":"354","admin4_code":"35265","population":"1576","elevation":"","dem":"37","timezone":"Europe/Paris","modification_date":"2012-01-18"},{"geonameid":"2980808","name":"Saint-Dolay","asciiname":"Saint-Dolay","alternatenames":["Saint-Dolay","Sant-Aelwez"],"latitude":"47.54476","longitude":"-2.15466","feature_class":"P","feature_code":"PPL","country_code":"FR","cc2":"","admin1_code":"A2","admin2_code":"56","admin3_code":"563","admin4_code":"56212","population":"2116","elevation":"","dem":"49","timezone":"Europe/Paris","modification_date":"2012-01-18"},{"geonameid":"2980849","name":"Saint-Didier","asciiname":"Saint-Didier","alternatenames":["Saint-Didier","Sant-Ider"],"latitude":"48.09506","longitude":"-1.37276","feature_class":"P","feature_code":"PPL","country_code":"FR","cc2":"","admin1_code":"A2","admin2_code":"35","admin3_code":"351","admin4_code":"35264","population":"1400","elevation":"","dem":"70","timezone":"Europe/Paris","modification_date":"2012-01-18"},{"geonameid":"2981008","name":"Saint-Coulomb","asciiname":"Saint-Coulomb","alternatenames":["Coulomb-Rocher","Saint-Coulomb","Sant-Kouloum","Sen-Kulom","sheng ku long","Сен-Кулом","圣库隆"],"latitude":"48.67465","longitude":"-1.91092","feature_class":"P","feature_code":"PPL","country_code":"FR","cc2":"","admin1_code":"A2","admin2_code":"35","admin3_code":"354","admin4_code":"35263","population":"2398","elevation":"","dem":"34","timezone":"Europe/Paris","modification_date":"2012-01-18"},{"geonameid":"2981237","name":"Saint-Cast-le-Guildo","asciiname":"Saint-Cast-le-Guildo","alternatenames":["Havre-Cast","Saint-Cast","Saint-Cast Bourg","Saint-Cast-le-Guildo","Sant-Kast-ar-Gwildou","Sant-Kast-ar-Gwildoù"],"latitude":"48.63028","longitude":"-2.25777","feature_class":"P","feature_code":"PPL","country_code":"FR","cc2":"","admin1_code":"A2","admin2_code":"22","admin3_code":"221","admin4_code":"22282","population":"3363","elevation":"","dem":"16","timezone":"Europe/Paris","modification_date":"2012-01-18"},{"geonameid":"2981243","name":"Saint-Carreuc","asciiname":"Saint-Carreuc","alternatenames":["Saint-Carreuc","Sant-Kareg"],"latitude":"48.39889","longitude":"-2.73056","feature_class":"P","feature_code":"PPL","country_code":"FR","cc2":"","admin1_code":"A2","admin2_code":"22","admin3_code":"224","admin4_code":"22281","population":"1274","elevation":"","dem":"196","timezone":"Europe/Paris","modification_date":"2012-01-18"},{"geonameid":"2981247","name":"Saint-Caradec","asciiname":"Saint-Caradec","alternatenames":["Caradec-sur-Oust","Saint-Caradec","Sant-Karadeg"],"latitude":"48.19429","longitude":"-2.84386","feature_class":"P","feature_code":"PPL","country_code":"FR","cc2":"","admin1_code":"A2","admin2_code":"22","admin3_code":"224","admin4_code":"22279","population":"1191","elevation":"","dem":"93","timezone":"Europe/Paris","modification_date":"2012-01-18"},{"geonameid":"2981267","name":"Saint-Broladre","asciiname":"Saint-Broladre","alternatenames":["Saint-Broladre","Sant-Brewalaer"],"latitude":"48.58677","longitude":"-1.65769","feature_class":"P","feature_code":"PPL","country_code":"FR","cc2":"","admin1_code":"A2","admin2_code":"35","admin3_code":"354","admin4_code":"35259","population":"1020","elevation":"","dem":"11","timezone":"Europe/Paris","modification_date":"2012-01-18"},{"geonameid":"2981280","name":"Saint-Brieuc","asciiname":"Saint-Brieuc","alternatenames":["Fanum Sancti Brioci","Port-Brieuc","SBK","Sain-Briek","Saint-Brieu","Saint-Brieuc","Sant-Brieg","Sen-Brie","Sen-Brijo","Sent-Brie","san=buriyu","sant brywk","sen-brie","sheng bu li e","sn brywk","Σαιν-Μπριέκ","Сен-Брие","Сен-Бриё","Сен-Бріє","Сент-Брие","سانت بريوك","سن بریوک","სენ-ბრიე","サン＝ブリユー","圣布里厄"],"latitude":"48.51513","longitude":"-2.76838","feature_class":"P","feature_code":"PPLA2","country_code":"FR","cc2":"","admin1_code":"A2","admin2_code":"22","admin3_code":"224","admin4_code":"22278","population":"52774","elevation":"","dem":"96","timezone":"Europe/Paris","modification_date":"2013-09-01"},{"geonameid":"2981285","name":"Saint-Brice-en-Coglès","asciiname":"Saint-Brice-en-Cogles","alternatenames":["Saint-Brice","Saint-Brice-en-Cogles","Saint-Brice-en-Coglès","Sant-Brizh-Gougleiz"],"latitude":"48.41157","longitude":"-1.37019","feature_class":"P","feature_code":"PPL","country_code":"FR","cc2":"","admin1_code":"A2","admin2_code":"35","admin3_code":"351","admin4_code":"35257","population":"2617","elevation":"","dem":"99","timezone":"Europe/Paris","modification_date":"2012-01-18"},{"geonameid":"2981294","name":"Saint-Briac-sur-Mer","asciiname":"Saint-Briac-sur-Mer","alternatenames":["Port-Briac","Saint-Briac","Saint-Briac-sur-Mer","Sanctus Briacus","Sant-Briag","Sen-Briak-sjur-Mer","bin hai sheng bu li a ke","Сен-Бриак-сюр-Мер","Сен-Бріак-сюр-Мер","滨海圣布里阿克"],"latitude":"48.62189","longitude":"-2.13435","feature_class":"P","feature_code":"PPL","country_code":"FR","cc2":"","admin1_code":"A2","admin2_code":"35","admin3_code":"354","admin4_code":"35256","population":"1934","elevation":"","dem":"32","timezone":"Europe/Paris","modification_date":"2012-01-18"},{"geonameid":"2981304","name":"Saint-Brandan","asciiname":"Saint-Brandan","alternatenames":["Saint-Brandan","Sant-Vedan"],"latitude":"48.39008","longitude":"-2.86875","feature_class":"P","feature_code":"PPL","country_code":"FR","cc2":"","admin1_code":"A2","admin2_code":"22","admin3_code":"224","admin4_code":"22277","population":"2232","elevation":"","dem":"200","timezone":"Europe/Paris","modification_date":"2012-01-18"},{"geonameid":"2981473","name":"Saint-Barnabé","asciiname":"Saint-Barnabe","alternatenames":["Saint-Barnabe","Saint-Barnabé","Sant-Barnev"],"latitude":"48.13712","longitude":"-2.70483","feature_class":"P","feature_code":"PPL","country_code":"FR","cc2":"","admin1_code":"A2","admin2_code":"22","admin3_code":"224","admin4_code":"22275","population":"1414","elevation":"","dem":"143","timezone":"Europe/Paris","modification_date":"2012-01-18"},{"geonameid":"2981515","name":"Saint-Avé","asciiname":"Saint-Ave","alternatenames":["Saint-Ave","Saint-Avé","Sant-Teve","Sent-Ave","sheng a wei","Сент-Аве","圣阿韦"],"latitude":"47.69085","longitude":"-2.74648","feature_class":"P","feature_code":"PPL","country_code":"FR","cc2":"","admin1_code":"A2","admin2_code":"56","admin3_code":"563","admin4_code":"56206","population":"8907","elevation":"","dem":"58","timezone":"Europe/Paris","modification_date":"2012-01-18"},{"geonameid":"2981565","name":"Saint-Aubin-du-Cormier","asciiname":"Saint-Aubin-du-Cormier","alternatenames":["Fanum Sancti Albini","Montagne-la-Foret","Montagne-la-Forêt","Saint-Aubin","Saint-Aubin-du-Cormier","Sant-Albin-an-Hiliber","Sent-Oben-dju-Korm'e","Sent-Oben-dju-Korme","sheng ao ban di ke er mi ye","Сент-Обен-дю-Кормье","Сент-Обен-дю-Кормє","圣奥班迪科尔米耶"],"latitude":"48.25843","longitude":"-1.40252","feature_class":"P","feature_code":"PPL","country_code":"FR","cc2":"","admin1_code":"A2","admin2_code":"35","admin3_code":"351","admin4_code":"35253","population":"3269","elevation":"","dem":"113","timezone":"Europe/Paris","modification_date":"2012-01-18"},{"geonameid":"2981639","name":"Saint-Armel","asciiname":"Saint-Armel","alternatenames":["Saint-Armel","Sant-Armael"],"latitude":"48.01305","longitude":"-1.59152","feature_class":"P","feature_code":"PPL","country_code":"FR","cc2":"","admin1_code":"A2","admin2_code":"35","admin3_code":"353","admin4_code":"35250","population":"1708","elevation":"","dem":"37","timezone":"Europe/Paris","modification_date":"2012-01-18"},{"geonameid":"2981876","name":"Saint-Alban","asciiname":"Saint-Alban","alternatenames":["Saint-Alban","Sant-Alvan"],"latitude":"48.5563","longitude":"-2.54013","feature_class":"P","feature_code":"PPL","country_code":"FR","cc2":"","admin1_code":"A2","admin2_code":"22","admin3_code":"224","admin4_code":"22273","population":"1635","elevation":"","dem":"100","timezone":"Europe/Paris","modification_date":"2012-01-18"},{"geonameid":"2981923","name":"Saint-Agathon","asciiname":"Saint-Agathon","alternatenames":["Bonvalon","Saint-Agathon","Sant-Eganton"],"latitude":"48.55867","longitude":"-3.10525","feature_class":"P","feature_code":"PPL","country_code":"FR","cc2":"","admin1_code":"A2","admin2_code":"22","admin3_code":"222","admin4_code":"22272","population":"1876","elevation":"","dem":"117","timezone":"Europe/Paris","modification_date":"2012-01-18"},{"geonameid":"2982207","name":"Ruffiac","asciiname":"Ruffiac","alternatenames":["Ruffiac","Rufieg"],"latitude":"47.81866","longitude":"-2.28238","feature_class":"P","feature_code":"PPL","country_code":"FR","cc2":"","admin1_code":"A2","admin2_code":"56","admin3_code":"563","admin4_code":"56200","population":"1452","elevation":"","dem":"57","timezone":"Europe/Paris","modification_date":"2012-01-18"},{"geonameid":"2982293","name":"Roz-sur-Couesnon","asciiname":"Roz-sur-Couesnon","alternatenames":["Roz","Roz-an-Arvor","Roz-sur-Couesnon"],"latitude":"48.58867","longitude":"-1.59213","feature_class":"P","feature_code":"PPL","country_code":"FR","cc2":"","admin1_code":"A2","admin2_code":"35","admin3_code":"354","admin4_code":"35247","population":"1038","elevation":"","dem":"61","timezone":"Europe/Paris","modification_date":"2012-01-18"},{"geonameid":"2982298","name":"Roz-Landrieux","asciiname":"Roz-Landrieux","alternatenames":["Roz-Landrieux","Roz-Lanrieg"],"latitude":"48.54337","longitude":"-1.81586","feature_class":"P","feature_code":"PPL","country_code":"FR","cc2":"","admin1_code":"A2","admin2_code":"35","admin3_code":"354","admin4_code":"35246","population":"1151","elevation":"","dem":"20","timezone":"Europe/Paris","modification_date":"2012-01-18"},{"geonameid":"2982711","name":"Rostrenen","asciiname":"Rostrenen","alternatenames":["Rostrenen","Rostrenenn"],"latitude":"48.23696","longitude":"-3.31442","feature_class":"P","feature_code":"PPL","country_code":"FR","cc2":"","admin1_code":"A2","admin2_code":"22","admin3_code":"222","admin4_code":"22266","population":"4011","elevation":"","dem":"233","timezone":"Europe/Paris","modification_date":"2012-01-18"},{"geonameid":"2982745","name":"Rosporden","asciiname":"Rosporden","alternatenames":["Rasperden","Rospordan","Rosporden","luo si bo er dang","Роспордан","罗斯波尔当"],"latitude":"47.96667","longitude":"-3.83333","feature_class":"P","feature_code":"PPL","country_code":"FR","cc2":"","admin1_code":"A2","admin2_code":"29","admin3_code":"294","admin4_code":"29241","population":"6779","elevation":"","dem":"121","timezone":"Europe/Paris","modification_date":"2012-01-18"},{"geonameid":"2982747","name":"Rospez","asciiname":"Rospez","alternatenames":["Rospez","Rospezh"],"latitude":"48.7294","longitude":"-3.38364","feature_class":"P","feature_code":"PPL","country_code":"FR","cc2":"","admin1_code":"A2","admin2_code":"22","admin3_code":"223","admin4_code":"22265","population":"1621","elevation":"","dem":"80","timezone":"Europe/Paris","modification_date":"2012-01-18"},{"geonameid":"2982809","name":"Roscoff","asciiname":"Roscoff","alternatenames":["Roscoff","Roscovia","Rosko","Roskof","Roskoff","luo si ke","Роскоф","Роскофф","罗斯科"],"latitude":"48.72381","longitude":"-3.98709","feature_class":"P","feature_code":"PPL","country_code":"FR","cc2":"","admin1_code":"A2","admin2_code":"29","admin3_code":"293","admin4_code":"29239","population":"3772","elevation":"6","dem":"8","timezone":"Europe/Paris","modification_date":"2011-11-02"},{"geonameid":"2982811","name":"Roscanvel","asciiname":"Roscanvel","alternatenames":["Roscanvel","Roskanvel","Roskanvel'","Roskañvel","luo si kang wei","rosukan'vu~eru","Росканвель","ロスカンヴェル","罗斯康韦"],"latitude":"48.3152","longitude":"-4.54937","feature_class":"P","feature_code":"PPL","country_code":"FR","cc2":"","admin1_code":"A2","admin2_code":"29","admin3_code":"292","admin4_code":"29238","population":"1027","elevation":"","dem":"15","timezone":"Europe/Paris","modification_date":"2007-12-29"},{"geonameid":"2982977","name":"Romillé","asciiname":"Romille","alternatenames":["Romille","Romillé","Rovelieg"],"latitude":"48.21619","longitude":"-1.89229","feature_class":"P","feature_code":"PPL","country_code":"FR","cc2":"","admin1_code":"A2","admin2_code":"35","admin3_code":"353","admin4_code":"35245","population":"2951","elevation":"","dem":"102","timezone":"Europe/Paris","modification_date":"2012-01-18"},{"geonameid":"2983046","name":"Romagné","asciiname":"Romagne","alternatenames":["Romagne","Romagné","Rovenieg"],"latitude":"48.34019","longitude":"-1.27751","feature_class":"P","feature_code":"PPL","country_code":"FR","cc2":"","admin1_code":"A2","admin2_code":"35","admin3_code":"351","admin4_code":"35243","population":"1806","elevation":"","dem":"118","timezone":"Europe/Paris","modification_date":"2012-01-18"},{"geonameid":"2983106","name":"Rohan","asciiname":"Rohan","alternatenames":["Roc'han","Rohan"],"latitude":"48.06833","longitude":"-2.7512","feature_class":"P","feature_code":"PPL","country_code":"FR","cc2":"","admin1_code":"A2","admin2_code":"56","admin3_code":"562","admin4_code":"56198","population":"1639","elevation":"","dem":"67","timezone":"Europe/Paris","modification_date":"2012-01-18"},{"geonameid":"2983590","name":"Rieux","asciiname":"Rieux","alternatenames":["Reoz","Rieux"],"latitude":"47.59781","longitude":"-2.10828","feature_class":"P","feature_code":"PPL","country_code":"FR","cc2":"","admin1_code":"A2","admin2_code":"56","admin3_code":"563","admin4_code":"56194","population":"2736","elevation":"","dem":"24","timezone":"Europe/Paris","modification_date":"2012-01-18"},{"geonameid":"2983631","name":"Riec-sur-Belon","asciiname":"Riec-sur-Belon","alternatenames":["Riec","Riec-sur-Belon","Riec-sur-Bélon","Rieg","Rieo-sur-Belon"],"latitude":"47.83333","longitude":"-3.7","feature_class":"P","feature_code":"PPL","country_code":"FR","cc2":"","admin1_code":"A2","admin2_code":"29","admin3_code":"294","admin4_code":"29236","population":"4230","elevation":"","dem":"27","timezone":"Europe/Paris","modification_date":"2007-11-16"},{"geonameid":"2983730","name":"Riantec","asciiname":"Riantec","alternatenames":["R'jantek","Riantec","Rianteg","Rjantek","li ang tai ke","Рьянтек","Рянтек","里昂泰克"],"latitude":"47.71093","longitude":"-3.31629","feature_class":"P","feature_code":"PPL","country_code":"FR","cc2":"","admin1_code":"A2","admin2_code":"56","admin3_code":"561","admin4_code":"56193","population":"4945","elevation":"","dem":"5","timezone":"Europe/Paris","modification_date":"2012-01-18"},{"geonameid":"2983885","name":"Retiers","asciiname":"Retiers","alternatenames":["Rester","Retiers"],"latitude":"47.91392","longitude":"-1.37967","feature_class":"P","feature_code":"PPL","country_code":"FR","cc2":"","admin1_code":"A2","admin2_code":"35","admin3_code":"351","admin4_code":"35239","population":"3536","elevation":"","dem":"73","timezone":"Europe/Paris","modification_date":"2012-01-18"},{"geonameid":"2983990","name":"Rennes","asciiname":"Rennes","alternatenames":["Condate Redonum","Gorad Rehn","RNS","Ren","Renas","Renes","Renn","Renn Shehiri","Renna","Rennes","Roazhon","Rénn Shehiri","lei en","len","ren","ren'nu","reni","rhena","rn","ryn","Ρεν","Горад Рэн","Рен","Ренн","רן","رن","رين","رینے","ऱ्हेन","ரேன்","แรน","რენი","レンヌ","雷恩","렌"],"latitude":"48.11198","longitude":"-1.67429","feature_class":"P","feature_code":"PPLA","country_code":"FR","cc2":"","admin1_code":"A2","admin2_code":"35","admin3_code":"353","admin4_code":"35238","population":"209375","elevation":"","dem":"39","timezone":"Europe/Paris","modification_date":"2015-05-20"},{"geonameid":"2984147","name":"Réguiny","asciiname":"Reguiny","alternatenames":["Regini","Reguiny","Réguiny"],"latitude":"47.97649","longitude":"-2.74478","feature_class":"P","feature_code":"PPL","country_code":"FR","cc2":"","admin1_code":"A2","admin2_code":"56","admin3_code":"562","admin4_code":"56190","population":"1698","elevation":"","dem":"114","timezone":"Europe/Paris","modification_date":"2012-01-18"},{"geonameid":"2984192","name":"Redon","asciiname":"Redon","alternatenames":["Redon","XRN"],"latitude":"47.65","longitude":"-2.08333","feature_class":"P","feature_code":"PPLA3","country_code":"FR","cc2":"","admin1_code":"A2","admin2_code":"35","admin3_code":"352","admin4_code":"35236","population":"9472","elevation":"","dem":"13","timezone":"Europe/Paris","modification_date":"2011-11-02"},{"geonameid":"2984198","name":"Rédené","asciiname":"Redene","alternatenames":["Redene","Rédené"],"latitude":"47.85","longitude":"-3.46667","feature_class":"P","feature_code":"PPL","country_code":"FR","cc2":"","admin1_code":"A2","admin2_code":"29","admin3_code":"294","admin4_code":"29234","population":"2456","elevation":"","dem":"45","timezone":"Europe/Paris","modification_date":"2012-01-18"},{"geonameid":"2984432","name":"Rannée","asciiname":"Rannee","alternatenames":["Radenez","Rannee","Rannée"],"latitude":"47.92383","longitude":"-1.24124","feature_class":"P","feature_code":"PPL","country_code":"FR","cc2":"","admin1_code":"A2","admin2_code":"35","admin3_code":"351","admin4_code":"35235","population":"1221","elevation":"","dem":"75","timezone":"Europe/Paris","modification_date":"2012-01-18"},{"geonameid":"2984640","name":"Quistinic","asciiname":"Quistinic","alternatenames":["Kistinid","Kistinik","Quistinic","qu yi si di ni ke","Кистиник","Кістінік","屈伊斯蒂尼克"],"latitude":"47.9041","longitude":"-3.134","feature_class":"P","feature_code":"PPL","country_code":"FR","cc2":"","admin1_code":"A2","admin2_code":"56","admin3_code":"561","admin4_code":"56188","population":"1337","elevation":"","dem":"134","timezone":"Europe/Paris","modification_date":"2012-01-18"},{"geonameid":"2984649","name":"Quintin","asciiname":"Quintin","alternatenames":["Kenten","Kintin","Quintin","Quintinum","qu an tan","Кентен","屈安坦"],"latitude":"48.40342","longitude":"-2.9105","feature_class":"P","feature_code":"PPL","country_code":"FR","cc2":"","admin1_code":"A2","admin2_code":"22","admin3_code":"224","admin4_code":"22262","population":"2994","elevation":"","dem":"179","timezone":"Europe/Paris","modification_date":"2012-01-18"},{"geonameid":"2984699","name":"Quimperlé","asciiname":"Quimperle","alternatenames":["Kemperle","Quimperle","Quimperlium","Quimperlé","kan pei er lai","kanperure","Кемперле","カンペルレ","坎佩尔莱"],"latitude":"47.86667","longitude":"-3.55","feature_class":"P","feature_code":"PPL","country_code":"FR","cc2":"","admin1_code":"A2","admin2_code":"29","admin3_code":"294","admin4_code":"29233","population":"12312","elevation":"","dem":"19","timezone":"Europe/Paris","modification_date":"2012-01-18"},{"geonameid":"2984701","name":"Quimper","asciiname":"Quimper","alternatenames":["Coriosopitum","Kemper","Montagne-sur-Odet","Quimper","Tchimper","Tchîmpèr","UIP","kaengpeleu","kambar","kan pei er","kanperu","kwympr","Кемпер","كامبار","کویمپر","კემპერი","カンペール","坎佩尔","캥페르"],"latitude":"48","longitude":"-4.1","feature_class":"P","feature_code":"PPLA2","country_code":"FR","cc2":"","admin1_code":"A2","admin2_code":"29","admin3_code":"294","admin4_code":"29232","population":"63849","elevation":"","dem":"36","timezone":"Europe/Paris","modification_date":"2011-11-02"},{"geonameid":"2984741","name":"Quiberon","asciiname":"Quiberon","alternatenames":["Kiberen","Kiberon","Quiberon","kiburon","qu yi bo long","Киберон","Кіберон","キブロン","屈伊伯龙"],"latitude":"47.48412","longitude":"-3.11963","feature_class":"P","feature_code":"PPL","country_code":"FR","cc2":"","admin1_code":"A2","admin2_code":"56","admin3_code":"561","admin4_code":"56186","population":"5430","elevation":"","dem":"17","timezone":"Europe/Paris","modification_date":"2012-01-18"},{"geonameid":"2984759","name":"Quévert","asciiname":"Quevert","alternatenames":["Kever","Quevert","Quévert"],"latitude":"48.46402","longitude":"-2.08745","feature_class":"P","feature_code":"PPL","country_code":"FR","cc2":"","admin1_code":"A2","admin2_code":"22","admin3_code":"221","admin4_code":"22259","population":"3325","elevation":"","dem":"93","timezone":"Europe/Paris","modification_date":"2012-01-18"},{"geonameid":"2984760","name":"Quéven","asciiname":"Queven","alternatenames":["Kewenn","Queven","Quéven"],"latitude":"47.78333","longitude":"-3.41667","feature_class":"P","feature_code":"PPL","country_code":"FR","cc2":"","admin1_code":"A2","admin2_code":"56","admin3_code":"561","admin4_code":"56185","population":"9316","elevation":"","dem":"51","timezone":"Europe/Paris","modification_date":"2012-01-18"},{"geonameid":"2984781","name":"Questembert","asciiname":"Questembert","alternatenames":["Kestamber","Kistreberzh","Questembert","qu ai si tang bei er","Кестамбер","屈埃斯唐贝尔"],"latitude":"47.66296","longitude":"-2.4522","feature_class":"P","feature_code":"PPL","country_code":"FR","cc2":"","admin1_code":"A2","admin2_code":"56","admin3_code":"563","admin4_code":"56184","population":"6392","elevation":"","dem":"101","timezone":"Europe/Paris","modification_date":"2012-01-18"},{"geonameid":"2984783","name":"Quessoy","asciiname":"Quessoy","alternatenames":["Kesoue","Quessoy"],"latitude":"48.42208","longitude":"-2.66089","feature_class":"P","feature_code":"PPL","country_code":"FR","cc2":"","admin1_code":"A2","admin2_code":"22","admin3_code":"224","admin4_code":"22258","population":"3600","elevation":"","dem":"93","timezone":"Europe/Paris","modification_date":"2012-01-18"},{"geonameid":"2984794","name":"Querrien","asciiname":"Querrien","alternatenames":["Kerien","Querrien"],"latitude":"47.96667","longitude":"-3.53333","feature_class":"P","feature_code":"PPL","country_code":"FR","cc2":"","admin1_code":"A2","admin2_code":"29","admin3_code":"294","admin4_code":"29230","population":"1689","elevation":"","dem":"158","timezone":"Europe/Paris","modification_date":"2012-01-18"},{"geonameid":"2984830","name":"Quemper-Guézennec","asciiname":"Quemper-Guezennec","alternatenames":["Kemper-Gwezhenneg","Quemper-Guezennac","Quemper-Guezennec","Quemper-Guézennac","Quemper-Guézennec"],"latitude":"48.70378","longitude":"-3.10522","feature_class":"P","feature_code":"PPL","country_code":"FR","cc2":"","admin1_code":"A2","admin2_code":"22","admin3_code":"222","admin4_code":"22256","population":"1074","elevation":"","dem":"65","timezone":"Europe/Paris","modification_date":"2012-01-18"},{"geonameid":"2984835","name":"Quéménéven","asciiname":"Quemeneven","alternatenames":["Kemenevan","Kemeneven","Quemeneven","Quéménéven","kemenevu~an","qu ai mei nei wang","Кеменеван","ケメネヴァン","屈埃梅内旺"],"latitude":"48.11667","longitude":"-4.11667","feature_class":"P","feature_code":"PPL","country_code":"FR","cc2":"","admin1_code":"A2","admin2_code":"29","admin3_code":"292","admin4_code":"29229","population":"1157","elevation":"","dem":"87","timezone":"Europe/Paris","modification_date":"2012-01-18"},{"geonameid":"2984852","name":"Quédillac","asciiname":"Quedillac","alternatenames":["Kedilieg","Quedillac","Quédillac"],"latitude":"48.24904","longitude":"-2.14241","feature_class":"P","feature_code":"PPL","country_code":"FR","cc2":"","admin1_code":"A2","admin2_code":"35","admin3_code":"353","admin4_code":"35234","population":"1074","elevation":"","dem":"83","timezone":"Europe/Paris","modification_date":"2012-01-18"},{"geonameid":"2984853","name":"Québriac","asciiname":"Quebriac","alternatenames":["Kevrieg","Quebriac","Québriac"],"latitude":"48.34444","longitude":"-1.82723","feature_class":"P","feature_code":"PPL","country_code":"FR","cc2":"","admin1_code":"A2","admin2_code":"35","admin3_code":"353","admin4_code":"35233","population":"1141","elevation":"","dem":"49","timezone":"Europe/Paris","modification_date":"2012-01-18"},{"geonameid":"2985282","name":"Priziac","asciiname":"Priziac","alternatenames":["Brisiacum","Priz'jak","Priziac","Prizieg","pu li qi a ke","Призьяк","普里齐阿克"],"latitude":"48.06667","longitude":"-3.41667","feature_class":"P","feature_code":"PPL","country_code":"FR","cc2":"","admin1_code":"A2","admin2_code":"56","admin3_code":"562","admin4_code":"56182","population":"1310","elevation":"","dem":"161","timezone":"Europe/Paris","modification_date":"2012-01-18"},{"geonameid":"2985579","name":"Prat","asciiname":"Prat","alternatenames":["Prad","Prat"],"latitude":"48.67677","longitude":"-3.29707","feature_class":"P","feature_code":"PPL","country_code":"FR","cc2":"","admin1_code":"A2","admin2_code":"22","admin3_code":"223","admin4_code":"22254","population":"1049","elevation":"","dem":"80","timezone":"Europe/Paris","modification_date":"2012-01-18"},{"geonameid":"2985787","name":"Poullaouen","asciiname":"Poullaouen","alternatenames":["Poullaouen","Pullauan","pu luo ang","Пуллауан","普洛昂"],"latitude":"48.33333","longitude":"-3.65","feature_class":"P","feature_code":"PPL","country_code":"FR","cc2":"","admin1_code":"A2","admin2_code":"29","admin3_code":"292","admin4_code":"29227","population":"1364","elevation":"","dem":"154","timezone":"Europe/Paris","modification_date":"2012-01-18"},{"geonameid":"2985788","name":"Poullan-sur-Mer","asciiname":"Poullan-sur-Mer","alternatenames":["Poullan","Poullan-sur-Mer","Poullann"],"latitude":"48.08333","longitude":"-4.41667","feature_class":"P","feature_code":"PPL","country_code":"FR","cc2":"","admin1_code":"A2","admin2_code":"29","admin3_code":"294","admin4_code":"29226","population":"1769","elevation":"","dem":"76","timezone":"Europe/Paris","modification_date":"2012-01-18"},{"geonameid":"2985807","name":"Pouldreuzic","asciiname":"Pouldreuzic","alternatenames":["Pouldreuzic","Pouldreuzig"],"latitude":"47.95","longitude":"-4.36667","feature_class":"P","feature_code":"PPL","country_code":"FR","cc2":"","admin1_code":"A2","admin2_code":"29","admin3_code":"294","admin4_code":"29225","population":"1902","elevation":"","dem":"41","timezone":"Europe/Paris","modification_date":"2012-01-18"},{"geonameid":"2985810","name":"Pouldergat","asciiname":"Pouldergat","alternatenames":["Pouldergat","Pouldregad"],"latitude":"48.05","longitude":"-4.33333","feature_class":"P","feature_code":"PPL","country_code":"FR","cc2":"","admin1_code":"A2","admin2_code":"29","admin3_code":"294","admin4_code":"29224","population":"1347","elevation":"","dem":"54","timezone":"Europe/Paris","modification_date":"2012-01-18"},{"geonameid":"2985963","name":"Port-Louis","asciiname":"Port-Louis","alternatenames":["Port-Liberte","Port-Liberté","Port-Louis","Port-de-l'Egalite","Port-de-l'Egalité","Porzh-Loeiz"],"latitude":"47.70704","longitude":"-3.35484","feature_class":"P","feature_code":"PPL","country_code":"FR","cc2":"","admin1_code":"A2","admin2_code":"56","admin3_code":"561","admin4_code":"56181","population":"3020","elevation":"","dem":"13","timezone":"Europe/Paris","modification_date":"2012-01-18"},{"geonameid":"2986046","name":"Porspoder","asciiname":"Porspoder","alternatenames":["Porspode","Porspoder","bo er si bo dai","Порсподе","波尔斯波代"],"latitude":"48.5","longitude":"-4.76667","feature_class":"P","feature_code":"PPL","country_code":"FR","cc2":"","admin1_code":"A2","admin2_code":"29","admin3_code":"291","admin4_code":"29221","population":"1651","elevation":"","dem":"30","timezone":"Europe/Paris","modification_date":"2012-01-18"},{"geonameid":"2986066","name":"Pordic","asciiname":"Pordic","alternatenames":["Pordic","Porzhig"],"latitude":"48.57051","longitude":"-2.81783","feature_class":"P","feature_code":"PPL","country_code":"FR","cc2":"","admin1_code":"A2","admin2_code":"22","admin3_code":"224","admin4_code":"22251","population":"5441","elevation":"","dem":"103","timezone":"Europe/Paris","modification_date":"2012-01-18"},{"geonameid":"2986102","name":"Pont-Scorff","asciiname":"Pont-Scorff","alternatenames":["Pon-Skorff","Pons Scorvi","Pont-Scorff","Pont-Skorf","peng si ke er","Пон-Скорфф","蓬斯科尔"],"latitude":"47.83343","longitude":"-3.40251","feature_class":"P","feature_code":"PPL","country_code":"FR","cc2":"","admin1_code":"A2","admin2_code":"56","admin3_code":"561","admin4_code":"56179","population":"2826","elevation":"","dem":"45","timezone":"Europe/Paris","modification_date":"2012-01-18"},{"geonameid":"2986121","name":"Pontrieux","asciiname":"Pontrieux","alternatenames":["Pontrev","Pontrieux"],"latitude":"48.70111","longitude":"-3.15967","feature_class":"P","feature_code":"PPL","country_code":"FR","cc2":"","admin1_code":"A2","admin2_code":"22","admin3_code":"222","admin4_code":"22250","population":"1301","elevation":"","dem":"9","timezone":"Europe/Paris","modification_date":"2012-01-18"},{"geonameid":"2986160","name":"Pontivy","asciiname":"Pontivy","alternatenames":["Pondi","Pondivi","Pontivi","Pontivy","peng di wei","pontivu~i","Понтиви","Понтіві","ポンティヴィ","蓬蒂维"],"latitude":"48.06667","longitude":"-2.98333","feature_class":"P","feature_code":"PPLA3","country_code":"FR","cc2":"","admin1_code":"A2","admin2_code":"56","admin3_code":"562","admin4_code":"56178","population":"16752","elevation":"","dem":"111","timezone":"Europe/Paris","modification_date":"2011-11-02"},{"geonameid":"2986286","name":"Pont-Aven","asciiname":"Pont-Aven","alternatenames":["Aveni pons","Pon-Avan","Pont-Aven","a wang qiao","pon=tavu~an","pongtabang","Пон-Аван","Понт-Авен","פונט אוון","ポン＝タヴァン","阿旺桥","퐁타방"],"latitude":"47.85","longitude":"-3.75","feature_class":"P","feature_code":"PPL","country_code":"FR","cc2":"","admin1_code":"A2","admin2_code":"29","admin3_code":"294","admin4_code":"29217","population":"3129","elevation":"","dem":"31","timezone":"Europe/Paris","modification_date":"2012-01-18"},{"geonameid":"2986410","name":"Pommerit-le-Vicomte","asciiname":"Pommerit-le-Vicomte","alternatenames":["Panvrid-ar-Beskont","Pañvrid-ar-Beskont","Pomaretum Vicecomitis","Pommeri-le-Vikont","Pommerit","Pommerit-le-Vicomte","Pommerit-les-Bois","Pomrit-le-Vikont","bo mo li lai wei kong te","Поммери-ле-Виконт","Поммері-ле-Віконт","Помрит-ле-Виконт","波默里莱维孔特"],"latitude":"48.61989","longitude":"-3.09","feature_class":"P","feature_code":"PPL","country_code":"FR","cc2":"","admin1_code":"A2","admin2_code":"22","admin3_code":"224","admin4_code":"22248","population":"1810","elevation":"","dem":"103","timezone":"Europe/Paris","modification_date":"2012-01-18"},{"geonameid":"2986411","name":"Pommerit-Jaudy","asciiname":"Pommerit-Jaudy","alternatenames":["Peurid-ar-Roc'h","Pommerit","Pommerit-Jaudy"],"latitude":"48.73058","longitude":"-3.24208","feature_class":"P","feature_code":"PPL","country_code":"FR","cc2":"","admin1_code":"A2","admin2_code":"22","admin3_code":"223","admin4_code":"22247","population":"1187","elevation":"","dem":"77","timezone":"Europe/Paris","modification_date":"2012-01-18"},{"geonameid":"2986418","name":"Pommeret","asciiname":"Pommeret","alternatenames":["Peunvrid","Peuñvrid","Pommeret"],"latitude":"48.46378","longitude":"-2.62689","feature_class":"P","feature_code":"PPL","country_code":"FR","cc2":"","admin1_code":"A2","admin2_code":"22","admin3_code":"224","admin4_code":"22246","population":"1796","elevation":"","dem":"66","timezone":"Europe/Paris","modification_date":"2012-01-18"},{"geonameid":"2986589","name":"Pocé-les-Bois","asciiname":"Poce-les-Bois","alternatenames":["Poce","Poce-les-Bois","Pocé","Pocé-les-Bois","Pozieg"],"latitude":"48.11626","longitude":"-1.25168","feature_class":"P","feature_code":"PPL","country_code":"FR","cc2":"","admin1_code":"A2","admin2_code":"35","admin3_code":"351","admin4_code":"35229","population":"1062","elevation":"","dem":"87","timezone":"Europe/Paris","modification_date":"2012-01-18"},{"geonameid":"2986592","name":"Pluzunet","asciiname":"Pluzunet","alternatenames":["Pluned","Pluzunet","Plûned"],"latitude":"48.64076","longitude":"-3.37113","feature_class":"P","feature_code":"PPL","country_code":"FR","cc2":"","admin1_code":"A2","admin2_code":"22","admin3_code":"223","admin4_code":"22245","population":"1029","elevation":"","dem":"116","timezone":"Europe/Paris","modification_date":"2012-01-18"},{"geonameid":"2986593","name":"Pluvigner","asciiname":"Pluvigner","alternatenames":["Pleuwigner","Pljuvin'e","Pluvigner","pu lu wei gai","Плювинье","Плювіньє","普吕维盖"],"latitude":"47.77627","longitude":"-3.01013","feature_class":"P","feature_code":"PPL","country_code":"FR","cc2":"","admin1_code":"A2","admin2_code":"56","admin3_code":"561","admin4_code":"56177","population":"5775","elevation":"","dem":"89","timezone":"Europe/Paris","modification_date":"2012-01-18"},{"geonameid":"2986600","name":"Plurien","asciiname":"Plurien","alternatenames":["Plurien"],"latitude":"48.62559","longitude":"-2.40423","feature_class":"P","feature_code":"PPL","country_code":"FR","cc2":"","admin1_code":"A2","admin2_code":"22","admin3_code":"224","admin4_code":"22242","population":"1283","elevation":"","dem":"49","timezone":"Europe/Paris","modification_date":"2012-01-18"},{"geonameid":"2986601","name":"Pluneret","asciiname":"Pluneret","alternatenames":["Pljunere","Plumeret","Plunered","Pluneret","pu lu na lei","Плюнере","普吕纳雷","𐍀𐌻𐍅𐌽𐌴𐍂𐌴𐌳"],"latitude":"47.67525","longitude":"-2.95782","feature_class":"P","feature_code":"PPL","country_code":"FR","cc2":"","admin1_code":"A2","admin2_code":"56","admin3_code":"561","admin4_code":"56176","population":"3987","elevation":"","dem":"34","timezone":"Europe/Paris","modification_date":"2012-01-18"},{"geonameid":"2986605","name":"Plumieux","asciiname":"Plumieux","alternatenames":["Plumieux","Pluvaeg"],"latitude":"48.10303","longitude":"-2.58382","feature_class":"P","feature_code":"PPL","country_code":"FR","cc2":"","admin1_code":"A2","admin2_code":"22","admin3_code":"224","admin4_code":"22241","population":"1131","elevation":"","dem":"131","timezone":"Europe/Paris","modification_date":"2012-01-18"},{"geonameid":"2986608","name":"Plumergat","asciiname":"Plumergat","alternatenames":["Plumergat","Pluvergad"],"latitude":"47.74134","longitude":"-2.91501","feature_class":"P","feature_code":"PPL","country_code":"FR","cc2":"","admin1_code":"A2","admin2_code":"56","admin3_code":"561","admin4_code":"56175","population":"3156","elevation":"","dem":"51","timezone":"Europe/Paris","modification_date":"2012-01-18"},{"geonameid":"2986609","name":"Plumelin","asciiname":"Plumelin","alternatenames":["Plumelin","Pluverin"],"latitude":"47.86036","longitude":"-2.88754","feature_class":"P","feature_code":"PPL","country_code":"FR","cc2":"","admin1_code":"A2","admin2_code":"56","admin3_code":"562","admin4_code":"56174","population":"1900","elevation":"","dem":"101","timezone":"Europe/Paris","modification_date":"2012-01-18"},{"geonameid":"2986610","name":"Pluméliau","asciiname":"Plumeliau","alternatenames":["Pljumel'jo","Plumeliau","Pluméliau","Pluniav","pu lu mei li ao","Плюмельйо","普吕梅利奥"],"latitude":"47.95769","longitude":"-2.97494","feature_class":"P","feature_code":"PPL","country_code":"FR","cc2":"","admin1_code":"A2","admin2_code":"56","admin3_code":"562","admin4_code":"56173","population":"3327","elevation":"","dem":"117","timezone":"Europe/Paris","modification_date":"2012-01-18"},{"geonameid":"2986611","name":"Plumelec","asciiname":"Plumelec","alternatenames":["Pljumelek","Plumelec","Pluveleg","pu lu mo lai ke","puryumurekku","Плюмелек","プリュムレック","普吕默莱克"],"latitude":"47.83754","longitude":"-2.63987","feature_class":"P","feature_code":"PPL","country_code":"FR","cc2":"","admin1_code":"A2","admin2_code":"56","admin3_code":"562","admin4_code":"56172","population":"2553","elevation":"","dem":"155","timezone":"Europe/Paris","modification_date":"2012-01-18"},{"geonameid":"2986613","name":"Plumaugat","asciiname":"Plumaugat","alternatenames":["Plumaugat","Pluvaelgad"],"latitude":"48.25479","longitude":"-2.23843","feature_class":"P","feature_code":"PPL","country_code":"FR","cc2":"","admin1_code":"A2","admin2_code":"22","admin3_code":"221","admin4_code":"22240","population":"1041","elevation":"","dem":"114","timezone":"Europe/Paris","modification_date":"2012-01-18"},{"geonameid":"2986615","name":"Pluherlin","asciiname":"Pluherlin","alternatenames":["Pluherlin","Pluhernin"],"latitude":"47.69632","longitude":"-2.36349","feature_class":"P","feature_code":"PPL","country_code":"FR","cc2":"","admin1_code":"A2","admin2_code":"56","admin3_code":"563","admin4_code":"56171","population":"1219","elevation":"","dem":"73","timezone":"Europe/Paris","modification_date":"2012-01-18"},{"geonameid":"2986616","name":"Pluguffan","asciiname":"Pluguffan","alternatenames":["Pluguen","Pluguffan"],"latitude":"47.98333","longitude":"-4.18333","feature_class":"P","feature_code":"PPL","country_code":"FR","cc2":"","admin1_code":"A2","admin2_code":"29","admin3_code":"294","admin4_code":"29216","population":"3370","elevation":"","dem":"97","timezone":"Europe/Paris","modification_date":"2012-01-18"},{"geonameid":"2986618","name":"Pluduno","asciiname":"Pluduno","alternatenames":["Pluduno","Pludunou","Pludunoù"],"latitude":"48.5311","longitude":"-2.26848","feature_class":"P","feature_code":"PPL","country_code":"FR","cc2":"","admin1_code":"A2","admin2_code":"22","admin3_code":"221","admin4_code":"22237","population":"1798","elevation":"","dem":"66","timezone":"Europe/Paris","modification_date":"2012-01-18"},{"geonameid":"2986620","name":"Plozévet","asciiname":"Plozevet","alternatenames":["Plodemet","Plodémet","Plozeve","Plozeved","Plozevet","Plozévet","pu luo ze wei","Плозеве","普洛泽韦"],"latitude":"47.98333","longitude":"-4.41667","feature_class":"P","feature_code":"PPL","country_code":"FR","cc2":"","admin1_code":"A2","admin2_code":"29","admin3_code":"294","admin4_code":"29215","population":"2901","elevation":"","dem":"64","timezone":"Europe/Paris","modification_date":"2012-01-18"},{"geonameid":"2986624","name":"Plouzévédé","asciiname":"Plouzevede","alternatenames":["Gwitevede","Plouzevede","Plouzévédé"],"latitude":"48.6","longitude":"-4.11667","feature_class":"P","feature_code":"PPL","country_code":"FR","cc2":"","admin1_code":"A2","admin2_code":"29","admin3_code":"293","admin4_code":"29213","population":"1429","elevation":"","dem":"90","timezone":"Europe/Paris","modification_date":"2012-01-18"},{"geonameid":"2986626","name":"Plouzané","asciiname":"Plouzane","alternatenames":["Plebs Sanae","Plouzane","Plouzané","Pluzane","pu lu zha nei","puruzane","Плузане","プルザネ","普卢扎内"],"latitude":"48.38333","longitude":"-4.61667","feature_class":"P","feature_code":"PPL","country_code":"FR","cc2":"","admin1_code":"A2","admin2_code":"29","admin3_code":"291","admin4_code":"29212","population":"13118","elevation":"","dem":"82","timezone":"Europe/Paris","modification_date":"2012-01-18"},{"geonameid":"2986628","name":"Plouvorn","asciiname":"Plouvorn","alternatenames":["Plouvorn","Pluvorn","pu lu wo er en","Плуворн","普卢沃尔恩"],"latitude":"48.58333","longitude":"-4.03333","feature_class":"P","feature_code":"PPL","country_code":"FR","cc2":"","admin1_code":"A2","admin2_code":"29","admin3_code":"293","admin4_code":"29210","population":"2725","elevation":"","dem":"73","timezone":"Europe/Paris","modification_date":"2012-01-18"},{"geonameid":"2986629","name":"Plouvien","asciiname":"Plouvien","alternatenames":["Plouvien","Pluv'jan","Pluvjan","pu lu wei an","Плувьян","Плувян","普卢维安"],"latitude":"48.53333","longitude":"-4.45","feature_class":"P","feature_code":"PPL","country_code":"FR","cc2":"","admin1_code":"A2","admin2_code":"29","admin3_code":"291","admin4_code":"29209","population":"3346","elevation":"","dem":"60","timezone":"Europe/Paris","modification_date":"2012-01-18"},{"geonameid":"2986632","name":"Plourivo","asciiname":"Plourivo","alternatenames":["Plouriviou","Plourivioù","Plourivo"],"latitude":"48.7455","longitude":"-3.07075","feature_class":"P","feature_code":"PPL","country_code":"FR","cc2":"","admin1_code":"A2","admin2_code":"22","admin3_code":"224","admin4_code":"22233","population":"2094","elevation":"","dem":"71","timezone":"Europe/Paris","modification_date":"2012-01-18"},{"geonameid":"2986633","name":"Plourin-lès-Morlaix","asciiname":"Plourin-les-Morlaix","alternatenames":["Plourin-Montroulez","Pluren-le-Morle","pu lu lan lai mo er lai","Плурен-ле-Морле","普卢兰莱莫尔莱"],"latitude":"48.53333","longitude":"-3.78333","feature_class":"P","feature_code":"PPL","country_code":"FR","cc2":"","admin1_code":"A2","admin2_code":"29","admin3_code":"293","admin4_code":"29207","population":"4815","elevation":"","dem":"131","timezone":"Europe/Paris","modification_date":"2007-11-14"},{"geonameid":"2986635","name":"Plouray","asciiname":"Plouray","alternatenames":["Plourae","Plouray"],"latitude":"48.1458","longitude":"-3.38671","feature_class":"P","feature_code":"PPL","country_code":"FR","cc2":"","admin1_code":"A2","admin2_code":"56","admin3_code":"562","admin4_code":"56170","population":"1105","elevation":"","dem":"194","timezone":"Europe/Paris","modification_date":"2012-01-18"},{"geonameid":"2986638","name":"Plounévez-Quintin","asciiname":"Plounevez-Quintin","alternatenames":["Plounevez-Kintin","Plounevez-Quintin","Plounévez-Quintin"],"latitude":"48.28333","longitude":"-3.23333","feature_class":"P","feature_code":"PPL","country_code":"FR","cc2":"","admin1_code":"A2","admin2_code":"22","admin3_code":"222","admin4_code":"22229","population":"1101","elevation":"","dem":"203","timezone":"Europe/Paris","modification_date":"2007-11-15"},{"geonameid":"2986639","name":"Plounévez-Moëdec","asciiname":"Plounevez-Moedec","alternatenames":["Plounevez-Moedec","Plounevez-Moedeg","Plounévez-Moëdec"],"latitude":"48.56667","longitude":"-3.45","feature_class":"P","feature_code":"PPL","country_code":"FR","cc2":"","admin1_code":"A2","admin2_code":"22","admin3_code":"223","admin4_code":"22228","population":"1398","elevation":"","dem":"178","timezone":"Europe/Paris","modification_date":"2007-11-15"},{"geonameid":"2986640","name":"Plounévez-Lochrist","asciiname":"Plounevez-Lochrist","alternatenames":["Gwinevez","Plounevez","Plounevez-Lochrist","Plounévez-Lochrist","Plouvenez-Lochrist","Pluneve-Lokrist","pu lu nei wei luo ke li si","purunevu~e=rokurisuto","Плуневе-Локрист","プルネヴェ＝ロクリスト","普卢内韦洛克里斯"],"latitude":"48.61667","longitude":"-4.21667","feature_class":"P","feature_code":"PPL","country_code":"FR","cc2":"","admin1_code":"A2","admin2_code":"29","admin3_code":"293","admin4_code":"29206","population":"2463","elevation":"","dem":"70","timezone":"Europe/Paris","modification_date":"2012-01-18"},{"geonameid":"2986641","name":"Plounévézel","asciiname":"Plounevezel","alternatenames":["Plonevell","Plounevezel","Plounévézel"],"latitude":"48.3","longitude":"-3.6","feature_class":"P","feature_code":"PPL","country_code":"FR","cc2":"","admin1_code":"A2","admin2_code":"29","admin3_code":"292","admin4_code":"29205","population":"1046","elevation":"","dem":"138","timezone":"Europe/Paris","modification_date":"2012-01-18"},{"geonameid":"2986642","name":"Plounéventer","asciiname":"Plouneventer","alternatenames":["Gwineventer","Plojunevante","Plouneventer","Plounéventer","pu lu nei wang tai","Плоюневанте","普卢内旺泰"],"latitude":"48.51667","longitude":"-4.21667","feature_class":"P","feature_code":"PPL","country_code":"FR","cc2":"","admin1_code":"A2","admin2_code":"29","admin3_code":"293","admin4_code":"29204","population":"1567","elevation":"","dem":"100","timezone":"Europe/Paris","modification_date":"2012-01-18"},{"geonameid":"2986644","name":"Plounéour-Trez","asciiname":"Plouneour-Trez","alternatenames":["Plouneour-Traezh","Plouneour-Trez","Plounéour-Trez"],"latitude":"48.65","longitude":"-4.31667","feature_class":"P","feature_code":"PPL","country_code":"FR","cc2":"","admin1_code":"A2","admin2_code":"29","admin3_code":"291","admin4_code":"29203","population":"1238","elevation":"","dem":"20","timezone":"Europe/Paris","modification_date":"2012-01-18"},{"geonameid":"2986645","name":"Plounéour-Ménez","asciiname":"Plouneour-Menez","alternatenames":["Plojuneur-Mene","Plouneour","Plouneour-Menez","Plounéour","Plounéour-Ménez","pu lu nei wu mei nei","Плоюнеур-Мене","普卢内乌梅内"],"latitude":"48.45","longitude":"-3.88333","feature_class":"P","feature_code":"PPL","country_code":"FR","cc2":"","admin1_code":"A2","admin2_code":"29","admin3_code":"293","admin4_code":"29202","population":"1229","elevation":"","dem":"237","timezone":"Europe/Paris","modification_date":"2012-01-18"},{"geonameid":"2986646","name":"Ploumoguer","asciiname":"Ploumoguer","alternatenames":["Plonger","Ploumoguer"],"latitude":"48.4","longitude":"-4.71667","feature_class":"P","feature_code":"PPL","country_code":"FR","cc2":"","admin1_code":"A2","admin2_code":"29","admin3_code":"291","admin4_code":"29201","population":"1726","elevation":"","dem":"69","timezone":"Europe/Paris","modification_date":"2012-01-18"},{"geonameid":"2986647","name":"Ploumilliau","asciiname":"Ploumilliau","alternatenames":["Plouilio","Ploumilliau","Plumil'jo","Plumil'o","pu lu mi li ao","Плумильйо","Плумильо","Плумільйо","普卢米利奥"],"latitude":"48.68333","longitude":"-3.51667","feature_class":"P","feature_code":"PPL","country_code":"FR","cc2":"","admin1_code":"A2","admin2_code":"22","admin3_code":"223","admin4_code":"22226","population":"2268","elevation":"","dem":"109","timezone":"Europe/Paris","modification_date":"2012-01-18"},{"geonameid":"2986649","name":"Ploumagoar","asciiname":"Ploumagoar","alternatenames":["Ploumagoar","Plouvagor","Plumagoar","pu lu ma ge a","Плумагоар","普卢马戈阿"],"latitude":"48.54509","longitude":"-3.13233","feature_class":"P","feature_code":"PPL","country_code":"FR","cc2":"","admin1_code":"A2","admin2_code":"22","admin3_code":"222","admin4_code":"22225","population":"4603","elevation":"","dem":"114","timezone":"Europe/Paris","modification_date":"2012-01-18"},{"geonameid":"2986652","name":"Plouisy","asciiname":"Plouisy","alternatenames":["Plouisy","Plouizi"],"latitude":"48.57817","longitude":"-3.18434","feature_class":"P","feature_code":"PPL","country_code":"FR","cc2":"","admin1_code":"A2","admin2_code":"22","admin3_code":"222","admin4_code":"22223","population":"2053","elevation":"","dem":"133","timezone":"Europe/Paris","modification_date":"2012-01-18"},{"geonameid":"2986653","name":"Plouigneau","asciiname":"Plouigneau","alternatenames":["Plouigneau","Plouigno","Pluin'o","pu lu yi gai ao","puruinyo","Плуиньо","Плуїньо","プルイニョー","普卢伊盖奥"],"latitude":"48.56667","longitude":"-3.7","feature_class":"P","feature_code":"PPL","country_code":"FR","cc2":"","admin1_code":"A2","admin2_code":"29","admin3_code":"293","admin4_code":"29199","population":"4311","elevation":"","dem":"161","timezone":"Europe/Paris","modification_date":"2012-01-18"},{"geonameid":"2986654","name":"Plouider","asciiname":"Plouider","alternatenames":["Plouider","Pluide","pu lu yi dai","Плуиде","Плуїде","普卢伊代"],"latitude":"48.61667","longitude":"-4.3","feature_class":"P","feature_code":"PPL","country_code":"FR","cc2":"","admin1_code":"A2","admin2_code":"29","admin3_code":"291","admin4_code":"29198","population":"1855","elevation":"","dem":"50","timezone":"Europe/Paris","modification_date":"2012-01-18"},{"geonameid":"2986655","name":"Plouhinec","asciiname":"Plouhinec","alternatenames":["Ploeneg","Plouhinec"],"latitude":"48.01667","longitude":"-4.48333","feature_class":"P","feature_code":"PPL","country_code":"FR","cc2":"","admin1_code":"A2","admin2_code":"29","admin3_code":"294","admin4_code":"29197","population":"4428","elevation":"","dem":"96","timezone":"Europe/Paris","modification_date":"2012-01-18"},{"geonameid":"2986657","name":"Plouharnel","asciiname":"Plouharnel","alternatenames":["Plouharnel","Pluarnel'","pu lu a er nei","Плуарнель","普卢阿尔内"],"latitude":"47.59804","longitude":"-3.11274","feature_class":"P","feature_code":"PPL","country_code":"FR","cc2":"","admin1_code":"A2","admin2_code":"56","admin3_code":"561","admin4_code":"56168","population":"1812","elevation":"","dem":"23","timezone":"Europe/Paris","modification_date":"2012-01-18"},{"geonameid":"2986660","name":"Plouha","asciiname":"Plouha","alternatenames":["Plouha","Plua","pu lu a","Плуа","普卢阿"],"latitude":"48.6765","longitude":"-2.92842","feature_class":"P","feature_code":"PPL","country_code":"FR","cc2":"","admin1_code":"A2","admin2_code":"22","admin3_code":"224","admin4_code":"22222","population":"4435","elevation":"","dem":"97","timezone":"Europe/Paris","modification_date":"2012-01-18"},{"geonameid":"2986661","name":"Plouguin","asciiname":"Plouguin","alternatenames":["Plougin","Plouguin","Plugin","pu lu ji en","Плугин","Плугін","普卢吉恩"],"latitude":"48.53333","longitude":"-4.6","feature_class":"P","feature_code":"PPL","country_code":"FR","cc2":"","admin1_code":"A2","admin2_code":"29","admin3_code":"291","admin4_code":"29196","population":"2058","elevation":"","dem":"48","timezone":"Europe/Paris","modification_date":"2012-01-18"},{"geonameid":"2986662","name":"Plouguiel","asciiname":"Plouguiel","alternatenames":["Plouguiel","Priel"],"latitude":"48.79742","longitude":"-3.23883","feature_class":"P","feature_code":"PPL","country_code":"FR","cc2":"","admin1_code":"A2","admin2_code":"22","admin3_code":"223","admin4_code":"22221","population":"1962","elevation":"","dem":"63","timezone":"Europe/Paris","modification_date":"2012-01-18"},{"geonameid":"2986663","name":"Plouguernével","asciiname":"Plouguernevel","alternatenames":["Plougernevel","Plouguernevel","Plouguernével"],"latitude":"48.2394","longitude":"-3.25071","feature_class":"P","feature_code":"PPL","country_code":"FR","cc2":"","admin1_code":"A2","admin2_code":"22","admin3_code":"222","admin4_code":"22220","population":"2343","elevation":"","dem":"220","timezone":"Europe/Paris","modification_date":"2012-01-18"},{"geonameid":"2986664","name":"Plouguerneau","asciiname":"Plouguerneau","alternatenames":["Plougerne","Plouguerneau","Plugerno","pu lu gai er nuo","purugeruno","Плугерно","プルゲルノー","普卢盖尔诺"],"latitude":"48.6","longitude":"-4.5","feature_class":"P","feature_code":"PPL","country_code":"FR","cc2":"","admin1_code":"A2","admin2_code":"29","admin3_code":"291","admin4_code":"29195","population":"5883","elevation":"","dem":"52","timezone":"Europe/Paris","modification_date":"2012-01-18"},{"geonameid":"2986665","name":"Plouguenast","asciiname":"Plouguenast","alternatenames":["Plougonwaz","Plouguenast"],"latitude":"48.28208","longitude":"-2.70443","feature_class":"P","feature_code":"PPL","country_code":"FR","cc2":"","admin1_code":"A2","admin2_code":"22","admin3_code":"224","admin4_code":"22219","population":"1806","elevation":"","dem":"163","timezone":"Europe/Paris","modification_date":"2012-01-18"},{"geonameid":"2986666","name":"Plougrescant","asciiname":"Plougrescant","alternatenames":["Plougouskant","Plougrescant","Plougreseant"],"latitude":"48.84026","longitude":"-3.22886","feature_class":"P","feature_code":"PPL","country_code":"FR","cc2":"","admin1_code":"A2","admin2_code":"22","admin3_code":"223","admin4_code":"22218","population":"1462","elevation":"","dem":"55","timezone":"Europe/Paris","modification_date":"2008-01-13"},{"geonameid":"2986668","name":"Plougourvest","asciiname":"Plougourvest","alternatenames":["Gwikourvest","Plougourvest"],"latitude":"48.55","longitude":"-4.08333","feature_class":"P","feature_code":"PPL","country_code":"FR","cc2":"","admin1_code":"A2","admin2_code":"29","admin3_code":"293","admin4_code":"29193","population":"1207","elevation":"","dem":"112","timezone":"Europe/Paris","modification_date":"2012-01-18"},{"geonameid":"2986669","name":"Plougoumelen","asciiname":"Plougoumelen","alternatenames":["Plougoumelen","Plougouvelen"],"latitude":"47.6507","longitude":"-2.91716","feature_class":"P","feature_code":"PPL","country_code":"FR","cc2":"","admin1_code":"A2","admin2_code":"56","admin3_code":"561","admin4_code":"56167","population":"1885","elevation":"","dem":"21","timezone":"Europe/Paris","modification_date":"2012-01-18"},{"geonameid":"2986670","name":"Plougoulm","asciiname":"Plougoulm","alternatenames":["Plougoulm","Plougouloum"],"latitude":"48.66667","longitude":"-4.05","feature_class":"P","feature_code":"PPL","country_code":"FR","cc2":"","admin1_code":"A2","admin2_code":"29","admin3_code":"293","admin4_code":"29192","population":"1718","elevation":"","dem":"41","timezone":"Europe/Paris","modification_date":"2012-01-18"},{"geonameid":"2986672","name":"Plougonven","asciiname":"Plougonven","alternatenames":["Plougonven","Plugonvan","pu lu gong wang","Плугонван","普卢贡旺"],"latitude":"48.51667","longitude":"-3.71667","feature_class":"P","feature_code":"PPL","country_code":"FR","cc2":"","admin1_code":"A2","admin2_code":"29","admin3_code":"293","admin4_code":"29191","population":"3261","elevation":"","dem":"144","timezone":"Europe/Paris","modification_date":"2012-01-18"},{"geonameid":"2986673","name":"Plougonvelin","asciiname":"Plougonvelin","alternatenames":["Plougonvelen","Plougonvelin"],"latitude":"48.34059","longitude":"-4.71846","feature_class":"P","feature_code":"PPL","country_code":"FR","cc2":"","admin1_code":"A2","admin2_code":"29","admin3_code":"291","admin4_code":"29190","population":"3009","elevation":"","dem":"45","timezone":"Europe/Paris","modification_date":"2007-08-04"},