{"region_data":{"countryId":"2782113","adminCode1":"04","countryName":"Austria","fclName":"country, state, region,...","countryCode":"AT","lng":"14","fcodeName":"first-order administrative division","toponymName":"Oberösterreich","fcl":"A","numberOfChildren":18,"name":"Upper Austria","fcode":"ADM1","geonameId":2769848,"lat":"48.25","adminName1":"Upper Austria","population":1400851},"country_data":{"ISO":"AT","ISO3":"AUT","ISO_Numeric":"040","fips":"AU","country":"Austria","capital":"Vienna","area":"83858","Population":"8205000","Continent":"EU","tld":".at","CurrencyCode":"EUR","CurrencyName":"Euro","Phone":"43","Postal_Code_Format":"####","Postal_Code_Regex":"^(\\d{4})$","Languages":"de-AT,hr,hu,sl","geonameid":"2782113","neighbours":"CH,DE,HU,SK,CZ,IT,SI,LI","EquivalentFipsCode":""},"cities":[{"geonameid":"2760420","name":"Zwettl an der Rodl","asciiname":"Zwettl an der Rodl","alternatenames":["Zwettl","Zwettl an der Rodl"],"latitude":"48.46552","longitude":"14.27133","feature_class":"P","feature_code":"PPLA3","country_code":"AT","cc2":"AT","admin1_code":"04","admin2_code":"416","admin3_code":"41627","admin4_code":"","population":"0","elevation":"","dem":"617","timezone":"Europe/Vienna","modification_date":"2011-12-20"},{"geonameid":"2760635","name":"Zell am Pettenfirst","asciiname":"Zell am Pettenfirst","alternatenames":["Zell am Pettenfirst"],"latitude":"48.06667","longitude":"13.58333","feature_class":"P","feature_code":"PPLA3","country_code":"AT","cc2":"","admin1_code":"04","admin2_code":"417","admin3_code":"41752","admin4_code":"","population":"0","elevation":"","dem":"529","timezone":"Europe/Vienna","modification_date":"2011-07-31"},{"geonameid":"2760636","name":"Zell am Moos","asciiname":"Zell am Moos","alternatenames":["Zell","Zell am Moos"],"latitude":"47.9","longitude":"13.31667","feature_class":"P","feature_code":"PPLA3","country_code":"AT","cc2":"AT","admin1_code":"04","admin2_code":"417","admin3_code":"41751","admin4_code":"","population":"0","elevation":"","dem":"574","timezone":"Europe/Vienna","modification_date":"2011-07-31"},{"geonameid":"2760903","name":"Wolfsegg am Hausruck","asciiname":"Wolfsegg am Hausruck","alternatenames":["Wolfsegg","Wolfsegg am Hausruck"],"latitude":"48.10669","longitude":"13.67274","feature_class":"P","feature_code":"PPLA3","country_code":"AT","cc2":"AT","admin1_code":"04","admin2_code":"417","admin3_code":"41750","admin4_code":"","population":"0","elevation":"","dem":"633","timezone":"Europe/Vienna","modification_date":"2011-07-31"},{"geonameid":"2761419","name":"Weyer","asciiname":"Weyer","alternatenames":["Weyer","Weyer Markt","Weyer an der Enns"],"latitude":"47.85717","longitude":"14.66409","feature_class":"P","feature_code":"PPLA3","country_code":"AT","cc2":"AT","admin1_code":"04","admin2_code":"415","admin3_code":"41522","admin4_code":"","population":"0","elevation":"","dem":"404","timezone":"Europe/Vienna","modification_date":"2012-05-04"},{"geonameid":"2761524","name":"Wels","asciiname":"Wels","alternatenames":["Ovilava","Vel's","Wels","wls","Вельс","ולס"],"latitude":"48.16667","longitude":"14.03333","feature_class":"P","feature_code":"PPLA2","country_code":"AT","cc2":"","admin1_code":"04","admin2_code":"403","admin3_code":"40301","admin4_code":"","population":"57946","elevation":"","dem":"317","timezone":"Europe/Vienna","modification_date":"2013-02-07"},{"geonameid":"2761976","name":"Waldzell","asciiname":"Waldzell","alternatenames":[""],"latitude":"48.13562","longitude":"13.42701","feature_class":"P","feature_code":"PPL","country_code":"AT","cc2":"","admin1_code":"04","admin2_code":"412","admin3_code":"41234","admin4_code":"","population":"2095","elevation":"522","dem":"511","timezone":"Europe/Vienna","modification_date":"2014-09-01"},{"geonameid":"2761989","name":"Waldneukirchen","asciiname":"Waldneukirchen","alternatenames":["Waldneukirchen"],"latitude":"47.99854","longitude":"14.25879","feature_class":"P","feature_code":"PPLA3","country_code":"AT","cc2":"","admin1_code":"04","admin2_code":"415","admin3_code":"41518","admin4_code":"","population":"0","elevation":"","dem":"431","timezone":"Europe/Vienna","modification_date":"2011-07-31"},{"geonameid":"2761999","name":"Walding","asciiname":"Walding","alternatenames":["Val'ding","Walding","Вальдинг"],"latitude":"48.35209","longitude":"14.1576","feature_class":"P","feature_code":"PPLA3","country_code":"AT","cc2":"","admin1_code":"04","admin2_code":"416","admin3_code":"41626","admin4_code":"","population":"0","elevation":"","dem":"277","timezone":"Europe/Vienna","modification_date":"2011-12-20"},{"geonameid":"2762290","name":"Vorchdorf","asciiname":"Vorchdorf","alternatenames":["Vorchdorf"],"latitude":"48.00388","longitude":"13.92122","feature_class":"P","feature_code":"PPL","country_code":"AT","cc2":"","admin1_code":"04","admin2_code":"407","admin3_code":"40720","admin4_code":"","population":"7455","elevation":"","dem":"410","timezone":"Europe/Vienna","modification_date":"2011-06-26"},{"geonameid":"2762341","name":"Vöcklamarkt","asciiname":"Vocklamarkt","alternatenames":["Fjoklamarkt","Vocklamarkt","Vocklamarkt-am Haushamerfeld","Vöcklamarkt","Vöcklamarkt-am Haushamerfeld","Фёкламаркт"],"latitude":"48.0025","longitude":"13.48383","feature_class":"P","feature_code":"PPLA3","country_code":"AT","cc2":"","admin1_code":"04","admin2_code":"417","admin3_code":"41747","admin4_code":"","population":"4869","elevation":"","dem":"488","timezone":"Europe/Vienna","modification_date":"2011-07-31"},{"geonameid":"2762343","name":"Vöcklabruck","asciiname":"Vocklabruck","alternatenames":["Feklabruk","Fjoklabruk","Féklabruk","Vocklabruck","Vöcklabruck","fu ke la bu lu ke","fwklabrwk","Феклабрук","Фёклабрук","فوکلابروک","ფეკლაბრუკი","弗克拉布魯克"],"latitude":"48.01667","longitude":"13.65","feature_class":"P","feature_code":"PPLA3","country_code":"AT","cc2":"","admin1_code":"04","admin2_code":"417","admin3_code":"41746","admin4_code":"","population":"11887","elevation":"","dem":"498","timezone":"Europe/Vienna","modification_date":"2011-07-31"},{"geonameid":"2762908","name":"Grünburg","asciiname":"Gruenburg","alternatenames":[""],"latitude":"47.97234","longitude":"14.26472","feature_class":"P","feature_code":"PPL","country_code":"AT","cc2":"","admin1_code":"04","admin2_code":"409","admin3_code":"40902","admin4_code":"","population":"3824","elevation":"365","dem":"359","timezone":"Europe/Vienna","modification_date":"2011-06-26"},{"geonameid":"2763160","name":"Ungenach","asciiname":"Ungenach","alternatenames":["Ungenach"],"latitude":"48.05","longitude":"13.61667","feature_class":"P","feature_code":"PPLA3","country_code":"AT","cc2":"","admin1_code":"04","admin2_code":"417","admin3_code":"41744","admin4_code":"","population":"0","elevation":"","dem":"509","timezone":"Europe/Vienna","modification_date":"2011-07-31"},{"geonameid":"2763176","name":"Ulrichsberg","asciiname":"Ulrichsberg","alternatenames":["Ul'rikhsberg","Ульрихсберг"],"latitude":"48.67498","longitude":"13.91049","feature_class":"P","feature_code":"PPL","country_code":"AT","cc2":"","admin1_code":"04","admin2_code":"413","admin3_code":"41342","admin4_code":"","population":"2997","elevation":"","dem":"630","timezone":"Europe/Vienna","modification_date":"2011-07-14"},{"geonameid":"2763423","name":"Traun","asciiname":"Traun","alternatenames":[""],"latitude":"48.22656","longitude":"14.23459","feature_class":"P","feature_code":"PPL","country_code":"AT","cc2":"","admin1_code":"04","admin2_code":"410","admin3_code":"41021","admin4_code":"","population":"23959","elevation":"","dem":"271","timezone":"Europe/Vienna","modification_date":"2011-06-28"},{"geonameid":"2763595","name":"Timelkam","asciiname":"Timelkam","alternatenames":[""],"latitude":"48.00394","longitude":"13.6076","feature_class":"P","feature_code":"PPLA3","country_code":"AT","cc2":"","admin1_code":"04","admin2_code":"417","admin3_code":"41743","admin4_code":"","population":"5855","elevation":"","dem":"446","timezone":"Europe/Vienna","modification_date":"2011-07-31"},{"geonameid":"2763614","name":"Tiefgraben","asciiname":"Tiefgraben","alternatenames":["Mondsee","Tiefgraben","Tifgraben","Тифграбен"],"latitude":"47.88333","longitude":"13.35","feature_class":"P","feature_code":"PPLA3","country_code":"AT","cc2":"","admin1_code":"04","admin2_code":"417","admin3_code":"41742","admin4_code":"","population":"0","elevation":"","dem":"869","timezone":"Europe/Vienna","modification_date":"2011-08-16"},{"geonameid":"2763742","name":"Thalheim bei Wels","asciiname":"Thalheim bei Wels","alternatenames":["Tal'khajm-Vel's","Thalheim","Thalheim bei Wels","Тальхайм-Вельс"],"latitude":"48.15","longitude":"14.03333","feature_class":"P","feature_code":"PPLA3","country_code":"AT","cc2":"AT","admin1_code":"04","admin2_code":"418","admin3_code":"41823","admin4_code":"","population":"0","elevation":"","dem":"339","timezone":"Europe/Vienna","modification_date":"2011-07-31"},{"geonameid":"2763797","name":"Ternberg","asciiname":"Ternberg","alternatenames":["Ternberg","Тернберг"],"latitude":"47.93333","longitude":"14.35","feature_class":"P","feature_code":"PPLA3","country_code":"AT","cc2":"","admin1_code":"04","admin2_code":"415","admin3_code":"41517","admin4_code":"","population":"0","elevation":"","dem":"357","timezone":"Europe/Vienna","modification_date":"2011-07-31"},{"geonameid":"2764354","name":"Steyregg","asciiname":"Steyregg","alternatenames":["Shtajreg","Штайрег"],"latitude":"48.28513","longitude":"14.36995","feature_class":"P","feature_code":"PPL","country_code":"AT","cc2":"","admin1_code":"04","admin2_code":"416","admin3_code":"41624","admin4_code":"","population":"4856","elevation":"","dem":"252","timezone":"Europe/Vienna","modification_date":"2011-06-28"},{"geonameid":"2764359","name":"Steyr","asciiname":"Steyr","alternatenames":["Gorad Shtajr","Shhajr","Shtajr","Stagier","Steiras","Steyer","Steyr","Steyr Stadt","ashtayr","shi tai er","shutaia","styyr","syutaieo","Šteiras","Στάγιερ","Горад Штайр","Штайр","Штајр","Щайр","שטייר","اشتایر","შტაირი","シュタイアー","施泰爾","슈타이어"],"latitude":"48.04274","longitude":"14.42127","feature_class":"P","feature_code":"PPLA3","country_code":"AT","cc2":"","admin1_code":"04","admin2_code":"402","admin3_code":"40201","admin4_code":"","population":"39566","elevation":"","dem":"285","timezone":"Europe/Vienna","modification_date":"2011-07-31"},{"geonameid":"2764443","name":"Steinhaus","asciiname":"Steinhaus","alternatenames":[""],"latitude":"48.11614","longitude":"14.0189","feature_class":"P","feature_code":"PPLA3","country_code":"AT","cc2":"","admin1_code":"04","admin2_code":"418","admin3_code":"41822","admin4_code":"","population":"0","elevation":"","dem":"375","timezone":"Europe/Vienna","modification_date":"2011-07-31"},{"geonameid":"2764527","name":"Steinbach am Attersee","asciiname":"Steinbach am Attersee","alternatenames":["Steinbach","Steinbach am Attersee"],"latitude":"47.83087","longitude":"13.54613","feature_class":"P","feature_code":"PPLA3","country_code":"AT","cc2":"AT","admin1_code":"04","admin2_code":"417","admin3_code":"41740","admin4_code":"","population":"0","elevation":"","dem":"475","timezone":"Europe/Vienna","modification_date":"2013-11-20"},{"geonameid":"2764721","name":"Stadl-Paura","asciiname":"Stadl-Paura","alternatenames":["Shtadl'-Paura","Stadl-Paura","Штадль-Паура"],"latitude":"48.08333","longitude":"13.86667","feature_class":"P","feature_code":"PPLA3","country_code":"AT","cc2":"","admin1_code":"04","admin2_code":"418","admin3_code":"41820","admin4_code":"","population":"0","elevation":"","dem":"360","timezone":"Europe/Vienna","modification_date":"2011-07-31"},{"geonameid":"2765080","name":"Sierning","asciiname":"Sierning","alternatenames":[""],"latitude":"48.04343","longitude":"14.30935","feature_class":"P","feature_code":"PPL","country_code":"AT","cc2":"","admin1_code":"04","admin2_code":"415","admin3_code":"41516","admin4_code":"","population":"8722","elevation":"","dem":"359","timezone":"Europe/Vienna","modification_date":"2011-06-28"},{"geonameid":"2765231","name":"Seewalchen","asciiname":"Seewalchen","alternatenames":[""],"latitude":"47.95246","longitude":"13.58382","feature_class":"P","feature_code":"PPL","country_code":"AT","cc2":"","admin1_code":"04","admin2_code":"417","admin3_code":"41739","admin4_code":"","population":"4959","elevation":"","dem":"493","timezone":"Europe/Vienna","modification_date":"2014-05-02"},{"geonameid":"2765508","name":"Schwanenstadt","asciiname":"Schwanenstadt","alternatenames":["Shvanenshtadt","Шваненштадт"],"latitude":"48.05537","longitude":"13.77505","feature_class":"P","feature_code":"PPLA3","country_code":"AT","cc2":"","admin1_code":"04","admin2_code":"417","admin3_code":"41738","admin4_code":"","population":"0","elevation":"","dem":"390","timezone":"Europe/Vienna","modification_date":"2011-07-31"},{"geonameid":"2765928","name":"Schlatt","asciiname":"Schlatt","alternatenames":[""],"latitude":"48.07177","longitude":"13.78904","feature_class":"P","feature_code":"PPLA3","country_code":"AT","cc2":"","admin1_code":"04","admin2_code":"417","admin3_code":"41736","admin4_code":"","population":"0","elevation":"","dem":"404","timezone":"Europe/Vienna","modification_date":"2011-07-31"},{"geonameid":"2765941","name":"Schlägl","asciiname":"Schlaegl","alternatenames":["Schlagl","Schlägl","Shlegl'","Шлегль"],"latitude":"48.63665","longitude":"13.9656","feature_class":"P","feature_code":"PPL","country_code":"AT","cc2":"AT","admin1_code":"04","admin2_code":"413","admin3_code":"41339","admin4_code":"","population":"1400","elevation":"","dem":"539","timezone":"Europe/Vienna","modification_date":"2013-06-04"},{"geonameid":"2766036","name":"Schenkenfelden","asciiname":"Schenkenfelden","alternatenames":["Schenkenfelden"],"latitude":"48.50273","longitude":"14.36188","feature_class":"P","feature_code":"PPLA3","country_code":"AT","cc2":"","admin1_code":"04","admin2_code":"416","admin3_code":"41622","admin4_code":"","population":"0","elevation":"","dem":"737","timezone":"Europe/Vienna","modification_date":"2011-07-31"},{"geonameid":"2766136","name":"Scharnstein","asciiname":"Scharnstein","alternatenames":["Scharnstein","Sharnshhajn","Sharnshtajn","sha en shi tai yin","Шарнштайн","Шарнщайн","沙恩施泰因"],"latitude":"47.90426","longitude":"13.96135","feature_class":"P","feature_code":"PPL","country_code":"AT","cc2":"","admin1_code":"04","admin2_code":"407","admin3_code":"40719","admin4_code":"","population":"4631","elevation":"","dem":"512","timezone":"Europe/Vienna","modification_date":"2011-06-26"},{"geonameid":"2766155","name":"Schärding","asciiname":"Scharding","alternatenames":["Scharding","Scharing","Schärding","Sherding","xie er ding","Шердинг","謝爾丁"],"latitude":"48.45294","longitude":"13.43722","feature_class":"P","feature_code":"PPL","country_code":"AT","cc2":"","admin1_code":"04","admin2_code":"414","admin3_code":"41422","admin4_code":"","population":"4919","elevation":"","dem":"319","timezone":"Europe/Vienna","modification_date":"2011-06-26"},{"geonameid":"2766309","name":"Sattledt","asciiname":"Sattledt","alternatenames":["Sattledt","Zattledt","sa te lei te","Заттледт","萨特勒特"],"latitude":"48.06667","longitude":"14.05","feature_class":"P","feature_code":"PPLA3","country_code":"AT","cc2":"","admin1_code":"04","admin2_code":"418","admin3_code":"41817","admin4_code":"","population":"0","elevation":"","dem":"399","timezone":"Europe/Vienna","modification_date":"2011-07-31"},{"geonameid":"2766340","name":"Sankt Wolfgang im Salzkammergut","asciiname":"Sankt Wolfgang im Salzkammergut","alternatenames":["Sankt Wolfgang","Sankt-Vol'fgang-im-Zal'ckammergut","Санкт-Вольфганг-им-Зальцкаммергут"],"latitude":"47.73932","longitude":"13.44666","feature_class":"P","feature_code":"PPL","country_code":"AT","cc2":"AT","admin1_code":"04","admin2_code":"407","admin3_code":"40717","admin4_code":"","population":"2794","elevation":"","dem":"556","timezone":"Europe/Vienna","modification_date":"2011-06-26"},{"geonameid":"2766372","name":"Sankt Ulrich bei Steyr","asciiname":"Sankt Ulrich bei Steyr","alternatenames":["Sankt Ulrich","Sankt-Ul'rikh-Shtajr","Санкт-Ульрих-Штайр"],"latitude":"48.02185","longitude":"14.42419","feature_class":"P","feature_code":"PPLA3","country_code":"AT","cc2":"AT","admin1_code":"04","admin2_code":"415","admin3_code":"41514","admin4_code":"","population":"0","elevation":"","dem":"375","timezone":"Europe/Vienna","modification_date":"2011-07-31"},{"geonameid":"2766539","name":"Sankt Marienkirchen bei Schärding","asciiname":"Sankt Marienkirchen bei Schaerding","alternatenames":["Sankt Marienkirchen","Sankt Marienkirchen bei Schaerding","Sankt Marienkirchen bei Schärding"],"latitude":"48.3871","longitude":"13.45078","feature_class":"P","feature_code":"PPL","country_code":"AT","cc2":"AT","admin1_code":"04","admin2_code":"414","admin3_code":"41419","admin4_code":"","population":"1844","elevation":"338","dem":"336","timezone":"Europe/Vienna","modification_date":"2013-04-11"},{"geonameid":"2766591","name":"Sankt Lorenz","asciiname":"Sankt Lorenz","alternatenames":[""],"latitude":"47.81667","longitude":"13.36667","feature_class":"P","feature_code":"PPLA3","country_code":"AT","cc2":"","admin1_code":"04","admin2_code":"417","admin3_code":"41735","admin4_code":"","population":"0","elevation":"","dem":"479","timezone":"Europe/Vienna","modification_date":"2011-07-31"},{"geonameid":"2766680","name":"Sankt Gotthard im Mühlkreis","asciiname":"Sankt Gotthard im Muhlkreis","alternatenames":["Sankt Gotthard","Sankt Gotthard im Muhlkreis","Sankt Gotthard im Mühlkreis"],"latitude":"48.3802","longitude":"14.13185","feature_class":"P","feature_code":"PPLA3","country_code":"AT","cc2":"AT","admin1_code":"04","admin2_code":"416","admin3_code":"41621","admin4_code":"","population":"0","elevation":"","dem":"468","timezone":"Europe/Vienna","modification_date":"2011-12-20"},{"geonameid":"2766692","name":"Sankt Georgen im Attergau","asciiname":"Sankt Georgen im Attergau","alternatenames":["Sankt Georgen","Sankt Georgen im Attergau","Sankt-Georgen-im-Attergau","Санкт-Георген-им-Аттергау"],"latitude":"47.93595","longitude":"13.48306","feature_class":"P","feature_code":"PPLA3","country_code":"AT","cc2":"","admin1_code":"04","admin2_code":"417","admin3_code":"41734","admin4_code":"","population":"4180","elevation":"","dem":"537","timezone":"Europe/Vienna","modification_date":"2011-07-31"},{"geonameid":"2766727","name":"Sankt Florian am Inn","asciiname":"Sankt Florian am Inn","alternatenames":["Sankt Florian","Sankt Florian am Inn","Sankt-Florian-am-Inn","Санкт-Флориан-ам-Инн"],"latitude":"48.44122","longitude":"13.44263","feature_class":"P","feature_code":"PPL","country_code":"AT","cc2":"AT","admin1_code":"04","admin2_code":"414","admin3_code":"41418","admin4_code":"","population":"3121","elevation":"","dem":"317","timezone":"Europe/Vienna","modification_date":"2011-06-26"},{"geonameid":"2766932","name":"Rutzenham","asciiname":"Rutzenham","alternatenames":[""],"latitude":"48.06076","longitude":"13.71883","feature_class":"P","feature_code":"PPLA3","country_code":"AT","cc2":"","admin1_code":"04","admin2_code":"417","admin3_code":"41733","admin4_code":"","population":"0","elevation":"","dem":"409","timezone":"Europe/Vienna","modification_date":"2011-07-31"},{"geonameid":"2766936","name":"Rüstorf","asciiname":"Rustorf","alternatenames":[""],"latitude":"48.04326","longitude":"13.78982","feature_class":"P","feature_code":"PPLA3","country_code":"AT","cc2":"","admin1_code":"04","admin2_code":"417","admin3_code":"41732","admin4_code":"","population":"0","elevation":"","dem":"378","timezone":"Europe/Vienna","modification_date":"2011-07-31"},{"geonameid":"2767471","name":"Ried im Innkreis","asciiname":"Ried im Innkreis","alternatenames":["Reid","Riad im Innkreis","Rid","Rid (Inkrajs)","Rid u Inkrajsu","Rid-im-Innkrajs","Ried","Ried im Innkreis","Rydas","li de yin ke rui si","ryd aym aynkrays","Рид","Рид (Инкрайс)","Рид у Инкрајсу","Рід-ім-Іннкрайс","رید ایم اینکرایس","რიდ-ინ-იმკრაისი","里德因克瑞斯"],"latitude":"48.21123","longitude":"13.48855","feature_class":"P","feature_code":"PPL","country_code":"AT","cc2":"","admin1_code":"04","admin2_code":"412","admin3_code":"41225","admin4_code":"","population":"11511","elevation":"","dem":"435","timezone":"Europe/Vienna","modification_date":"2011-07-01"},{"geonameid":"2767743","name":"Reichraming","asciiname":"Reichraming","alternatenames":["Reichraming"],"latitude":"47.88333","longitude":"14.45","feature_class":"P","feature_code":"PPLA3","country_code":"AT","cc2":"","admin1_code":"04","admin2_code":"415","admin3_code":"41512","admin4_code":"","population":"0","elevation":"","dem":"359","timezone":"Europe/Vienna","modification_date":"2011-07-31"},{"geonameid":"2767759","name":"Reichenthal","asciiname":"Reichenthal","alternatenames":["Reichenthal"],"latitude":"48.54286","longitude":"14.38471","feature_class":"P","feature_code":"PPLA3","country_code":"AT","cc2":"","admin1_code":"04","admin2_code":"416","admin3_code":"41620","admin4_code":"","population":"0","elevation":"","dem":"685","timezone":"Europe/Vienna","modification_date":"2011-07-31"},{"geonameid":"2767773","name":"Reichenau im Mühlkreis","asciiname":"Reichenau im Muhlkreis","alternatenames":["Reichenau","Reichenau im Muhlkreis","Reichenau im Muhlkreise","Reichenau im Mühlkreis","Reichenau im Mühlkreise"],"latitude":"48.45704","longitude":"14.34875","feature_class":"P","feature_code":"PPLA3","country_code":"AT","cc2":"AT","admin1_code":"04","admin2_code":"416","admin3_code":"41619","admin4_code":"","population":"0","elevation":"","dem":"678","timezone":"Europe/Vienna","modification_date":"2011-12-20"},{"geonameid":"2767807","name":"Redlham","asciiname":"Redlham","alternatenames":["Redlham"],"latitude":"48.01667","longitude":"13.73333","feature_class":"P","feature_code":"PPLA3","country_code":"AT","cc2":"","admin1_code":"04","admin2_code":"417","admin3_code":"41730","admin4_code":"","population":"0","elevation":"","dem":"408","timezone":"Europe/Vienna","modification_date":"2011-07-31"},{"geonameid":"2767809","name":"Redleiten","asciiname":"Redleiten","alternatenames":[""],"latitude":"48.06667","longitude":"13.55","feature_class":"P","feature_code":"PPLA3","country_code":"AT","cc2":"","admin1_code":"04","admin2_code":"417","admin3_code":"41729","admin4_code":"","population":"0","elevation":"","dem":"565","timezone":"Europe/Vienna","modification_date":"2011-07-31"},{"geonameid":"2768263","name":"Pühret","asciiname":"Puhret","alternatenames":[""],"latitude":"48.03333","longitude":"13.71667","feature_class":"P","feature_code":"PPLA3","country_code":"AT","cc2":"","admin1_code":"04","admin2_code":"417","admin3_code":"41728","admin4_code":"","population":"0","elevation":"","dem":"483","timezone":"Europe/Vienna","modification_date":"2011-07-31"},{"geonameid":"2768738","name":"Pitzenberg","asciiname":"Pitzenberg","alternatenames":[""],"latitude":"48.07361","longitude":"13.72484","feature_class":"P","feature_code":"PPLA3","country_code":"AT","cc2":"","admin1_code":"04","admin2_code":"417","admin3_code":"41725","admin4_code":"","population":"0","elevation":"","dem":"443","timezone":"Europe/Vienna","modification_date":"2011-07-31"},{"geonameid":"2768934","name":"Pfarrkirchen im Mühlkreis","asciiname":"Pfarrkirchen im Muehlkreis","alternatenames":["Pfarrkirchen"],"latitude":"48.50375","longitude":"13.82638","feature_class":"P","feature_code":"PPL","country_code":"AT","cc2":"AT","admin1_code":"04","admin2_code":"413","admin3_code":"41327","admin4_code":"","population":"1551","elevation":"817","dem":"812","timezone":"Europe/Vienna","modification_date":"2011-07-14"},{"geonameid":"2768935","name":"Pfarrkirchen bei Bad Hall","asciiname":"Pfarrkirchen bei Bad Hall","alternatenames":["Pfarrkirchen","Pfarrkirchen bei Bad Hall"],"latitude":"48.03046","longitude":"14.19914","feature_class":"P","feature_code":"PPLA3","country_code":"AT","cc2":"AT","admin1_code":"04","admin2_code":"415","admin3_code":"41511","admin4_code":"","population":"0","elevation":"","dem":"381","timezone":"Europe/Vienna","modification_date":"2011-07-31"},{"geonameid":"2768961","name":"Pfaffing","asciiname":"Pfaffing","alternatenames":[""],"latitude":"48.018","longitude":"13.47507","feature_class":"P","feature_code":"PPLA3","country_code":"AT","cc2":"","admin1_code":"04","admin2_code":"417","admin3_code":"41723","admin4_code":"","population":"0","elevation":"","dem":"539","timezone":"Europe/Vienna","modification_date":"2011-07-31"},{"geonameid":"2769105","name":"Perg","asciiname":"Perg","alternatenames":["Perg","pei er ge","Перг","პერგი","佩爾格"],"latitude":"48.25","longitude":"14.63333","feature_class":"P","feature_code":"PPLA2","country_code":"AT","cc2":"","admin1_code":"04","admin2_code":"411","admin3_code":"41116","admin4_code":"","population":"7644","elevation":"","dem":"252","timezone":"Europe/Vienna","modification_date":"2014-02-07"},{"geonameid":"2769131","name":"Pennewang","asciiname":"Pennewang","alternatenames":["Pennewang"],"latitude":"48.13333","longitude":"13.85","feature_class":"P","feature_code":"PPLA3","country_code":"AT","cc2":"","admin1_code":"04","admin2_code":"418","admin3_code":"41815","admin4_code":"","population":"0","elevation":"","dem":"390","timezone":"Europe/Vienna","modification_date":"2011-07-31"},{"geonameid":"2769225","name":"Pasching","asciiname":"Pasching","alternatenames":["Pasching"],"latitude":"48.25931","longitude":"14.20369","feature_class":"P","feature_code":"PPL","country_code":"AT","cc2":"","admin1_code":"04","admin2_code":"410","admin3_code":"41017","admin4_code":"","population":"6143","elevation":"","dem":"294","timezone":"Europe/Vienna","modification_date":"2011-06-28"},{"geonameid":"2769342","name":"Ottensheim","asciiname":"Ottensheim","alternatenames":["Ottensheim","Ottenskhajm","ao teng si hai mu","Оттенсхайм","奥滕斯海姆"],"latitude":"48.33246","longitude":"14.17425","feature_class":"P","feature_code":"PPLA3","country_code":"AT","cc2":"","admin1_code":"04","admin2_code":"416","admin3_code":"41617","admin4_code":"","population":"0","elevation":"","dem":"269","timezone":"Europe/Vienna","modification_date":"2011-07-31"},{"geonameid":"2769344","name":"Ottenschlag im Mühlkreis","asciiname":"Ottenschlag im Muhlkreis","alternatenames":["Ottenschlag","Ottenschlag im Muhlkreis","Ottenschlag im Mühlkreis"],"latitude":"48.46632","longitude":"14.38471","feature_class":"P","feature_code":"PPLA3","country_code":"AT","cc2":"AT","admin1_code":"04","admin2_code":"416","admin3_code":"41616","admin4_code":"","population":"0","elevation":"","dem":"808","timezone":"Europe/Vienna","modification_date":"2011-12-20"},{"geonameid":"2769473","name":"Offenhausen","asciiname":"Offenhausen","alternatenames":["Offenhausen"],"latitude":"48.15","longitude":"13.83333","feature_class":"P","feature_code":"PPLA3","country_code":"AT","cc2":"","admin1_code":"04","admin2_code":"418","admin3_code":"41814","admin4_code":"","population":"0","elevation":"","dem":"382","timezone":"Europe/Vienna","modification_date":"2011-07-31"},{"geonameid":"2769624","name":"Oberwang","asciiname":"Oberwang","alternatenames":["Oberwang"],"latitude":"47.86667","longitude":"13.43333","feature_class":"P","feature_code":"PPLA3","country_code":"AT","cc2":"","admin1_code":"04","admin2_code":"417","admin3_code":"41721","admin4_code":"","population":"0","elevation":"","dem":"573","timezone":"Europe/Vienna","modification_date":"2011-07-31"},{"geonameid":"2769865","name":"Oberneukirchen","asciiname":"Oberneukirchen","alternatenames":["Oberneukirchen","Obernojkirkhen","Обернойкирхен"],"latitude":"48.45","longitude":"14.21667","feature_class":"P","feature_code":"PPLA3","country_code":"AT","cc2":"","admin1_code":"04","admin2_code":"416","admin3_code":"41615","admin4_code":"","population":"0","elevation":"","dem":"824","timezone":"Europe/Vienna","modification_date":"2011-07-31"},{"geonameid":"2769873","name":"Oberndorf bei Schwanenstadt","asciiname":"Oberndorf bei Schwanenstadt","alternatenames":[""],"latitude":"48.05559","longitude":"13.75677","feature_class":"P","feature_code":"PPLA3","country_code":"AT","cc2":"","admin1_code":"04","admin2_code":"417","admin3_code":"41720","admin4_code":"","population":"0","elevation":"","dem":"392","timezone":"Europe/Vienna","modification_date":"2011-07-31"},{"geonameid":"2770042","name":"Oberhofen am Irrsee","asciiname":"Oberhofen am Irrsee","alternatenames":["Oberhofen","Oberhofen am Irrsee"],"latitude":"47.95","longitude":"13.3","feature_class":"P","feature_code":"PPLA3","country_code":"AT","cc2":"AT","admin1_code":"04","admin2_code":"417","admin3_code":"41719","admin4_code":"","population":"0","elevation":"","dem":"565","timezone":"Europe/Vienna","modification_date":"2011-07-31"},{"geonameid":"2770514","name":"Niederthalheim","asciiname":"Niederthalheim","alternatenames":["Niederthalheim"],"latitude":"48.1","longitude":"13.75","feature_class":"P","feature_code":"PPLA3","country_code":"AT","cc2":"","admin1_code":"04","admin2_code":"417","admin3_code":"41717","admin4_code":"","population":"0","elevation":"","dem":"450","timezone":"Europe/Vienna","modification_date":"2011-07-31"},{"geonameid":"2770734","name":"Neukirchen bei Lambach","asciiname":"Neukirchen bei Lambach","alternatenames":["Neukirchen","Neukirchen bei Lambach"],"latitude":"48.1","longitude":"13.81667","feature_class":"P","feature_code":"PPLA3","country_code":"AT","cc2":"AT","admin1_code":"04","admin2_code":"418","admin3_code":"41813","admin4_code":"","population":"0","elevation":"","dem":"394","timezone":"Europe/Vienna","modification_date":"2011-07-31"},{"geonameid":"2770736","name":"Neukirchen an der Vöckla","asciiname":"Neukirchen an der Vockla","alternatenames":["Neukirchen","Neukirchen an der Vockla","Neukirchen an der Vöckla","Nojkirkhen-an-der-Fjokla","Нойкирхен-ан-дер-Фёкла"],"latitude":"48.03333","longitude":"13.53333","feature_class":"P","feature_code":"PPLA3","country_code":"AT","cc2":"AT","admin1_code":"04","admin2_code":"417","admin3_code":"41716","admin4_code":"","population":"0","elevation":"","dem":"500","timezone":"Europe/Vienna","modification_date":"2011-07-31"},{"geonameid":"2771277","name":"Mondsee","asciiname":"Mondsee","alternatenames":["Mondzee","Мондзее"],"latitude":"47.85648","longitude":"13.34908","feature_class":"P","feature_code":"PPLA3","country_code":"AT","cc2":"","admin1_code":"04","admin2_code":"417","admin3_code":"41715","admin4_code":"","population":"3307","elevation":"493","dem":"496","timezone":"Europe/Vienna","modification_date":"2011-07-31"},{"geonameid":"2771619","name":"Micheldorf in Oberösterreich","asciiname":"Micheldorf in Oberoesterreich","alternatenames":["Micheldorf","Mikhel'dorf","Mikhel'dorf (Verkhnjaja Avstrija)","shang ao de li zhou mi xie er duo fu","Михельдорф","Михельдорф (Верхняя Австрия)","上奧地利州米歇爾多夫"],"latitude":"47.87764","longitude":"14.13357","feature_class":"P","feature_code":"PPL","country_code":"AT","cc2":"","admin1_code":"04","admin2_code":"409","admin3_code":"40908","admin4_code":"","population":"5902","elevation":"465","dem":"459","timezone":"Europe/Vienna","modification_date":"2011-06-28"},{"geonameid":"2771867","name":"Sankt Florian","asciiname":"Sankt Florian","alternatenames":["Markt Sankt Florian","Markt-Sankt-Florian","Sankt Florian","Маркт-Санкт-Флориан"],"latitude":"48.20568","longitude":"14.37836","feature_class":"P","feature_code":"PPL","country_code":"AT","cc2":"AT","admin1_code":"04","admin2_code":"410","admin3_code":"41013","admin4_code":"","population":"5913","elevation":"","dem":"285","timezone":"Europe/Vienna","modification_date":"2011-06-28"},{"geonameid":"2771918","name":"Maria Neustift","asciiname":"Maria Neustift","alternatenames":["Maria Neustift"],"latitude":"47.93333","longitude":"14.6","feature_class":"P","feature_code":"PPLA3","country_code":"AT","cc2":"","admin1_code":"04","admin2_code":"415","admin3_code":"41510","admin4_code":"","population":"0","elevation":"","dem":"591","timezone":"Europe/Vienna","modification_date":"2011-07-31"},{"geonameid":"2771962","name":"Marchtrenk","asciiname":"Marchtrenk","alternatenames":[""],"latitude":"48.18333","longitude":"14.11667","feature_class":"P","feature_code":"PPLA3","country_code":"AT","cc2":"","admin1_code":"04","admin2_code":"418","admin3_code":"41812","admin4_code":"","population":"11666","elevation":"","dem":"296","timezone":"Europe/Vienna","modification_date":"2011-07-31"},{"geonameid":"2771998","name":"Manning","asciiname":"Manning","alternatenames":["Manning"],"latitude":"48.08851","longitude":"13.66682","feature_class":"P","feature_code":"PPLA3","country_code":"AT","cc2":"","admin1_code":"04","admin2_code":"417","admin3_code":"41714","admin4_code":"","population":"0","elevation":"","dem":"509","timezone":"Europe/Vienna","modification_date":"2011-07-31"},{"geonameid":"2772247","name":"Losenstein","asciiname":"Losenstein","alternatenames":["Losenstein"],"latitude":"47.92428","longitude":"14.43672","feature_class":"P","feature_code":"PPLA3","country_code":"AT","cc2":"","admin1_code":"04","admin2_code":"415","admin3_code":"41509","admin4_code":"","population":"0","elevation":"","dem":"399","timezone":"Europe/Vienna","modification_date":"2011-09-08"},{"geonameid":"2772400","name":"Linz","asciiname":"Linz","alternatenames":["Gorad Linc","LNZ","Lentia","Linc","Linca","Lincas","Linec","Lints","Linz","lin ci","lincheu","lins","lintsa","lintsi","lnz","lynts","lyntz","lynz","rintsu","Λιντς","Горад Лінц","Линц","Лінц","Լինց","לינץ","لنز","لينتز","لینتس","लिंत्स","ลินซ์","ლინცი","リンツ","林茨","린츠"],"latitude":"48.30639","longitude":"14.28611","feature_class":"P","feature_code":"PPLA","country_code":"AT","cc2":"","admin1_code":"04","admin2_code":"401","admin3_code":"40101","admin4_code":"","population":"181162","elevation":"266","dem":"268","timezone":"Europe/Vienna","modification_date":"2014-05-02"},{"geonameid":"2772635","name":"Leonding","asciiname":"Leonding","alternatenames":["Leonding","lai weng ding","leondingi","li an ding","lywdyng","reondinku","Леондинг","לאונדינג","لئودینگ","ლეონდინგი","レオンディンク","利安定","萊翁丁"],"latitude":"48.27965","longitude":"14.2533","feature_class":"P","feature_code":"PPLA3","country_code":"AT","cc2":"","admin1_code":"04","admin2_code":"410","admin3_code":"41012","admin4_code":"","population":"22736","elevation":"","dem":"289","timezone":"Europe/Vienna","modification_date":"2014-05-02"},{"geonameid":"2772653","name":"Lenzing","asciiname":"Lenzing","alternatenames":[""],"latitude":"47.97326","longitude":"13.60846","feature_class":"P","feature_code":"PPLA3","country_code":"AT","cc2":"","admin1_code":"04","admin2_code":"417","admin3_code":"41713","admin4_code":"","population":"5044","elevation":"","dem":"485","timezone":"Europe/Vienna","modification_date":"2011-07-31"},{"geonameid":"2772833","name":"Laussa","asciiname":"Laussa","alternatenames":["Lausa","Laussa"],"latitude":"47.95","longitude":"14.45","feature_class":"P","feature_code":"PPLA3","country_code":"AT","cc2":"AT","admin1_code":"04","admin2_code":"415","admin3_code":"41508","admin4_code":"","population":"0","elevation":"","dem":"492","timezone":"Europe/Vienna","modification_date":"2011-07-31"},{"geonameid":"2773110","name":"Lambach","asciiname":"Lambach","alternatenames":[""],"latitude":"48.09276","longitude":"13.87453","feature_class":"P","feature_code":"PPLA3","country_code":"AT","cc2":"","admin1_code":"04","admin2_code":"418","admin3_code":"41811","admin4_code":"","population":"0","elevation":"","dem":"367","timezone":"Europe/Vienna","modification_date":"2011-07-31"},{"geonameid":"2773215","name":"Laakirchen","asciiname":"Laakirchen","alternatenames":[""],"latitude":"47.98188","longitude":"13.82166","feature_class":"P","feature_code":"PPL","country_code":"AT","cc2":"","admin1_code":"04","admin2_code":"407","admin3_code":"40711","admin4_code":"","population":"9569","elevation":"","dem":"439","timezone":"Europe/Vienna","modification_date":"2011-06-26"},{"geonameid":"2773493","name":"Bad Kreuzen","asciiname":"Bad Kreuzen","alternatenames":[""],"latitude":"48.26737","longitude":"14.80648","feature_class":"P","feature_code":"PPL","country_code":"AT","cc2":"","admin1_code":"04","admin2_code":"411","admin3_code":"41108","admin4_code":"","population":"2361","elevation":"","dem":"475","timezone":"Europe/Vienna","modification_date":"2011-06-28"},{"geonameid":"2773538","name":"Kremsmünster","asciiname":"Kremsmunster","alternatenames":["Cremifanum","Kremsmjunster","Kremsmunster","Kremsmünster","ke lei mu si ming si te","Кремсмюнстер","克雷姆斯明斯特"],"latitude":"48.0529","longitude":"14.12919","feature_class":"P","feature_code":"PPL","country_code":"AT","cc2":"","admin1_code":"04","admin2_code":"409","admin3_code":"40907","admin4_code":"","population":"6626","elevation":"","dem":"344","timezone":"Europe/Vienna","modification_date":"2011-06-28"},{"geonameid":"2773964","name":"Kleinzell im Mühlkreis","asciiname":"Kleinzell im Muehlkreis","alternatenames":["Kleinzel","Kleinzell im Muhlkreis","Kleinzell im Mühlkreis"],"latitude":"48.45585","longitude":"13.99195","feature_class":"P","feature_code":"PPL","country_code":"AT","cc2":"AT","admin1_code":"04","admin2_code":"413","admin3_code":"41316","admin4_code":"","population":"1448","elevation":"548","dem":"546","timezone":"Europe/Vienna","modification_date":"2011-07-11"},{"geonameid":"2774369","name":"Kirchschlag bei Linz","asciiname":"Kirchschlag bei Linz","alternatenames":["Kirchschlag","Kirchschlag bei Linz"],"latitude":"48.41149","longitude":"14.27656","feature_class":"P","feature_code":"PPLA3","country_code":"AT","cc2":"AT","admin1_code":"04","admin2_code":"416","admin3_code":"41613","admin4_code":"","population":"0","elevation":"","dem":"893","timezone":"Europe/Vienna","modification_date":"2011-12-19"},{"geonameid":"2775235","name":"Innerschwand","asciiname":"Innerschwand","alternatenames":["Innerschwand"],"latitude":"47.83333","longitude":"13.4","feature_class":"P","feature_code":"PPLA3","country_code":"AT","cc2":"","admin1_code":"04","admin2_code":"417","admin3_code":"41712","admin4_code":"","population":"0","elevation":"","dem":"483","timezone":"Europe/Vienna","modification_date":"2011-07-31"},{"geonameid":"2775497","name":"Hörsching","asciiname":"Horsching","alternatenames":["Hoersching","Khjorshing","he er xing","Хёршинг","赫爾興"],"latitude":"48.22627","longitude":"14.17786","feature_class":"P","feature_code":"PPL","country_code":"AT","cc2":"","admin1_code":"04","admin2_code":"410","admin3_code":"41007","admin4_code":"","population":"5312","elevation":"","dem":"291","timezone":"Europe/Vienna","modification_date":"2011-06-28"},{"geonameid":"2775571","name":"Holzhausen","asciiname":"Holzhausen","alternatenames":[""],"latitude":"48.22296","longitude":"14.09683","feature_class":"P","feature_code":"PPLA3","country_code":"AT","cc2":"","admin1_code":"04","admin2_code":"418","admin3_code":"41809","admin4_code":"","population":"0","elevation":"","dem":"328","timezone":"Europe/Vienna","modification_date":"2013-02-07"},{"geonameid":"2776467","name":"Herzogsdorf","asciiname":"Herzogsdorf","alternatenames":["Herzogsdorf","Khercogsdorf","Херцогсдорф"],"latitude":"48.43011","longitude":"14.1128","feature_class":"P","feature_code":"PPLA3","country_code":"AT","cc2":"","admin1_code":"04","admin2_code":"416","admin3_code":"41612","admin4_code":"","population":"0","elevation":"","dem":"584","timezone":"Europe/Vienna","modification_date":"2011-07-31"},{"geonameid":"2776531","name":"Hellmonsödt","asciiname":"Hellmonsodt","alternatenames":["Hellmonsodt","Hellmonsödt"],"latitude":"48.43333","longitude":"14.3","feature_class":"P","feature_code":"PPLA3","country_code":"AT","cc2":"","admin1_code":"04","admin2_code":"416","admin3_code":"41611","admin4_code":"","population":"0","elevation":"","dem":"819","timezone":"Europe/Vienna","modification_date":"2011-07-31"},{"geonameid":"2777041","name":"Haibach im Mühlkreis","asciiname":"Haibach im Muhlkreis","alternatenames":["Haibach","Haibach im Muhlkreis","Haibach im Mühlkreis"],"latitude":"48.44429","longitude":"14.34411","feature_class":"P","feature_code":"PPLA3","country_code":"AT","cc2":"AT","admin1_code":"04","admin2_code":"416","admin3_code":"41610","admin4_code":"","population":"0","elevation":"","dem":"816","timezone":"Europe/Vienna","modification_date":"2011-12-20"},{"geonameid":"2777258","name":"Gunskirchen","asciiname":"Gunskirchen","alternatenames":[""],"latitude":"48.13333","longitude":"13.95","feature_class":"P","feature_code":"PPLA3","country_code":"AT","cc2":"","admin1_code":"04","admin2_code":"418","admin3_code":"41808","admin4_code":"","population":"0","elevation":"","dem":"345","timezone":"Europe/Vienna","modification_date":"2011-07-31"},{"geonameid":"2777459","name":"Grünau im Almtal","asciiname":"Gruenau im Almtal","alternatenames":["Gmunden","Grjunau","Grunau","Grünau","ge lu nao","Грюнау","格呂瑙"],"latitude":"47.85493","longitude":"13.95573","feature_class":"P","feature_code":"PPL","country_code":"AT","cc2":"AT","admin1_code":"04","admin2_code":"407","admin3_code":"40707","admin4_code":"","population":"2135","elevation":"528","dem":"516","timezone":"Europe/Vienna","modification_date":"2011-06-26"},{"geonameid":"2777972","name":"Grieskirchen","asciiname":"Grieskirchen","alternatenames":["Griaskircha","Grieskirchen","Griskirkhen","ge li si ji xing","Грискирхен","格里斯基兴"],"latitude":"48.23333","longitude":"13.83333","feature_class":"P","feature_code":"PPLA2","country_code":"AT","cc2":"","admin1_code":"04","admin2_code":"408","admin3_code":"40808","admin4_code":"","population":"4766","elevation":"","dem":"334","timezone":"Europe/Vienna","modification_date":"2014-02-07"},{"geonameid":"2778133","name":"Gramastetten","asciiname":"Gramastetten","alternatenames":["Gramashtetten","Грамаштеттен"],"latitude":"48.38028","longitude":"14.19185","feature_class":"P","feature_code":"PPLA3","country_code":"AT","cc2":"","admin1_code":"04","admin2_code":"416","admin3_code":"41609","admin4_code":"","population":"0","elevation":"","dem":"526","timezone":"Europe/Vienna","modification_date":"2011-07-31"},{"geonameid":"2778376","name":"Goldwörth","asciiname":"Goldworth","alternatenames":["Goldworth","Goldwörth"],"latitude":"48.32664","longitude":"14.10112","feature_class":"P","feature_code":"PPLA3","country_code":"AT","cc2":"","admin1_code":"04","admin2_code":"416","admin3_code":"41608","admin4_code":"","population":"0","elevation":"","dem":"259","timezone":"Europe/Vienna","modification_date":"2011-12-20"},{"geonameid":"2778436","name":"Gmunden","asciiname":"Gmunden","alternatenames":["Gmunden","Gmunden an der Traun","Gmundn","ge meng deng","geumunden","gmundeni","gmwdn","gmwndn","gumunden","Гмунден","גמונדן","گمودن","გმუნდენი","グムンデン","格蒙登","그문덴"],"latitude":"47.91839","longitude":"13.79933","feature_class":"P","feature_code":"PPL","country_code":"AT","cc2":"","admin1_code":"04","admin2_code":"407","admin3_code":"40705","admin4_code":"","population":"13287","elevation":"","dem":"434","timezone":"Europe/Vienna","modification_date":"2013-11-19"},{"geonameid":"2778843","name":"Garsten","asciiname":"Garsten","alternatenames":[""],"latitude":"48.0224","longitude":"14.40747","feature_class":"P","feature_code":"PPLA3","country_code":"AT","cc2":"","admin1_code":"04","admin2_code":"415","admin3_code":"41506","admin4_code":"","population":"6657","elevation":"300","dem":"294","timezone":"Europe/Vienna","modification_date":"2011-07-31"},{"geonameid":"2778929","name":"Gampern","asciiname":"Gampern","alternatenames":[""],"latitude":"47.98745","longitude":"13.55927","feature_class":"P","feature_code":"PPLA3","country_code":"AT","cc2":"","admin1_code":"04","admin2_code":"417","admin3_code":"41711","admin4_code":"","population":"0","elevation":"","dem":"507","timezone":"Europe/Vienna","modification_date":"2011-07-31"},{"geonameid":"2778966","name":"Gallneukirchen","asciiname":"Gallneukirchen","alternatenames":["Gaineikircha","Gal'nojkirkhen","Gåineikircha","jia er nuo yi ji xing","Гальнойкирхен","加爾諾伊基興"],"latitude":"48.35363","longitude":"14.41604","feature_class":"P","feature_code":"PPLA3","country_code":"AT","cc2":"","admin1_code":"04","admin2_code":"416","admin3_code":"41607","admin4_code":"","population":"6282","elevation":"","dem":"339","timezone":"Europe/Vienna","modification_date":"2011-07-31"},{"geonameid":"2779048","name":"Gaflenz","asciiname":"Gaflenz","alternatenames":["Gaflenz"],"latitude":"47.88333","longitude":"14.71667","feature_class":"P","feature_code":"PPLA3","country_code":"AT","cc2":"","admin1_code":"04","admin2_code":"415","admin3_code":"41505","admin4_code":"","population":"0","elevation":"","dem":"500","timezone":"Europe/Vienna","modification_date":"2011-07-31"},{"geonameid":"2779275","name":"Freistadt","asciiname":"Freistadt","alternatenames":["Frajshhat","Frajshtadt","Freistadt","fu lai shi ta te","Фрайштадт","Фрайщат","弗賴施塔特"],"latitude":"48.51103","longitude":"14.50453","feature_class":"P","feature_code":"PPL","country_code":"AT","cc2":"","admin1_code":"04","admin2_code":"406","admin3_code":"40601","admin4_code":"","population":"7574","elevation":"","dem":"565","timezone":"Europe/Vienna","modification_date":"2011-06-26"},{"geonameid":"2779378","name":"Frankenmarkt","asciiname":"Frankenmarkt","alternatenames":["Frankenmarkt","Франкенмаркт"],"latitude":"47.98333","longitude":"13.41667","feature_class":"P","feature_code":"PPLA3","country_code":"AT","cc2":"","admin1_code":"04","admin2_code":"417","admin3_code":"41710","admin4_code":"","population":"3581","elevation":"536","dem":"534","timezone":"Europe/Vienna","modification_date":"2011-07-31"},{"geonameid":"2779380","name":"Frankenburg","asciiname":"Frankenburg","alternatenames":[""],"latitude":"48.06844","longitude":"13.49065","feature_class":"P","feature_code":"PPL","country_code":"AT","cc2":"","admin1_code":"04","admin2_code":"417","admin3_code":"41709","admin4_code":"","population":"5162","elevation":"","dem":"515","timezone":"Europe/Vienna","modification_date":"2014-05-02"},{"geonameid":"2779424","name":"Fornach","asciiname":"Fornach","alternatenames":[""],"latitude":"48.02277","longitude":"13.42941","feature_class":"P","feature_code":"PPLA3","country_code":"AT","cc2":"","admin1_code":"04","admin2_code":"417","admin3_code":"41708","admin4_code":"","population":"0","elevation":"","dem":"562","timezone":"Europe/Vienna","modification_date":"2011-07-31"},{"geonameid":"2779672","name":"Feldkirchen an der Donau","asciiname":"Feldkirchen an der Donau","alternatenames":["Fel'dkirkhen-an-der-Donau","Feldkirchen","Feldkirchen a. d. Donau","Feldkirchen an der Donau","Фельдкирхен-ан-дер-Донау"],"latitude":"48.34524","longitude":"14.05134","feature_class":"P","feature_code":"PPLA3","country_code":"AT","cc2":"","admin1_code":"04","admin2_code":"416","admin3_code":"41606","admin4_code":"","population":"5286","elevation":"","dem":"266","timezone":"Europe/Vienna","modification_date":"2013-10-26"},{"geonameid":"2780048","name":"Enns","asciiname":"Enns","alternatenames":["Enns"],"latitude":"48.21346","longitude":"14.47612","feature_class":"P","feature_code":"PPL","country_code":"AT","cc2":"","admin1_code":"04","admin2_code":"410","admin3_code":"41005","admin4_code":"","population":"10816","elevation":"","dem":"268","timezone":"Europe/Vienna","modification_date":"2011-06-28"},{"geonameid":"2780057","name":"Engerwitzdorf","asciiname":"Engerwitzdorf","alternatenames":[""],"latitude":"48.34507","longitude":"14.44204","feature_class":"P","feature_code":"PPLA3","country_code":"AT","cc2":"","admin1_code":"04","admin2_code":"416","admin3_code":"41605","admin4_code":"","population":"8510","elevation":"","dem":"322","timezone":"Europe/Vienna","modification_date":"2011-07-31"},{"geonameid":"2780250","name":"Eidenberg","asciiname":"Eidenberg","alternatenames":[""],"latitude":"48.39439","longitude":"14.23313","feature_class":"P","feature_code":"PPLA3","country_code":"AT","cc2":"","admin1_code":"04","admin2_code":"416","admin3_code":"41604","admin4_code":"","population":"0","elevation":"","dem":"688","timezone":"Europe/Vienna","modification_date":"2011-12-20"},{"geonameid":"2780397","name":"Edt bei Lambach","asciiname":"Edt bei Lambach","alternatenames":["Edt","Edt bei Lambach"],"latitude":"48.11667","longitude":"13.88333","feature_class":"P","feature_code":"PPLA3","country_code":"AT","cc2":"AT","admin1_code":"04","admin2_code":"418","admin3_code":"41806","admin4_code":"","population":"0","elevation":"","dem":"390","timezone":"Europe/Vienna","modification_date":"2011-07-31"},{"geonameid":"2780547","name":"Ebensee","asciiname":"Ebensee","alternatenames":["Ebensee","Ebenzee","Ehbenze","Ehbenzee","Emsee","ai ben sai","Ебензее","Эбензе","Эбензее","埃本塞"],"latitude":"47.80716","longitude":"13.779","feature_class":"P","feature_code":"PPL","country_code":"AT","cc2":"","admin1_code":"04","admin2_code":"407","admin3_code":"40704","admin4_code":"","population":"8376","elevation":"","dem":"423","timezone":"Europe/Vienna","modification_date":"2011-06-26"},{"geonameid":"2781049","name":"Desselbrunn","asciiname":"Desselbrunn","alternatenames":["Desselbrunn"],"latitude":"48.01667","longitude":"13.76667","feature_class":"P","feature_code":"PPLA3","country_code":"AT","cc2":"","admin1_code":"04","admin2_code":"417","admin3_code":"41707","admin4_code":"","population":"0","elevation":"","dem":"424","timezone":"Europe/Vienna","modification_date":"2011-07-31"},{"geonameid":"2781224","name":"Buchkirchen","asciiname":"Buchkirchen","alternatenames":["Buchkirchen","Bukhkirkhen","Бухкирхен"],"latitude":"48.22427","longitude":"14.02242","feature_class":"P","feature_code":"PPLA3","country_code":"AT","cc2":"","admin1_code":"04","admin2_code":"418","admin3_code":"41804","admin4_code":"","population":"0","elevation":"","dem":"337","timezone":"Europe/Vienna","modification_date":"2011-07-31"},{"geonameid":"2781520","name":"Braunau am Inn","asciiname":"Braunau am Inn","alternatenames":["Braunau","Braunau Inni aeaeres","Braunau Inni ääres","Braunau am Inn","Braunau na In","Braunau na Innu","Braunau na Inu","Braunau prie Ino","Braunau-am-Inn","Braunau-na-Inni","Braunava pie Innas","Braunavia","beulaunauam-in","brawnaw am an","inis braunau","yin he pan bu lao nao","Браунау на Ин","Браунау на Ину","Браунау-ам-Инн","Браунау-на-Інні","בראונאו אם אין","בראונאו-אם אין","بران‌آئو ام این","براوناو آم إن","ინის ბრაუნაუ","ブラウナウ・アム・イン","因河畔布劳瑙","브라우나우암인"],"latitude":"48.25628","longitude":"13.04343","feature_class":"P","feature_code":"PPL","country_code":"AT","cc2":"","admin1_code":"04","admin2_code":"404","admin3_code":"40404","admin4_code":"","population":"16403","elevation":"","dem":"350","timezone":"Europe/Vienna","modification_date":"2011-06-26"},{"geonameid":"2782042","name":"Bad Wimsbach-Neydharting","asciiname":"Bad Wimsbach-Neydharting","alternatenames":["Bad Neidharting","Bad Wimsbach-Neydharting","Bad-Vimsbakh-Najdkharting","Neidharting","Neydharting","Wimsbach","Wunsbach","Бад-Вимсбах-Найдхартинг"],"latitude":"48.06667","longitude":"13.9","feature_class":"P","feature_code":"PPLA3","country_code":"AT","cc2":"AT","admin1_code":"04","admin2_code":"418","admin3_code":"41803","admin4_code":"","population":"0","elevation":"","dem":"380","timezone":"Europe/Vienna","modification_date":"2011-07-31"},{"geonameid":"2782048","name":"Bad Schallerbach","asciiname":"Bad Schallerbach","alternatenames":["Bad Schallerbach","Bad-Shallerbakh","Schallerbach","Бад-Шаллербах"],"latitude":"48.22999","longitude":"13.91925","feature_class":"P","feature_code":"PPL","country_code":"AT","cc2":"AT","admin1_code":"04","admin2_code":"408","admin3_code":"40802","admin4_code":"","population":"3449","elevation":"","dem":"309","timezone":"Europe/Vienna","modification_date":"2011-06-26"},{"geonameid":"2782052","name":"Bad Ischl","asciiname":"Bad Ischl","alternatenames":["Bad Ischl","Bad Ishl","Bad Ishul","Bad Islis","Bad Išlis","Bad-Ishl'","Båd Ischl","Ischi","Ischl","ba de yi she","bad ayshl","bad-ishli","bateu-isyul","Бад Ишл","Бад Ишъл","Бад-Ішль","Бад-Ишль","באד אישל","باد ایشل","ბად-იშლი","バート・イシュル","巴德伊舍","바트이슐"],"latitude":"47.71109","longitude":"13.61893","feature_class":"P","feature_code":"PPL","country_code":"AT","cc2":"","admin1_code":"04","admin2_code":"407","admin3_code":"40703","admin4_code":"","population":"14267","elevation":"","dem":"470","timezone":"Europe/Vienna","modification_date":"2011-06-26"},{"geonameid":"2782054","name":"Bad Hall","asciiname":"Bad Hall","alternatenames":["Bad Hai","Bad Hall","Bad-Khall'","Båd Håi","ba te ha er","Бад-Халль","巴特哈尔"],"latitude":"48.03832","longitude":"14.20773","feature_class":"P","feature_code":"PPL","country_code":"AT","cc2":"","admin1_code":"04","admin2_code":"415","admin3_code":"41503","admin4_code":"","population":"4935","elevation":"","dem":"369","timezone":"Europe/Vienna","modification_date":"2011-07-17"},{"geonameid":"2782055","name":"Bad Goisern","asciiname":"Bad Goisern","alternatenames":["Bad Goisern am Hallstaettersee","Bad Goisern am Hallstättersee","Bad-Gojzern","Goisern","Бад-Гойзерн"],"latitude":"47.64252","longitude":"13.61609","feature_class":"P","feature_code":"PPL","country_code":"AT","cc2":"","admin1_code":"04","admin2_code":"407","admin3_code":"40702","admin4_code":"","population":"7869","elevation":"","dem":"498","timezone":"Europe/Vienna","modification_date":"2011-06-26"},{"geonameid":"2782079","name":"Bachmanning","asciiname":"Bachmanning","alternatenames":["Bachmaning","Bachmanning"],"latitude":"48.11667","longitude":"13.8","feature_class":"P","feature_code":"PPLA3","country_code":"AT","cc2":"AT","admin1_code":"04","admin2_code":"418","admin3_code":"41802","admin4_code":"","population":"0","elevation":"","dem":"409","timezone":"Europe/Vienna","modification_date":"2011-07-31"},{"geonameid":"2782163","name":"Aurach am Hongar","asciiname":"Aurach am Hongar","alternatenames":["Aurach","Aurach am Hongar"],"latitude":"47.95182","longitude":"13.67291","feature_class":"P","feature_code":"PPLA3","country_code":"AT","cc2":"AT","admin1_code":"04","admin2_code":"417","admin3_code":"41705","admin4_code":"","population":"0","elevation":"","dem":"492","timezone":"Europe/Vienna","modification_date":"2011-07-31"},{"geonameid":"2782274","name":"Atzesberg","asciiname":"Atzesberg","alternatenames":[""],"latitude":"48.49849","longitude":"13.9241","feature_class":"P","feature_code":"PPLA3","country_code":"AT","cc2":"","admin1_code":"04","admin2_code":"413","admin3_code":"41306","admin4_code":"","population":"0","elevation":"","dem":"545","timezone":"Europe/Vienna","modification_date":"2011-07-31"},{"geonameid":"2782283","name":"Atzbach","asciiname":"Atzbach","alternatenames":["Atzbach"],"latitude":"48.08364","longitude":"13.70347","feature_class":"P","feature_code":"PPLA3","country_code":"AT","cc2":"","admin1_code":"04","admin2_code":"417","admin3_code":"41704","admin4_code":"","population":"0","elevation":"","dem":"466","timezone":"Europe/Vienna","modification_date":"2011-07-31"},{"geonameid":"2782287","name":"Attersee","asciiname":"Attersee","alternatenames":["Attersee"],"latitude":"47.91646","longitude":"13.53953","feature_class":"P","feature_code":"PPLA3","country_code":"AT","cc2":"","admin1_code":"04","admin2_code":"417","admin3_code":"41702","admin4_code":"","population":"0","elevation":"","dem":"490","timezone":"Europe/Vienna","modification_date":"2011-09-07"},{"geonameid":"2782302","name":"Asten","asciiname":"Asten","alternatenames":[""],"latitude":"48.21941","longitude":"14.41784","feature_class":"P","feature_code":"PPL","country_code":"AT","cc2":"","admin1_code":"04","admin2_code":"410","admin3_code":"41003","admin4_code":"","population":"6516","elevation":"","dem":"251","timezone":"Europe/Vienna","modification_date":"2011-06-28"},{"geonameid":"2782480","name":"Ansfelden","asciiname":"Ansfelden","alternatenames":["Ansfel'den","Ansfelden","Ansfoein","an si fei er deng","anspeldeni","anzfldn","Ånsföin","Ансфелден","Ансфельден","אנספלדן","آنزفلدن","ანსფელდენი","安斯菲尔登"],"latitude":"48.20969","longitude":"14.29004","feature_class":"P","feature_code":"PPL","country_code":"AT","cc2":"","admin1_code":"04","admin2_code":"410","admin3_code":"41002","admin4_code":"","population":"14936","elevation":"","dem":"278","timezone":"Europe/Vienna","modification_date":"2011-06-28"},{"geonameid":"2782627","name":"Altmünster","asciiname":"Altmunster","alternatenames":["Al'tmjunster","Altmuenster","Oidmuensta","Oidmünsta","jiu ming si te","Альтмюнстер","אלטמינסטר","舊明斯特"],"latitude":"47.90219","longitude":"13.76415","feature_class":"P","feature_code":"PPL","country_code":"AT","cc2":"","admin1_code":"04","admin2_code":"407","admin3_code":"40701","admin4_code":"","population":"9651","elevation":"","dem":"448","timezone":"Europe/Vienna","modification_date":"2011-06-26"},{"geonameid":"2782649","name":"Altheim","asciiname":"Altheim","alternatenames":[""],"latitude":"48.25154","longitude":"13.23406","feature_class":"P","feature_code":"PPLA3","country_code":"AT","cc2":"","admin1_code":"04","admin2_code":"404","admin3_code":"40401","admin4_code":"","population":"4800","elevation":"","dem":"362","timezone":"Europe/Vienna","modification_date":"2011-07-24"},{"geonameid":"2782700","name":"Altenberg bei Linz","asciiname":"Altenberg bei Linz","alternatenames":["Al'tenberg (Linc)","Altenberg","Альтенберг (Линц)"],"latitude":"48.37284","longitude":"14.35029","feature_class":"P","feature_code":"PPLA3","country_code":"AT","cc2":"AT","admin1_code":"04","admin2_code":"416","admin3_code":"41602","admin4_code":"","population":"0","elevation":"","dem":"586","timezone":"Europe/Vienna","modification_date":"2011-12-20"},{"geonameid":"2782830","name":"Alberndorf in der Riedmark","asciiname":"Alberndorf in der Riedmark","alternatenames":["Al'berndorf (Ridmark)","Alberndorf","Alberndorf in der Riedmark","Альберндорф (Ридмарк)"],"latitude":"48.40607","longitude":"14.41441","feature_class":"P","feature_code":"PPLA3","country_code":"AT","cc2":"AT","admin1_code":"04","admin2_code":"416","admin3_code":"41601","admin4_code":"","population":"0","elevation":"","dem":"564","timezone":"Europe/Vienna","modification_date":"2011-12-20"},{"geonameid":"2782860","name":"Aigen im Mühlkreis","asciiname":"Aigen im Muehlkreis","alternatenames":["Aigen","Ajgen","Айген"],"latitude":"48.64578","longitude":"13.97109","feature_class":"P","feature_code":"PPL","country_code":"AT","cc2":"AT","admin1_code":"04","admin2_code":"413","admin3_code":"41303","admin4_code":"","population":"1934","elevation":"596","dem":"601","timezone":"Europe/Vienna","modification_date":"2013-06-04"},{"geonameid":"2782887","name":"Aichkirchen","asciiname":"Aichkirchen","alternatenames":["Aichkirchen"],"latitude":"48.1","longitude":"13.78333","feature_class":"P","feature_code":"PPLA3","country_code":"AT","cc2":"","admin1_code":"04","admin2_code":"418","admin3_code":"41801","admin4_code":"","population":"0","elevation":"","dem":"414","timezone":"Europe/Vienna","modification_date":"2011-07-31"},{"geonameid":"3233832","name":"Attnang-Puchheim","asciiname":"Attnang-Puchheim","alternatenames":["Atnang-Pukhkhajm","Attnang-Buachham","Attnang-Puchheim","Attnãng-Buachhãm","a te nan-pu he hai mu","Атнанг-Пуххайм","阿特南-普赫海姆"],"latitude":"48.00833","longitude":"13.71667","feature_class":"P","feature_code":"PPLA3","country_code":"AT","cc2":"","admin1_code":"04","admin2_code":"417","admin3_code":"41703","admin4_code":"","population":"8908","elevation":"","dem":"417","timezone":"Europe/Vienna","modification_date":"2011-07-31"},{"geonameid":"7279898","name":"Bad Leonfelden","asciiname":"Bad Leonfelden","alternatenames":["Bad-Leonfel'den","ba te lai ang fei er deng","Бад-Леонфельден","巴特莱昂费尔登"],"latitude":"48.52047","longitude":"14.29459","feature_class":"P","feature_code":"PPLA3","country_code":"AT","cc2":"","admin1_code":"04","admin2_code":"416","admin3_code":"41603","admin4_code":"","population":"4029","elevation":"","dem":"746","timezone":"Europe/Vienna","modification_date":"2011-12-20"},{"geonameid":"7871049","name":"Rossleithen","asciiname":"Rossleithen","alternatenames":["Rossleithen","Roßleithen"],"latitude":"47.7017","longitude":"14.2736","feature_class":"P","feature_code":"PPL","country_code":"AT","cc2":"","admin1_code":"04","admin2_code":"409","admin3_code":"40915","admin4_code":"","population":"1873","elevation":"588","dem":"673","timezone":"Europe/Vienna","modification_date":"2011-06-26"},{"geonameid":"7871067","name":"Sankt Georgen am Walde","asciiname":"Sankt Georgen am Walde","alternatenames":[""],"latitude":"48.35979","longitude":"14.90235","feature_class":"P","feature_code":"PPL","country_code":"AT","cc2":"","admin1_code":"04","admin2_code":"411","admin3_code":"41119","admin4_code":"","population":"2100","elevation":"787","dem":"802","timezone":"Europe/Vienna","modification_date":"2011-06-28"},{"geonameid":"7909799","name":"Nebelberg","asciiname":"Nebelberg","alternatenames":[""],"latitude":"48.62854","longitude":"13.84629","feature_class":"P","feature_code":"PPLA3","country_code":"AT","cc2":"","admin1_code":"04","admin2_code":"413","admin3_code":"41320","admin4_code":"","population":"621","elevation":"695","dem":"694","timezone":"Europe/Vienna","modification_date":"2011-07-17"},{"geonameid":"8126035","name":"Sonnberg im Mühlkreis","asciiname":"Sonnberg im Muehlkreis","alternatenames":[""],"latitude":"48.4608","longitude":"14.31167","feature_class":"P","feature_code":"PPLA3","country_code":"AT","cc2":"","admin1_code":"04","admin2_code":"416","admin3_code":"41623","admin4_code":"","population":"0","elevation":"","dem":"824","timezone":"Europe/Vienna","modification_date":"2011-12-20"}]}