{"region_data":{"countryId":"2782113","adminCode1":"07","countryName":"Austria","fclName":"country, state, region,...","countryCode":"AT","lng":"11.33333","fcodeName":"first-order administrative division","toponymName":"Tirol","fcl":"A","numberOfChildren":9,"name":"Tyrol","fcode":"ADM1","geonameId":2763586,"lat":"47.25","adminName1":"Tyrol","population":692214},"country_data":{"ISO":"AT","ISO3":"AUT","ISO_Numeric":"040","fips":"AU","country":"Austria","capital":"Vienna","area":"83858","Population":"8205000","Continent":"EU","tld":".at","CurrencyCode":"EUR","CurrencyName":"Euro","Phone":"43","Postal_Code_Format":"####","Postal_Code_Regex":"^(\\d{4})$","Languages":"de-AT,hr,hu,sl","geonameid":"2782113","neighbours":"CH,DE,HU,SK,CZ,IT,SI,LI","EquivalentFipsCode":""},"cities":[{"geonameid":"2760485","name":"Zöblen","asciiname":"Zoblen","alternatenames":["Zoblen","Zöblen"],"latitude":"47.5","longitude":"10.48333","feature_class":"P","feature_code":"PPLA3","country_code":"AT","cc2":"","admin1_code":"07","admin2_code":"708","admin3_code":"70837","admin4_code":"","population":"0","elevation":"","dem":"1197","timezone":"Europe/Vienna","modification_date":"2011-07-31"},{"geonameid":"2760523","name":"Zirl","asciiname":"Zirl","alternatenames":["Cirl","Zirl","Цирл"],"latitude":"47.28333","longitude":"11.23333","feature_class":"P","feature_code":"PPLA3","country_code":"AT","cc2":"","admin1_code":"07","admin2_code":"703","admin3_code":"70369","admin4_code":"","population":"6567","elevation":"","dem":"945","timezone":"Europe/Vienna","modification_date":"2011-07-31"},{"geonameid":"2760627","name":"Zellberg","asciiname":"Zellberg","alternatenames":["Zellberg"],"latitude":"47.23333","longitude":"11.85","feature_class":"P","feature_code":"PPLA3","country_code":"AT","cc2":"","admin1_code":"07","admin2_code":"709","admin3_code":"70941","admin4_code":"","population":"0","elevation":"","dem":"1322","timezone":"Europe/Vienna","modification_date":"2011-07-31"},{"geonameid":"2760632","name":"Zell am Ziller","asciiname":"Zell am Ziller","alternatenames":["Zell","Zell am Ziller","Zell in Zillerthal"],"latitude":"47.23333","longitude":"11.88333","feature_class":"P","feature_code":"PPLA3","country_code":"AT","cc2":"AT","admin1_code":"07","admin2_code":"709","admin3_code":"70940","admin4_code":"","population":"0","elevation":"","dem":"578","timezone":"Europe/Vienna","modification_date":"2011-07-31"},{"geonameid":"2760749","name":"Zams","asciiname":"Zams","alternatenames":[""],"latitude":"47.15844","longitude":"10.5897","feature_class":"P","feature_code":"PPLA3","country_code":"AT","cc2":"","admin1_code":"07","admin2_code":"706","admin3_code":"70630","admin4_code":"","population":"0","elevation":"","dem":"770","timezone":"Europe/Vienna","modification_date":"2011-07-31"},{"geonameid":"2760854","name":"Wörgl","asciiname":"Worgl","alternatenames":["Worgl","Wörgl"],"latitude":"47.48333","longitude":"12.06667","feature_class":"P","feature_code":"PPLA3","country_code":"AT","cc2":"","admin1_code":"07","admin2_code":"705","admin3_code":"70531","admin4_code":"","population":"11265","elevation":"","dem":"518","timezone":"Europe/Vienna","modification_date":"2011-07-31"},{"geonameid":"2761229","name":"Wildermieming","asciiname":"Wildermieming","alternatenames":[""],"latitude":"47.31667","longitude":"11.01667","feature_class":"P","feature_code":"PPLA3","country_code":"AT","cc2":"","admin1_code":"07","admin2_code":"703","admin3_code":"70368","admin4_code":"","population":"0","elevation":"","dem":"858","timezone":"Europe/Vienna","modification_date":"2011-07-31"},{"geonameid":"2761278","name":"Wiesing","asciiname":"Wiesing","alternatenames":[""],"latitude":"47.40486","longitude":"11.79708","feature_class":"P","feature_code":"PPLA3","country_code":"AT","cc2":"","admin1_code":"07","admin2_code":"709","admin3_code":"70939","admin4_code":"","population":"0","elevation":"","dem":"566","timezone":"Europe/Vienna","modification_date":"2011-07-31"},{"geonameid":"2761457","name":"Westendorf","asciiname":"Westendorf","alternatenames":["Vestendorf","Westendorf","Вестендорф"],"latitude":"47.43208","longitude":"12.21406","feature_class":"P","feature_code":"PPLA3","country_code":"AT","cc2":"","admin1_code":"07","admin2_code":"704","admin3_code":"70420","admin4_code":"","population":"3620","elevation":"","dem":"782","timezone":"Europe/Vienna","modification_date":"2014-07-25"},{"geonameid":"2761488","name":"Wenns","asciiname":"Wenns","alternatenames":[""],"latitude":"47.16667","longitude":"10.73333","feature_class":"P","feature_code":"PPLA3","country_code":"AT","cc2":"","admin1_code":"07","admin2_code":"702","admin3_code":"70224","admin4_code":"","population":"0","elevation":"","dem":"956","timezone":"Europe/Vienna","modification_date":"2011-07-31"},{"geonameid":"2761796","name":"Weer","asciiname":"Weer","alternatenames":["Weer"],"latitude":"47.3","longitude":"11.63333","feature_class":"P","feature_code":"PPLA3","country_code":"AT","cc2":"","admin1_code":"07","admin2_code":"709","admin3_code":"70937","admin4_code":"","population":"0","elevation":"","dem":"555","timezone":"Europe/Vienna","modification_date":"2011-07-31"},{"geonameid":"2761834","name":"Wattens","asciiname":"Wattens","alternatenames":["Wattens"],"latitude":"47.28333","longitude":"11.6","feature_class":"P","feature_code":"PPLA3","country_code":"AT","cc2":"","admin1_code":"07","admin2_code":"703","admin3_code":"70367","admin4_code":"","population":"7517","elevation":"","dem":"782","timezone":"Europe/Vienna","modification_date":"2011-07-31"},{"geonameid":"2761835","name":"Wattenberg","asciiname":"Wattenberg","alternatenames":[""],"latitude":"47.28333","longitude":"11.6","feature_class":"P","feature_code":"PPLA3","country_code":"AT","cc2":"","admin1_code":"07","admin2_code":"703","admin3_code":"70366","admin4_code":"","population":"0","elevation":"","dem":"782","timezone":"Europe/Vienna","modification_date":"2011-07-31"},{"geonameid":"2761907","name":"Wängle","asciiname":"Wangle","alternatenames":[""],"latitude":"47.48658","longitude":"10.68995","feature_class":"P","feature_code":"PPLA3","country_code":"AT","cc2":"","admin1_code":"07","admin2_code":"708","admin3_code":"70835","admin4_code":"","population":"0","elevation":"","dem":"884","timezone":"Europe/Vienna","modification_date":"2012-07-31"},{"geonameid":"2762045","name":"Walchsee","asciiname":"Walchsee","alternatenames":[""],"latitude":"47.65163","longitude":"12.31868","feature_class":"P","feature_code":"PPLA3","country_code":"AT","cc2":"","admin1_code":"07","admin2_code":"705","admin3_code":"70529","admin4_code":"","population":"0","elevation":"","dem":"663","timezone":"Europe/Vienna","modification_date":"2011-07-31"},{"geonameid":"2762070","name":"Waidring","asciiname":"Waidring","alternatenames":[""],"latitude":"47.58333","longitude":"12.56667","feature_class":"P","feature_code":"PPLA3","country_code":"AT","cc2":"","admin1_code":"07","admin2_code":"704","admin3_code":"70419","admin4_code":"","population":"0","elevation":"","dem":"796","timezone":"Europe/Vienna","modification_date":"2011-07-31"},{"geonameid":"2762223","name":"Vorderhornbach","asciiname":"Vorderhornbach","alternatenames":["Vorderhornbach"],"latitude":"47.36667","longitude":"10.53333","feature_class":"P","feature_code":"PPLA3","country_code":"AT","cc2":"","admin1_code":"07","admin2_code":"708","admin3_code":"70834","admin4_code":"","population":"0","elevation":"","dem":"1007","timezone":"Europe/Vienna","modification_date":"2011-07-31"},{"geonameid":"2762303","name":"Vomp","asciiname":"Vomp","alternatenames":["Fomp","Vomp","Фомп"],"latitude":"47.33333","longitude":"11.68333","feature_class":"P","feature_code":"PPL","country_code":"AT","cc2":"","admin1_code":"07","admin2_code":"709","admin3_code":"70936","admin4_code":"","population":"4628","elevation":"","dem":"542","timezone":"Europe/Vienna","modification_date":"2014-05-03"},{"geonameid":"2762304","name":"Völs","asciiname":"Vols","alternatenames":[""],"latitude":"47.25","longitude":"11.33333","feature_class":"P","feature_code":"PPLA3","country_code":"AT","cc2":"","admin1_code":"07","admin2_code":"703","admin3_code":"70364","admin4_code":"","population":"6573","elevation":"","dem":"605","timezone":"Europe/Vienna","modification_date":"2011-07-31"},{"geonameid":"2762320","name":"Volders","asciiname":"Volders","alternatenames":[""],"latitude":"47.28333","longitude":"11.56667","feature_class":"P","feature_code":"PPLA3","country_code":"AT","cc2":"","admin1_code":"07","admin2_code":"703","admin3_code":"70365","admin4_code":"","population":"0","elevation":"","dem":"583","timezone":"Europe/Vienna","modification_date":"2011-07-31"},{"geonameid":"2762352","name":"Virgen","asciiname":"Virgen","alternatenames":["Firgen","Virgen","fei er gen","frjn","Фирген","Фірген","فرجن","菲尔根"],"latitude":"47","longitude":"12.45","feature_class":"P","feature_code":"PPLA3","country_code":"AT","cc2":"","admin1_code":"07","admin2_code":"707","admin3_code":"70734","admin4_code":"","population":"0","elevation":"","dem":"1120","timezone":"Europe/Vienna","modification_date":"2011-07-31"},{"geonameid":"2762358","name":"Vils","asciiname":"Vils","alternatenames":["Vils"],"latitude":"47.55","longitude":"10.63333","feature_class":"P","feature_code":"PPLA3","country_code":"AT","cc2":"","admin1_code":"07","admin2_code":"708","admin3_code":"70833","admin4_code":"","population":"0","elevation":"","dem":"816","timezone":"Europe/Vienna","modification_date":"2011-07-31"},{"geonameid":"2762732","name":"Unterperfuss","asciiname":"Unterperfuss","alternatenames":[""],"latitude":"47.26667","longitude":"11.25","feature_class":"P","feature_code":"PPLA3","country_code":"AT","cc2":"","admin1_code":"07","admin2_code":"703","admin3_code":"70361","admin4_code":"","population":"0","elevation":"","dem":"595","timezone":"Europe/Vienna","modification_date":"2011-07-31"},{"geonameid":"2763164","name":"Umhausen","asciiname":"Umhausen","alternatenames":["Umhausen"],"latitude":"47.13333","longitude":"10.93333","feature_class":"P","feature_code":"PPLA3","country_code":"AT","cc2":"","admin1_code":"07","admin2_code":"702","admin3_code":"70223","admin4_code":"","population":"0","elevation":"","dem":"1070","timezone":"Europe/Vienna","modification_date":"2011-07-31"},{"geonameid":"2763199","name":"Uderns","asciiname":"Uderns","alternatenames":["Uderns"],"latitude":"47.31667","longitude":"11.86667","feature_class":"P","feature_code":"PPLA3","country_code":"AT","cc2":"","admin1_code":"07","admin2_code":"709","admin3_code":"70935","admin4_code":"","population":"0","elevation":"","dem":"541","timezone":"Europe/Vienna","modification_date":"2011-07-31"},{"geonameid":"2763267","name":"Tulfes","asciiname":"Tulfes","alternatenames":[""],"latitude":"47.25","longitude":"11.53333","feature_class":"P","feature_code":"PPLA3","country_code":"AT","cc2":"","admin1_code":"07","admin2_code":"703","admin3_code":"70360","admin4_code":"","population":"0","elevation":"","dem":"1202","timezone":"Europe/Vienna","modification_date":"2011-07-31"},{"geonameid":"2763343","name":"Tristach","asciiname":"Tristach","alternatenames":["Tristach"],"latitude":"46.81611","longitude":"12.78972","feature_class":"P","feature_code":"PPLA3","country_code":"AT","cc2":"","admin1_code":"07","admin2_code":"707","admin3_code":"70732","admin4_code":"","population":"0","elevation":"","dem":"668","timezone":"Europe/Vienna","modification_date":"2011-07-31"},{"geonameid":"2763348","name":"Trins","asciiname":"Trins","alternatenames":[""],"latitude":"47.08333","longitude":"11.41667","feature_class":"P","feature_code":"PPLA3","country_code":"AT","cc2":"","admin1_code":"07","admin2_code":"703","admin3_code":"70359","admin4_code":"","population":"0","elevation":"","dem":"1229","timezone":"Europe/Vienna","modification_date":"2011-07-31"},{"geonameid":"2763575","name":"Tobadill","asciiname":"Tobadill","alternatenames":["Tobadill"],"latitude":"47.11667","longitude":"10.51667","feature_class":"P","feature_code":"PPLA3","country_code":"AT","cc2":"","admin1_code":"07","admin2_code":"706","admin3_code":"70628","admin4_code":"","population":"0","elevation":"","dem":"1483","timezone":"Europe/Vienna","modification_date":"2011-07-31"},{"geonameid":"2763715","name":"Thaur","asciiname":"Thaur","alternatenames":[""],"latitude":"47.3","longitude":"11.46667","feature_class":"P","feature_code":"PPLA3","country_code":"AT","cc2":"","admin1_code":"07","admin2_code":"703","admin3_code":"70358","admin4_code":"","population":"0","elevation":"","dem":"762","timezone":"Europe/Vienna","modification_date":"2011-07-31"},{"geonameid":"2763800","name":"Terfens","asciiname":"Terfens","alternatenames":["Terfens"],"latitude":"47.31667","longitude":"11.65","feature_class":"P","feature_code":"PPLA3","country_code":"AT","cc2":"","admin1_code":"07","admin2_code":"709","admin3_code":"70933","admin4_code":"","population":"0","elevation":"","dem":"544","timezone":"Europe/Vienna","modification_date":"2011-07-31"},{"geonameid":"2763810","name":"Telfs","asciiname":"Telfs","alternatenames":["Tel'fs","Telfs","tai er fu si","tlfs","tlps","Телфс","Тельфс","טלפס","تلفس","ტელფსი","泰爾夫斯"],"latitude":"47.30707","longitude":"11.06817","feature_class":"P","feature_code":"PPLA3","country_code":"AT","cc2":"","admin1_code":"07","admin2_code":"703","admin3_code":"70357","admin4_code":"","population":"14028","elevation":"","dem":"637","timezone":"Europe/Vienna","modification_date":"2013-12-06"},{"geonameid":"2763811","name":"Telfes im Stubai","asciiname":"Telfes im Stubai","alternatenames":["Telfes","Telfes im Stubai"],"latitude":"47.16667","longitude":"11.36667","feature_class":"P","feature_code":"PPLA3","country_code":"AT","cc2":"AT","admin1_code":"07","admin2_code":"703","admin3_code":"70356","admin4_code":"","population":"1394","elevation":"","dem":"924","timezone":"Europe/Vienna","modification_date":"2012-09-10"},{"geonameid":"2763901","name":"Tarrenz","asciiname":"Tarrenz","alternatenames":[""],"latitude":"47.26667","longitude":"10.76667","feature_class":"P","feature_code":"PPLA3","country_code":"AT","cc2":"","admin1_code":"07","admin2_code":"702","admin3_code":"70222","admin4_code":"","population":"0","elevation":"","dem":"816","timezone":"Europe/Vienna","modification_date":"2011-07-31"},{"geonameid":"2763915","name":"Tannheim","asciiname":"Tannheim","alternatenames":["Tannheim"],"latitude":"47.48333","longitude":"10.51667","feature_class":"P","feature_code":"PPLA3","country_code":"AT","cc2":"","admin1_code":"07","admin2_code":"708","admin3_code":"70832","admin4_code":"","population":"1045","elevation":"1097","dem":"1220","timezone":"Europe/Vienna","modification_date":"2013-11-08"},{"geonameid":"2764053","name":"Stummerberg","asciiname":"Stummerberg","alternatenames":["Stummerberg"],"latitude":"47.28333","longitude":"11.91667","feature_class":"P","feature_code":"PPLA3","country_code":"AT","cc2":"","admin1_code":"07","admin2_code":"709","admin3_code":"70932","admin4_code":"","population":"0","elevation":"","dem":"1160","timezone":"Europe/Vienna","modification_date":"2011-07-31"},{"geonameid":"2764055","name":"Stumm","asciiname":"Stumm","alternatenames":["Stumm"],"latitude":"47.28333","longitude":"11.88333","feature_class":"P","feature_code":"PPLA3","country_code":"AT","cc2":"","admin1_code":"07","admin2_code":"709","admin3_code":"70931","admin4_code":"","population":"0","elevation":"","dem":"554","timezone":"Europe/Vienna","modification_date":"2011-07-31"},{"geonameid":"2764137","name":"Strengen","asciiname":"Strengen","alternatenames":["Strengen"],"latitude":"47.13333","longitude":"10.45","feature_class":"P","feature_code":"PPLA3","country_code":"AT","cc2":"","admin1_code":"07","admin2_code":"706","admin3_code":"70627","admin4_code":"","population":"0","elevation":"","dem":"1295","timezone":"Europe/Vienna","modification_date":"2011-07-31"},{"geonameid":"2764183","name":"Strassen","asciiname":"Strassen","alternatenames":["Strassen"],"latitude":"46.75389","longitude":"12.48417","feature_class":"P","feature_code":"PPLA3","country_code":"AT","cc2":"","admin1_code":"07","admin2_code":"707","admin3_code":"70729","admin4_code":"","population":"0","elevation":"","dem":"1222","timezone":"Europe/Vienna","modification_date":"2011-07-31"},{"geonameid":"2764189","name":"Strass im Zillertal","asciiname":"Strass im Zillertal","alternatenames":["Strass","Strass bei Jenbach","Strass im Zillertal"],"latitude":"47.39556","longitude":"11.81966","feature_class":"P","feature_code":"PPLA3","country_code":"AT","cc2":"AT","admin1_code":"07","admin2_code":"709","admin3_code":"70930","admin4_code":"","population":"0","elevation":"","dem":"524","timezone":"Europe/Vienna","modification_date":"2011-07-31"},{"geonameid":"2764557","name":"Steinach am Brenner","asciiname":"Steinach am Brenner","alternatenames":["Shtajnakh-na-Brennere","Steinach","Steinach am Brenner","Штайнах-на-Бреннере"],"latitude":"47.08333","longitude":"11.46667","feature_class":"P","feature_code":"PPLA3","country_code":"AT","cc2":"AT","admin1_code":"07","admin2_code":"703","admin3_code":"70355","admin4_code":"","population":"0","elevation":"","dem":"1139","timezone":"Europe/Vienna","modification_date":"2011-07-31"},{"geonameid":"2764605","name":"Steeg","asciiname":"Steeg","alternatenames":[""],"latitude":"47.24393","longitude":"10.29436","feature_class":"P","feature_code":"PPLA3","country_code":"AT","cc2":"","admin1_code":"07","admin2_code":"708","admin3_code":"70831","admin4_code":"","population":"0","elevation":"","dem":"1116","timezone":"Europe/Vienna","modification_date":"2011-09-09"},{"geonameid":"2764645","name":"Stanz bei Landeck","asciiname":"Stanz bei Landeck","alternatenames":["Stanz","Stanz bei Landeck"],"latitude":"47.14758","longitude":"10.5534","feature_class":"P","feature_code":"PPLA3","country_code":"AT","cc2":"","admin1_code":"07","admin2_code":"706","admin3_code":"70626","admin4_code":"","population":"0","elevation":"","dem":"1025","timezone":"Europe/Vienna","modification_date":"2011-07-31"},{"geonameid":"2764648","name":"Stanzach","asciiname":"Stanzach","alternatenames":["Stanzach"],"latitude":"47.38333","longitude":"10.56667","feature_class":"P","feature_code":"PPLA3","country_code":"AT","cc2":"","admin1_code":"07","admin2_code":"708","admin3_code":"70830","admin4_code":"","population":"0","elevation":"","dem":"961","timezone":"Europe/Vienna","modification_date":"2011-07-31"},{"geonameid":"2764651","name":"Stans","asciiname":"Stans","alternatenames":["Stans"],"latitude":"47.36667","longitude":"11.71667","feature_class":"P","feature_code":"PPLA3","country_code":"AT","cc2":"","admin1_code":"07","admin2_code":"709","admin3_code":"70928","admin4_code":"","population":"0","elevation":"","dem":"555","timezone":"Europe/Vienna","modification_date":"2011-07-31"},{"geonameid":"2764669","name":"Stams","asciiname":"Stams","alternatenames":[""],"latitude":"47.27603","longitude":"10.98315","feature_class":"P","feature_code":"PPLA3","country_code":"AT","cc2":"","admin1_code":"07","admin2_code":"702","admin3_code":"70221","admin4_code":"","population":"0","elevation":"","dem":"683","timezone":"Europe/Vienna","modification_date":"2011-09-09"},{"geonameid":"2764953","name":"Söll","asciiname":"Soll","alternatenames":["Zjoll'","Зёлль"],"latitude":"47.50378","longitude":"12.19221","feature_class":"P","feature_code":"PPLA3","country_code":"AT","cc2":"","admin1_code":"07","admin2_code":"705","admin3_code":"70526","admin4_code":"","population":"0","elevation":"","dem":"691","timezone":"Europe/Vienna","modification_date":"2011-07-31"},{"geonameid":"2764957","name":"Sölden","asciiname":"Soelden","alternatenames":["Soelden","Soeldeni vald","Solden","Sölden","Söldeni vald","Z'olden","Zel'den","Zelden","Zelnten","Zjol'den","se er deng","zwldn","Ζέλντεν","Зелден","Зельден","Зьолден","Зёльден","זולדן","瑟尔登"],"latitude":"46.96667","longitude":"11","feature_class":"P","feature_code":"PPLA3","country_code":"AT","cc2":"","admin1_code":"07","admin2_code":"702","admin3_code":"70220","admin4_code":"","population":"3449","elevation":"1368","dem":"1526","timezone":"Europe/Vienna","modification_date":"2013-11-10"},{"geonameid":"2764958","name":"Hall in Tirol","asciiname":"Hall in Tirol","alternatenames":["Gall'-in-Tirol'","Hall","Hall en Tyrol","Hall in Tirol","Hall în Tirol","Khal in Tirol","Khal u Tirolu","Khall'-in-Tirol'","Salina in Aeni Valle","Solbad Hall","Solbad Hall in Tirol","di luo er zhou huo er","hal ayn tyrwl","hal-intilol","Галль-ін-Тіроль","Хал ин Тирол","Хал у Тиролу","Халль-ин-Тироль","هال این تیرول","ہال ان ٹیرول","ჰალ-ინ-ტიროლი","ハル・イン・チロル","蒂羅爾州霍爾","할인티롤"],"latitude":"47.28333","longitude":"11.51667","feature_class":"P","feature_code":"PPLA3","country_code":"AT","cc2":"AT","admin1_code":"07","admin2_code":"703","admin3_code":"70354","admin4_code":"","population":"12460","elevation":"","dem":"587","timezone":"Europe/Vienna","modification_date":"2011-07-31"},{"geonameid":"2764993","name":"Sistrans","asciiname":"Sistrans","alternatenames":[""],"latitude":"47.23333","longitude":"11.45","feature_class":"P","feature_code":"PPLA3","country_code":"AT","cc2":"","admin1_code":"07","admin2_code":"703","admin3_code":"70353","admin4_code":"","population":"0","elevation":"","dem":"988","timezone":"Europe/Vienna","modification_date":"2011-07-31"},{"geonameid":"2765036","name":"Silz","asciiname":"Silz","alternatenames":["Silz","Zil'c","Зильц"],"latitude":"47.26667","longitude":"10.93333","feature_class":"P","feature_code":"PPLA3","country_code":"AT","cc2":"","admin1_code":"07","admin2_code":"702","admin3_code":"70219","admin4_code":"","population":"0","elevation":"","dem":"650","timezone":"Europe/Vienna","modification_date":"2011-07-31"},{"geonameid":"2765044","name":"Sillian","asciiname":"Sillian","alternatenames":["Sillian","Zillian","xi li an","Зиллиан","Зілліан","锡利安"],"latitude":"46.75278","longitude":"12.42111","feature_class":"P","feature_code":"PPLA3","country_code":"AT","cc2":"","admin1_code":"07","admin2_code":"707","admin3_code":"70728","admin4_code":"","population":"0","elevation":"","dem":"1218","timezone":"Europe/Vienna","modification_date":"2011-07-31"},{"geonameid":"2765150","name":"Serfaus","asciiname":"Serfaus","alternatenames":["Serfaus","Zerfaus","sai er fu si","zerpausi","Зерфаус","ზერფაუსი","塞尔福斯"],"latitude":"47.03333","longitude":"10.6","feature_class":"P","feature_code":"PPLA3","country_code":"AT","cc2":"","admin1_code":"07","admin2_code":"706","admin3_code":"70624","admin4_code":"","population":"1136","elevation":"","dem":"1467","timezone":"Europe/Vienna","modification_date":"2011-07-31"},{"geonameid":"2765278","name":"Seefeld in Tirol","asciiname":"Seefeld in Tirol","alternatenames":["Seefeld","Seefeld in Tirol","Seefeld in Tyroli","Seefeld în Tirol","Zeefel'd","Zeefel'd (Tirol')","Zefel'd-in-Tirol'","di luo er zhou sai fu er de","zeferuto","zyfyld almntqt alawlmbyt","Зеефельд","Зеефельд (Тироль)","Зефельд-ін-Тіроль","زيفيلد المنطقة الاولمبية","سیفیلڈ","ゼーフェルト","蒂罗尔州塞弗尔德"],"latitude":"47.33016","longitude":"11.18786","feature_class":"P","feature_code":"PPLA3","country_code":"AT","cc2":"AT","admin1_code":"07","admin2_code":"703","admin3_code":"70351","admin4_code":"","population":"3028","elevation":"1180","dem":"1178","timezone":"Europe/Vienna","modification_date":"2011-07-31"},{"geonameid":"2765331","name":"See","asciiname":"See","alternatenames":["Messnerhaus","See","See im Paznaun","Zee","Зее"],"latitude":"47.08333","longitude":"10.46667","feature_class":"P","feature_code":"PPLA3","country_code":"AT","cc2":"AT","admin1_code":"07","admin2_code":"706","admin3_code":"70623","admin4_code":"","population":"0","elevation":"","dem":"1036","timezone":"Europe/Vienna","modification_date":"2015-06-02"},{"geonameid":"2765342","name":"Schwoich","asciiname":"Schwoich","alternatenames":[""],"latitude":"47.546","longitude":"12.14049","feature_class":"P","feature_code":"PPLA3","country_code":"AT","cc2":"","admin1_code":"07","admin2_code":"705","admin3_code":"70525","admin4_code":"","population":"0","elevation":"","dem":"571","timezone":"Europe/Vienna","modification_date":"2011-07-31"},{"geonameid":"2765354","name":"Schwendt","asciiname":"Schwendt","alternatenames":[""],"latitude":"47.63333","longitude":"12.38333","feature_class":"P","feature_code":"PPLA3","country_code":"AT","cc2":"","admin1_code":"07","admin2_code":"704","admin3_code":"70418","admin4_code":"","population":"0","elevation":"","dem":"654","timezone":"Europe/Vienna","modification_date":"2011-07-31"},{"geonameid":"2765360","name":"Schwendau","asciiname":"Schwendau","alternatenames":["Schwendau"],"latitude":"47.19753","longitude":"11.85897","feature_class":"P","feature_code":"PPLA3","country_code":"AT","cc2":"","admin1_code":"07","admin2_code":"709","admin3_code":"70927","admin4_code":"","population":"0","elevation":"","dem":"618","timezone":"Europe/Vienna","modification_date":"2011-07-31"},{"geonameid":"2765390","name":"Schwaz","asciiname":"Schwaz","alternatenames":["Shvac","shi wa ci","shvatsi","shwats","syuwacheu","Швац","شواتس","შვაცი","施瓦茨","슈와츠"],"latitude":"47.35169","longitude":"11.71014","feature_class":"P","feature_code":"PPLA2","country_code":"AT","cc2":"","admin1_code":"07","admin2_code":"709","admin3_code":"70926","admin4_code":"","population":"12507","elevation":"","dem":"537","timezone":"Europe/Vienna","modification_date":"2013-02-07"},{"geonameid":"2765656","name":"Schönwies","asciiname":"Schonwies","alternatenames":["Schonwies","Schönwies"],"latitude":"47.19665","longitude":"10.65742","feature_class":"P","feature_code":"PPLA3","country_code":"AT","cc2":"","admin1_code":"07","admin2_code":"706","admin3_code":"70622","admin4_code":"","population":"0","elevation":"","dem":"738","timezone":"Europe/Vienna","modification_date":"2011-07-31"},{"geonameid":"2765715","name":"Schönberg im Stubaital","asciiname":"Schoenberg im Stubaital","alternatenames":["Schonberg","Schonberg im Stubaital","Schönberg","Schönberg im Stubaital","Shjonberg","Шёнберг"],"latitude":"47.18333","longitude":"11.41667","feature_class":"P","feature_code":"PPLA3","country_code":"AT","cc2":"","admin1_code":"07","admin2_code":"703","admin3_code":"70350","admin4_code":"","population":"1013","elevation":"","dem":"811","timezone":"Europe/Vienna","modification_date":"2011-07-31"},{"geonameid":"2765837","name":"Schmirn","asciiname":"Schmirn","alternatenames":[""],"latitude":"47.08333","longitude":"11.56667","feature_class":"P","feature_code":"PPLA3","country_code":"AT","cc2":"","admin1_code":"07","admin2_code":"703","admin3_code":"70349","admin4_code":"","population":"0","elevation":"","dem":"1436","timezone":"Europe/Vienna","modification_date":"2011-07-31"},{"geonameid":"2765888","name":"Schlitters","asciiname":"Schlitters","alternatenames":["Schlitters"],"latitude":"47.36667","longitude":"11.83333","feature_class":"P","feature_code":"PPLA3","country_code":"AT","cc2":"","admin1_code":"07","admin2_code":"709","admin3_code":"70925","admin4_code":"","population":"0","elevation":"","dem":"1024","timezone":"Europe/Vienna","modification_date":"2011-07-31"},{"geonameid":"2766084","name":"Scheffau am Wilden Kaiser","asciiname":"Scheffau am Wilden Kaiser","alternatenames":["Scheffau"],"latitude":"47.52943","longitude":"12.25139","feature_class":"P","feature_code":"PPLA3","country_code":"AT","cc2":"AT","admin1_code":"07","admin2_code":"705","admin3_code":"70524","admin4_code":"","population":"0","elevation":"","dem":"749","timezone":"Europe/Vienna","modification_date":"2011-07-31"},{"geonameid":"2766115","name":"Schattwald","asciiname":"Schattwald","alternatenames":["Schattwald"],"latitude":"47.51667","longitude":"10.45","feature_class":"P","feature_code":"PPLA3","country_code":"AT","cc2":"","admin1_code":"07","admin2_code":"708","admin3_code":"70829","admin4_code":"","population":"0","elevation":"","dem":"1177","timezone":"Europe/Vienna","modification_date":"2011-07-31"},{"geonameid":"2766140","name":"Scharnitz","asciiname":"Scharnitz","alternatenames":["Sharnic","sha er ni ci","Шарниц","Шарніц","沙尔尼茨"],"latitude":"47.38899","longitude":"11.26455","feature_class":"P","feature_code":"PPLA3","country_code":"AT","cc2":"","admin1_code":"07","admin2_code":"703","admin3_code":"70348","admin4_code":"","population":"0","elevation":"","dem":"963","timezone":"Europe/Vienna","modification_date":"2011-07-31"},{"geonameid":"2766252","name":"Sautens","asciiname":"Sautens","alternatenames":[""],"latitude":"47.2","longitude":"10.86667","feature_class":"P","feature_code":"PPLA3","country_code":"AT","cc2":"","admin1_code":"07","admin2_code":"702","admin3_code":"70218","admin4_code":"","population":"0","elevation":"","dem":"971","timezone":"Europe/Vienna","modification_date":"2011-07-31"},{"geonameid":"2766636","name":"Sankt Johann in Tirol","asciiname":"Sankt Johann in Tirol","alternatenames":["Sankt Johann","Sankt-Jokhann (Tirol')","Санкт-Йоханн (Тироль)"],"latitude":"47.5233","longitude":"12.4232","feature_class":"P","feature_code":"PPLA3","country_code":"AT","cc2":"AT","admin1_code":"07","admin2_code":"704","admin3_code":"70416","admin4_code":"","population":"0","elevation":"","dem":"659","timezone":"Europe/Vienna","modification_date":"2012-06-25"},{"geonameid":"2766757","name":"Sankt Anton am Arlberg","asciiname":"Sankt Anton am Arlberg","alternatenames":["ANT","Saint Anton","Sankt Anton","Sankt Anton am Arlberg","Sankt Antonas","Sankt-Anton-am-Arl'berg","St Anton","St. Anton","St. Anton am Arlberg","a er shan lu sheng an dong","Санкт Антон ам Арлберг","Санкт-Антон-ам-Арльберг","סן אנטון","サンクト・アントン・アム・アールベルク","阿尔山麓圣安东"],"latitude":"47.1275","longitude":"10.26372","feature_class":"P","feature_code":"PPL","country_code":"AT","cc2":"AT","admin1_code":"07","admin2_code":"706","admin3_code":"70621","admin4_code":"","population":"2848","elevation":"","dem":"1307","timezone":"Europe/Vienna","modification_date":"2014-05-03"},{"geonameid":"2766971","name":"Rum","asciiname":"Rum","alternatenames":[""],"latitude":"47.28333","longitude":"11.45","feature_class":"P","feature_code":"PPLA3","country_code":"AT","cc2":"","admin1_code":"07","admin2_code":"703","admin3_code":"70346","admin4_code":"","population":"8498","elevation":"","dem":"623","timezone":"Europe/Vienna","modification_date":"2011-07-31"},{"geonameid":"2767227","name":"Roppen","asciiname":"Roppen","alternatenames":[""],"latitude":"47.21667","longitude":"10.81667","feature_class":"P","feature_code":"PPLA3","country_code":"AT","cc2":"","admin1_code":"07","admin2_code":"702","admin3_code":"70216","admin4_code":"","population":"0","elevation":"","dem":"695","timezone":"Europe/Vienna","modification_date":"2011-07-31"},{"geonameid":"2767382","name":"Rinn","asciiname":"Rinn","alternatenames":[""],"latitude":"47.25","longitude":"11.5","feature_class":"P","feature_code":"PPLA3","country_code":"AT","cc2":"","admin1_code":"07","admin2_code":"703","admin3_code":"70345","admin4_code":"","population":"0","elevation":"","dem":"907","timezone":"Europe/Vienna","modification_date":"2011-07-31"},{"geonameid":"2767418","name":"Rietz","asciiname":"Rietz","alternatenames":[""],"latitude":"47.28333","longitude":"11.05","feature_class":"P","feature_code":"PPLA3","country_code":"AT","cc2":"","admin1_code":"07","admin2_code":"702","admin3_code":"70215","admin4_code":"","population":"0","elevation":"","dem":"962","timezone":"Europe/Vienna","modification_date":"2011-07-31"},{"geonameid":"2767469","name":"Ried im Oberinntal","asciiname":"Ried im Oberinntal","alternatenames":["Ried","Ried im Oberinntal"],"latitude":"47.05","longitude":"10.65","feature_class":"P","feature_code":"PPLA3","country_code":"AT","cc2":"AT","admin1_code":"07","admin2_code":"706","admin3_code":"70620","admin4_code":"","population":"0","elevation":"","dem":"888","timezone":"Europe/Vienna","modification_date":"2011-07-31"},{"geonameid":"2767511","name":"Reutte","asciiname":"Reutte","alternatenames":["Reutte","Reutte in Tirol","Rojte","Rojtte","Ройте","Ройтте","Ројте","ریوٹ"],"latitude":"47.48333","longitude":"10.71667","feature_class":"P","feature_code":"PPLA3","country_code":"AT","cc2":"","admin1_code":"07","admin2_code":"708","admin3_code":"70828","admin4_code":"","population":"5851","elevation":"","dem":"856","timezone":"Europe/Vienna","modification_date":"2011-07-31"},{"geonameid":"2767526","name":"Rettenschöss","asciiname":"Rettenschoss","alternatenames":[""],"latitude":"47.65718","longitude":"12.26872","feature_class":"P","feature_code":"PPLA3","country_code":"AT","cc2":"","admin1_code":"07","admin2_code":"705","admin3_code":"70523","admin4_code":"","population":"0","elevation":"","dem":"676","timezone":"Europe/Vienna","modification_date":"2011-07-31"},{"geonameid":"2767605","name":"Reith bei Seefeld","asciiname":"Reith bei Seefeld","alternatenames":["Reith","Reith bei Seefeld"],"latitude":"47.3","longitude":"11.2","feature_class":"P","feature_code":"PPLA3","country_code":"AT","cc2":"AT","admin1_code":"07","admin2_code":"703","admin3_code":"70344","admin4_code":"","population":"0","elevation":"","dem":"1100","timezone":"Europe/Vienna","modification_date":"2011-07-31"},{"geonameid":"2767606","name":"Reith bei Kitzbühel","asciiname":"Reith bei Kitzbuhel","alternatenames":["Reith","Reith bei Kitzbuhel","Reith bei Kitzbühel"],"latitude":"47.46667","longitude":"12.35","feature_class":"P","feature_code":"PPLA3","country_code":"AT","cc2":"AT","admin1_code":"07","admin2_code":"704","admin3_code":"70414","admin4_code":"","population":"0","elevation":"","dem":"766","timezone":"Europe/Vienna","modification_date":"2011-07-31"},{"geonameid":"2767607","name":"Reith im Alpbachtal","asciiname":"Reith im Alpbachtal","alternatenames":["Reith","Reith bei Brixlegg"],"latitude":"47.41694","longitude":"11.87785","feature_class":"P","feature_code":"PPLA3","country_code":"AT","cc2":"AT","admin1_code":"07","admin2_code":"705","admin3_code":"70522","admin4_code":"","population":"0","elevation":"","dem":"636","timezone":"Europe/Vienna","modification_date":"2011-07-31"},{"geonameid":"2767902","name":"Rattenberg","asciiname":"Rattenberg","alternatenames":["Rattenberg"],"latitude":"47.43941","longitude":"11.89407","feature_class":"P","feature_code":"PPLA3","country_code":"AT","cc2":"","admin1_code":"07","admin2_code":"705","admin3_code":"70521","admin4_code":"","population":"0","elevation":"","dem":"524","timezone":"Europe/Vienna","modification_date":"2013-02-07"},{"geonameid":"2767979","name":"Ranggen","asciiname":"Ranggen","alternatenames":[""],"latitude":"47.26667","longitude":"11.2","feature_class":"P","feature_code":"PPLA3","country_code":"AT","cc2":"","admin1_code":"07","admin2_code":"703","admin3_code":"70343","admin4_code":"","population":"0","elevation":"","dem":"753","timezone":"Europe/Vienna","modification_date":"2011-07-31"},{"geonameid":"2768007","name":"Ramsau im Zillertal","asciiname":"Ramsau im Zillertal","alternatenames":["Ramsau","Ramsau im Zillertal","Ramzau","Рамзау"],"latitude":"47.20383","longitude":"11.87545","feature_class":"P","feature_code":"PPLA3","country_code":"AT","cc2":"AT","admin1_code":"07","admin2_code":"709","admin3_code":"70922","admin4_code":"","population":"1582","elevation":"","dem":"600","timezone":"Europe/Vienna","modification_date":"2012-02-24"},{"geonameid":"2768125","name":"Radfeld","asciiname":"Radfeld","alternatenames":["Radfeld"],"latitude":"47.44806","longitude":"11.91424","feature_class":"P","feature_code":"PPLA3","country_code":"AT","cc2":"","admin1_code":"07","admin2_code":"705","admin3_code":"70520","admin4_code":"","population":"0","elevation":"","dem":"512","timezone":"Europe/Vienna","modification_date":"2013-02-07"},{"geonameid":"2768291","name":"Prutz","asciiname":"Prutz","alternatenames":["Prutz"],"latitude":"47.08333","longitude":"10.66667","feature_class":"P","feature_code":"PPLA3","country_code":"AT","cc2":"","admin1_code":"07","admin2_code":"706","admin3_code":"70619","admin4_code":"","population":"0","elevation":"","dem":"865","timezone":"Europe/Vienna","modification_date":"2011-07-31"},{"geonameid":"2768561","name":"Polling in Tirol","asciiname":"Polling in Tirol","alternatenames":["Polling","Polling in Tirol"],"latitude":"47.28333","longitude":"11.15","feature_class":"P","feature_code":"PPLA3","country_code":"AT","cc2":"AT","admin1_code":"07","admin2_code":"703","admin3_code":"70342","admin4_code":"","population":"0","elevation":"","dem":"605","timezone":"Europe/Vienna","modification_date":"2011-07-31"},{"geonameid":"2768827","name":"Pill","asciiname":"Pill","alternatenames":["Pill","Pill unter dem Bache"],"latitude":"47.31667","longitude":"11.68333","feature_class":"P","feature_code":"PPLA3","country_code":"AT","cc2":"AT","admin1_code":"07","admin2_code":"709","admin3_code":"70921","admin4_code":"","population":"0","elevation":"","dem":"674","timezone":"Europe/Vienna","modification_date":"2011-07-31"},{"geonameid":"2768902","name":"Pians","asciiname":"Pians","alternatenames":["Pians"],"latitude":"47.13486","longitude":"10.51237","feature_class":"P","feature_code":"PPLA3","country_code":"AT","cc2":"","admin1_code":"07","admin2_code":"706","admin3_code":"70618","admin4_code":"","population":"0","elevation":"","dem":"848","timezone":"Europe/Vienna","modification_date":"2011-07-31"},{"geonameid":"2768905","name":"Pfunds","asciiname":"Pfunds","alternatenames":["Pfunds","Пфундс"],"latitude":"46.96667","longitude":"10.55","feature_class":"P","feature_code":"PPLA3","country_code":"AT","cc2":"","admin1_code":"07","admin2_code":"706","admin3_code":"70617","admin4_code":"","population":"0","elevation":"","dem":"992","timezone":"Europe/Vienna","modification_date":"2011-07-31"},{"geonameid":"2768913","name":"Pfons","asciiname":"Pfons","alternatenames":[""],"latitude":"47.15","longitude":"11.46667","feature_class":"P","feature_code":"PPLA3","country_code":"AT","cc2":"","admin1_code":"07","admin2_code":"703","admin3_code":"70341","admin4_code":"","population":"0","elevation":"","dem":"1298","timezone":"Europe/Vienna","modification_date":"2011-07-31"},{"geonameid":"2768921","name":"Pflach","asciiname":"Pflach","alternatenames":["Pflach"],"latitude":"47.51667","longitude":"10.71667","feature_class":"P","feature_code":"PPLA3","country_code":"AT","cc2":"","admin1_code":"07","admin2_code":"708","admin3_code":"70826","admin4_code":"","population":"0","elevation":"","dem":"839","timezone":"Europe/Vienna","modification_date":"2011-07-31"},{"geonameid":"2768976","name":"Pfaffenhofen","asciiname":"Pfaffenhofen","alternatenames":[""],"latitude":"47.3","longitude":"11.08333","feature_class":"P","feature_code":"PPLA3","country_code":"AT","cc2":"","admin1_code":"07","admin2_code":"703","admin3_code":"70340","admin4_code":"","population":"0","elevation":"","dem":"634","timezone":"Europe/Vienna","modification_date":"2011-07-31"},{"geonameid":"2769211","name":"Patsch","asciiname":"Patsch","alternatenames":[""],"latitude":"47.2","longitude":"11.41667","feature_class":"P","feature_code":"PPLA3","country_code":"AT","cc2":"","admin1_code":"07","admin2_code":"703","admin3_code":"70338","admin4_code":"","population":"0","elevation":"","dem":"999","timezone":"Europe/Vienna","modification_date":"2011-07-31"},{"geonameid":"2769324","name":"Oetz","asciiname":"Oetz","alternatenames":["Ehc","Ehtc","Oetz","Otz","Ötz","Этц","Эц"],"latitude":"47.2","longitude":"10.9","feature_class":"P","feature_code":"PPLA3","country_code":"AT","cc2":"AT","admin1_code":"07","admin2_code":"702","admin3_code":"70214","admin4_code":"","population":"2238","elevation":"812","dem":"786","timezone":"Europe/Vienna","modification_date":"2011-07-31"},{"geonameid":"2769662","name":"Obertilliach","asciiname":"Obertilliach","alternatenames":["Obertilliach"],"latitude":"46.71056","longitude":"12.61444","feature_class":"P","feature_code":"PPLA3","country_code":"AT","cc2":"","admin1_code":"07","admin2_code":"707","admin3_code":"70721","admin4_code":"","population":"0","elevation":"","dem":"1472","timezone":"Europe/Vienna","modification_date":"2011-07-31"},{"geonameid":"2769836","name":"Pettnau","asciiname":"Pettnau","alternatenames":["Oberpettnau","Pettnau"],"latitude":"47.3","longitude":"11.13333","feature_class":"P","feature_code":"PPLA3","country_code":"AT","cc2":"AT","admin1_code":"07","admin2_code":"703","admin3_code":"70339","admin4_code":"","population":"0","elevation":"","dem":"610","timezone":"Europe/Vienna","modification_date":"2011-07-31"},{"geonameid":"2769872","name":"Oberndorf in Tirol","asciiname":"Oberndorf in Tirol","alternatenames":["Oberndorf","Oberndorf in Tirol"],"latitude":"47.5","longitude":"12.38333","feature_class":"P","feature_code":"PPLA3","country_code":"AT","cc2":"AT","admin1_code":"07","admin2_code":"704","admin3_code":"70413","admin4_code":"","population":"0","elevation":"","dem":"689","timezone":"Europe/Vienna","modification_date":"2011-07-31"},{"geonameid":"2769952","name":"Oberlienz","asciiname":"Oberlienz","alternatenames":["Oberlienz"],"latitude":"46.84722","longitude":"12.73139","feature_class":"P","feature_code":"PPLA3","country_code":"AT","cc2":"","admin1_code":"07","admin2_code":"707","admin3_code":"70720","admin4_code":"","population":"0","elevation":"","dem":"817","timezone":"Europe/Vienna","modification_date":"2011-07-31"},{"geonameid":"2770041","name":"Oberhofen im Inntal","asciiname":"Oberhofen im Inntal","alternatenames":["Oberhofen","Oberhofen im Inntal","Oberhofen in Tirol","Oberkhofen","Оберхофен"],"latitude":"47.3","longitude":"11.08333","feature_class":"P","feature_code":"PPLA3","country_code":"AT","cc2":"AT","admin1_code":"07","admin2_code":"703","admin3_code":"70335","admin4_code":"","population":"0","elevation":"","dem":"634","timezone":"Europe/Vienna","modification_date":"2011-07-31"},{"geonameid":"2770479","name":"Nikolsdorf","asciiname":"Nikolsdorf","alternatenames":["Nikolsdorf"],"latitude":"46.78583","longitude":"12.91333","feature_class":"P","feature_code":"PPLA3","country_code":"AT","cc2":"","admin1_code":"07","admin2_code":"707","admin3_code":"70718","admin4_code":"","population":"0","elevation":"","dem":"770","timezone":"Europe/Vienna","modification_date":"2011-07-31"},{"geonameid":"2770555","name":"Niederndorf","asciiname":"Niederndorf","alternatenames":[""],"latitude":"47.65","longitude":"12.21667","feature_class":"P","feature_code":"PPLA3","country_code":"AT","cc2":"","admin1_code":"07","admin2_code":"705","admin3_code":"70518","admin4_code":"","population":"0","elevation":"","dem":"498","timezone":"Europe/Vienna","modification_date":"2011-07-31"},{"geonameid":"2770651","name":"Neustift im Stubaital","asciiname":"Neustift im Stubaital","alternatenames":["Neustift","Neustift im Stubaital","Nojshtift","Nojshtift-im-Shtubajtal'","shi tu bai gu de xin shi di fu te","Нойштифт","Нойштіфт-ім-Штубайталь","نیوسٹفٹ ام سٹوبائٹل","施图拜谷地新施蒂夫特"],"latitude":"47.11667","longitude":"11.31667","feature_class":"P","feature_code":"PPL","country_code":"AT","cc2":"AT","admin1_code":"07","admin2_code":"703","admin3_code":"70334","admin4_code":"","population":"4454","elevation":"","dem":"970","timezone":"Europe/Vienna","modification_date":"2014-05-03"},{"geonameid":"2770879","name":"Nesselwängle","asciiname":"Nesselwangle","alternatenames":["Nesselwangle","Nesselwängle"],"latitude":"47.48333","longitude":"10.61667","feature_class":"P","feature_code":"PPLA3","country_code":"AT","cc2":"","admin1_code":"07","admin2_code":"708","admin3_code":"70824","admin4_code":"","population":"0","elevation":"","dem":"1162","timezone":"Europe/Vienna","modification_date":"2011-07-31"},{"geonameid":"2770910","name":"Nauders","asciiname":"Nauders","alternatenames":["Nauders","Наудерс"],"latitude":"46.88333","longitude":"10.51667","feature_class":"P","feature_code":"PPLA3","country_code":"AT","cc2":"","admin1_code":"07","admin2_code":"706","admin3_code":"70615","admin4_code":"","population":"1539","elevation":"","dem":"1557","timezone":"Europe/Vienna","modification_date":"2011-07-31"},{"geonameid":"2770913","name":"Natters","asciiname":"Natters","alternatenames":[""],"latitude":"47.23414","longitude":"11.37342","feature_class":"P","feature_code":"PPLA3","country_code":"AT","cc2":"","admin1_code":"07","admin2_code":"703","admin3_code":"70332","admin4_code":"","population":"0","elevation":"","dem":"779","timezone":"Europe/Vienna","modification_date":"2011-07-31"},{"geonameid":"2770927","name":"Nassereith","asciiname":"Nassereith","alternatenames":["Nassereith"],"latitude":"47.31667","longitude":"10.83333","feature_class":"P","feature_code":"PPLA3","country_code":"AT","cc2":"","admin1_code":"07","admin2_code":"702","admin3_code":"70212","admin4_code":"","population":"0","elevation":"","dem":"842","timezone":"Europe/Vienna","modification_date":"2011-07-31"},{"geonameid":"2770941","name":"Namlos","asciiname":"Namlos","alternatenames":["Namlos"],"latitude":"47.35","longitude":"10.66667","feature_class":"P","feature_code":"PPLA3","country_code":"AT","cc2":"","admin1_code":"07","admin2_code":"708","admin3_code":"70823","admin4_code":"","population":"0","elevation":"","dem":"1445","timezone":"Europe/Vienna","modification_date":"2011-07-31"},{"geonameid":"2770974","name":"Mutters","asciiname":"Mutters","alternatenames":["Mutters","Муттерс"],"latitude":"47.23333","longitude":"11.38333","feature_class":"P","feature_code":"PPLA3","country_code":"AT","cc2":"","admin1_code":"07","admin2_code":"703","admin3_code":"70331","admin4_code":"","population":"1987","elevation":"830","dem":"776","timezone":"Europe/Vienna","modification_date":"2012-06-16"},{"geonameid":"2770991","name":"Musau","asciiname":"Musau","alternatenames":["Agno","Musau","Агно"],"latitude":"47.53333","longitude":"10.66667","feature_class":"P","feature_code":"PPLA3","country_code":"AT","cc2":"","admin1_code":"07","admin2_code":"708","admin3_code":"70822","admin4_code":"","population":"0","elevation":"","dem":"819","timezone":"Europe/Vienna","modification_date":"2011-07-31"},{"geonameid":"2771028","name":"Münster","asciiname":"Munster","alternatenames":["Mjunster","Мюнстер"],"latitude":"47.42164","longitude":"11.83356","feature_class":"P","feature_code":"PPLA3","country_code":"AT","cc2":"","admin1_code":"07","admin2_code":"705","admin3_code":"70517","admin4_code":"","population":"0","elevation":"","dem":"536","timezone":"Europe/Vienna","modification_date":"2011-07-31"},{"geonameid":"2771148","name":"Mötz","asciiname":"Motz","alternatenames":[""],"latitude":"47.28333","longitude":"10.95","feature_class":"P","feature_code":"PPLA3","country_code":"AT","cc2":"","admin1_code":"07","admin2_code":"702","admin3_code":"70211","admin4_code":"","population":"0","elevation":"","dem":"728","timezone":"Europe/Vienna","modification_date":"2011-07-31"},{"geonameid":"2771582","name":"Mils bei Imst","asciiname":"Mils bei Imst","alternatenames":["Mils","Mils bei Imst"],"latitude":"47.20616","longitude":"10.67485","feature_class":"P","feature_code":"PPLA3","country_code":"AT","cc2":"","admin1_code":"07","admin2_code":"702","admin3_code":"70210","admin4_code":"","population":"0","elevation":"","dem":"733","timezone":"Europe/Vienna","modification_date":"2011-07-31"},{"geonameid":"2771606","name":"Mieming","asciiname":"Mieming","alternatenames":[""],"latitude":"47.3","longitude":"10.98333","feature_class":"P","feature_code":"PPLA3","country_code":"AT","cc2":"","admin1_code":"07","admin2_code":"702","admin3_code":"70209","admin4_code":"","population":"0","elevation":"","dem":"849","timezone":"Europe/Vienna","modification_date":"2011-07-31"},{"geonameid":"2771609","name":"Mieders","asciiname":"Mieders","alternatenames":[""],"latitude":"47.16667","longitude":"11.38333","feature_class":"P","feature_code":"PPLA3","country_code":"AT","cc2":"","admin1_code":"07","admin2_code":"703","admin3_code":"70328","admin4_code":"","population":"0","elevation":"","dem":"971","timezone":"Europe/Vienna","modification_date":"2011-07-31"},{"geonameid":"2771725","name":"Mayrhofen","asciiname":"Mayrhofen","alternatenames":["Mairhofen","Majerkhofen","Majrgofen","Majrkhofen","Mayrhofen","Zillertal","mai er huo fen","Майерхофен","Майргофен","Майрхофен","מאיירהופן","迈尔霍芬"],"latitude":"47.16667","longitude":"11.86667","feature_class":"P","feature_code":"PPLA3","country_code":"AT","cc2":"AT","admin1_code":"07","admin2_code":"709","admin3_code":"70920","admin4_code":"","population":"3869","elevation":"633","dem":"641","timezone":"Europe/Vienna","modification_date":"2011-07-31"},{"geonameid":"2771828","name":"Matrei in Osttirol","asciiname":"Matrei in Osttirol","alternatenames":["Matraj","Matraj (Osttirol')","Matraj-in-Osttirol'","Matrei","Matrei in Osttirol","Motre","dong di luo er de qu ma te lai","Матрай","Матрай (Осттироль)","Матрай-ін-Осттіроль","东蒂罗尔地区马特赖"],"latitude":"47","longitude":"12.53333","feature_class":"P","feature_code":"PPLA3","country_code":"AT","cc2":"","admin1_code":"07","admin2_code":"707","admin3_code":"70717","admin4_code":"","population":"5076","elevation":"","dem":"946","timezone":"Europe/Vienna","modification_date":"2011-07-31"},{"geonameid":"2771830","name":"Matrei am Brenner","asciiname":"Matrei am Brenner","alternatenames":["Matrei","Matrei am Brenner"],"latitude":"47.13333","longitude":"11.45","feature_class":"P","feature_code":"PPLA3","country_code":"AT","cc2":"AT","admin1_code":"07","admin2_code":"703","admin3_code":"70327","admin4_code":"","population":"0","elevation":"","dem":"1058","timezone":"Europe/Vienna","modification_date":"2011-07-31"},{"geonameid":"2771902","name":"Mariastein","asciiname":"Mariastein","alternatenames":["Mariastein"],"latitude":"47.53333","longitude":"12.05","feature_class":"P","feature_code":"PPLA3","country_code":"AT","cc2":"","admin1_code":"07","admin2_code":"705","admin3_code":"70516","admin4_code":"","population":"0","elevation":"","dem":"724","timezone":"Europe/Vienna","modification_date":"2011-07-31"},{"geonameid":"2772505","name":"Lienz","asciiname":"Lienz","alternatenames":["Lianz","Lienc","Lienz","Lijenc","Linc","li en ci","liencheu","lientsi","lyynts","lyynz","rientsu","Лиенц","Линц","Лијенц","Лієнц","ליינץ","لیینتس","ლიენცი","リエンツ","利恩茨","리엔츠"],"latitude":"46.8289","longitude":"12.76903","feature_class":"P","feature_code":"PPLA3","country_code":"AT","cc2":"","admin1_code":"07","admin2_code":"707","admin3_code":"70716","admin4_code":"","population":"12270","elevation":"","dem":"681","timezone":"Europe/Vienna","modification_date":"2011-07-31"},{"geonameid":"2772592","name":"Lermoos","asciiname":"Lermoos","alternatenames":["Leermoos","Lermoos","Lermos","Лермос"],"latitude":"47.40358","longitude":"10.8807","feature_class":"P","feature_code":"PPLA3","country_code":"AT","cc2":"AT","admin1_code":"07","admin2_code":"708","admin3_code":"70821","admin4_code":"","population":"1115","elevation":"","dem":"985","timezone":"Europe/Vienna","modification_date":"2013-11-25"},{"geonameid":"2772736","name":"Leisach","asciiname":"Leisach","alternatenames":["Leisach"],"latitude":"46.8125","longitude":"12.74861","feature_class":"P","feature_code":"PPLA3","country_code":"AT","cc2":"","admin1_code":"07","admin2_code":"707","admin3_code":"70715","admin4_code":"","population":"0","elevation":"","dem":"745","timezone":"Europe/Vienna","modification_date":"2011-07-31"},{"geonameid":"2772796","name":"Lechaschau","asciiname":"Lechaschau","alternatenames":["Lechaschau"],"latitude":"47.48804","longitude":"10.70652","feature_class":"P","feature_code":"PPLA3","country_code":"AT","cc2":"","admin1_code":"07","admin2_code":"708","admin3_code":"70820","admin4_code":"","population":"0","elevation":"","dem":"846","timezone":"Europe/Vienna","modification_date":"2012-07-31"},{"geonameid":"2772820","name":"Lavant","asciiname":"Lavant","alternatenames":["Lavant"],"latitude":"46.79889","longitude":"12.83806","feature_class":"P","feature_code":"PPLA3","country_code":"AT","cc2":"","admin1_code":"07","admin2_code":"707","admin3_code":"70714","admin4_code":"","population":"0","elevation":"","dem":"656","timezone":"Europe/Vienna","modification_date":"2011-07-31"},{"geonameid":"2772960","name":"Lans","asciiname":"Lans","alternatenames":[""],"latitude":"47.23333","longitude":"11.45","feature_class":"P","feature_code":"PPLA3","country_code":"AT","cc2":"","admin1_code":"07","admin2_code":"703","admin3_code":"70325","admin4_code":"","population":"0","elevation":"","dem":"988","timezone":"Europe/Vienna","modification_date":"2011-07-31"},{"geonameid":"2773070","name":"Landeck","asciiname":"Landeck","alternatenames":[""],"latitude":"47.13988","longitude":"10.56593","feature_class":"P","feature_code":"PPLA3","country_code":"AT","cc2":"","admin1_code":"07","admin2_code":"706","admin3_code":"70614","admin4_code":"","population":"7351","elevation":"","dem":"789","timezone":"Europe/Vienna","modification_date":"2011-07-31"},{"geonameid":"2773165","name":"Ladis","asciiname":"Ladis","alternatenames":["Ladis"],"latitude":"47.06667","longitude":"10.63333","feature_class":"P","feature_code":"PPLA3","country_code":"AT","cc2":"","admin1_code":"07","admin2_code":"706","admin3_code":"70613","admin4_code":"","population":"0","elevation":"","dem":"1396","timezone":"Europe/Vienna","modification_date":"2011-07-31"},{"geonameid":"2773250","name":"Kundl","asciiname":"Kundl","alternatenames":["Kundl","Kundl'","Кундль"],"latitude":"47.46667","longitude":"11.98333","feature_class":"P","feature_code":"PPLA3","country_code":"AT","cc2":"","admin1_code":"07","admin2_code":"705","admin3_code":"70514","admin4_code":"","population":"0","elevation":"","dem":"533","timezone":"Europe/Vienna","modification_date":"2011-07-31"},{"geonameid":"2773300","name":"Kufstein","asciiname":"Kufstein","alternatenames":["Kuffstein","Kufshhajn","Kufshtajn","Kufsstein","Kufstein","Kufsteinas","Kufstoa","Kufšteinas","ku fu shi tai yin","kufushutain","kupeusyutain","qwpstyyn","Куфштайн","Куфштајн","Куфщайн","קופשטיין","کوف‌اشتاین","კუფშტაინი","クーフシュタイン","库夫施泰因","쿠프슈타인"],"latitude":"47.58333","longitude":"12.16667","feature_class":"P","feature_code":"PPLA3","country_code":"AT","cc2":"","admin1_code":"07","admin2_code":"705","admin3_code":"70513","admin4_code":"","population":"16115","elevation":"","dem":"483","timezone":"Europe/Vienna","modification_date":"2011-07-31"},{"geonameid":"2773605","name":"Kramsach","asciiname":"Kramsach","alternatenames":["Kramsach","Kramzakh","Крамзах"],"latitude":"47.44312","longitude":"11.87545","feature_class":"P","feature_code":"PPLA3","country_code":"AT","cc2":"","admin1_code":"07","admin2_code":"705","admin3_code":"70512","admin4_code":"","population":"0","elevation":"","dem":"532","timezone":"Europe/Vienna","modification_date":"2013-02-07"},{"geonameid":"2773691","name":"Kössen","asciiname":"Kossen","alternatenames":["Kessen","Kjossen","ke sen","kwsn","Кессен","Кёссен","کوسن","克森"],"latitude":"47.6699","longitude":"12.40545","feature_class":"P","feature_code":"PPLA3","country_code":"AT","cc2":"","admin1_code":"07","admin2_code":"704","admin3_code":"70412","admin4_code":"","population":"0","elevation":"","dem":"589","timezone":"Europe/Vienna","modification_date":"2011-07-31"},{"geonameid":"2773773","name":"Kolsass","asciiname":"Kolsass","alternatenames":[""],"latitude":"47.28333","longitude":"11.63333","feature_class":"P","feature_code":"PPLA3","country_code":"AT","cc2":"","admin1_code":"07","admin2_code":"703","admin3_code":"70322","admin4_code":"","population":"0","elevation":"","dem":"1185","timezone":"Europe/Vienna","modification_date":"2011-07-31"},{"geonameid":"2774347","name":"Kitzbühel","asciiname":"Kitzbuhel","alternatenames":["Kicbil","Kicbiuhelis","Kicbjuehl'","Kicbjuel","Kicbjuel'","Kitzbichl","Kitzbuehel","Kitzbühel","ji ci bi e er","kicheubwil","kittsubyuru","ktsbwyl","qyzbyhl","Кицбил","Кицбюел","Кицбюэль","Кіцбюель","קיצביהל","كتسبويل","キッツビュール","基茨比厄爾","키츠뷜"],"latitude":"47.44637","longitude":"12.39215","feature_class":"P","feature_code":"PPLA3","country_code":"AT","cc2":"","admin1_code":"07","admin2_code":"704","admin3_code":"70411","admin4_code":"","population":"8818","elevation":"","dem":"751","timezone":"Europe/Vienna","modification_date":"2011-07-31"},{"geonameid":"2774387","name":"Kirchdorf in Tirol","asciiname":"Kirchdorf in Tirol","alternatenames":["Kirchdorf","Kirchdorf in Tirol","Kirkhdorf (Tirol')","Кирхдорф (Тироль)"],"latitude":"47.55626","longitude":"12.44511","feature_class":"P","feature_code":"PPLA3","country_code":"AT","cc2":"AT","admin1_code":"07","admin2_code":"704","admin3_code":"70410","admin4_code":"","population":"0","elevation":"","dem":"641","timezone":"Europe/Vienna","modification_date":"2012-01-05"},{"geonameid":"2774399","name":"Kirchberg in Tirol","asciiname":"Kirchberg in Tirol","alternatenames":["Kirchberg","Kirkhberg (Tirol')","Кирхберг (Тироль)"],"latitude":"47.44539","longitude":"12.31602","feature_class":"P","feature_code":"PPLA3","country_code":"AT","cc2":"AT","admin1_code":"07","admin2_code":"704","admin3_code":"70409","admin4_code":"","population":"0","elevation":"","dem":"823","timezone":"Europe/Vienna","modification_date":"2011-07-31"},{"geonameid":"2774547","name":"Kematen in Tirol","asciiname":"Kematen in Tirol","alternatenames":["Kematen","Kematen in Tirol","Кематен"],"latitude":"47.25","longitude":"11.26667","feature_class":"P","feature_code":"PPLA3","country_code":"AT","cc2":"AT","admin1_code":"07","admin2_code":"703","admin3_code":"70320","admin4_code":"","population":"0","elevation":"","dem":"630","timezone":"Europe/Vienna","modification_date":"2011-07-31"},{"geonameid":"2774593","name":"Kauns","asciiname":"Kauns","alternatenames":["Kauns"],"latitude":"47.08333","longitude":"10.68333","feature_class":"P","feature_code":"PPLA3","country_code":"AT","cc2":"","admin1_code":"07","admin2_code":"706","admin3_code":"70612","admin4_code":"","population":"0","elevation":"","dem":"1216","timezone":"Europe/Vienna","modification_date":"2011-07-31"},{"geonameid":"2774673","name":"Kartitsch","asciiname":"Kartitsch","alternatenames":["Boden","Kartitsch"],"latitude":"46.72889","longitude":"12.50083","feature_class":"P","feature_code":"PPLA3","country_code":"AT","cc2":"AT","admin1_code":"07","admin2_code":"707","admin3_code":"70713","admin4_code":"","population":"0","elevation":"","dem":"1485","timezone":"Europe/Vienna","modification_date":"2011-07-31"},{"geonameid":"2774681","name":"Karrösten","asciiname":"Karrosten","alternatenames":[""],"latitude":"47.21667","longitude":"10.76667","feature_class":"P","feature_code":"PPLA3","country_code":"AT","cc2":"","admin1_code":"07","admin2_code":"702","admin3_code":"70207","admin4_code":"","population":"0","elevation":"","dem":"796","timezone":"Europe/Vienna","modification_date":"2011-07-31"},{"geonameid":"2774683","name":"Karres","asciiname":"Karres","alternatenames":[""],"latitude":"47.21667","longitude":"10.78333","feature_class":"P","feature_code":"PPLA3","country_code":"AT","cc2":"","admin1_code":"07","admin2_code":"702","admin3_code":"70206","admin4_code":"","population":"0","elevation":"","dem":"814","timezone":"Europe/Vienna","modification_date":"2011-07-31"},{"geonameid":"2774761","name":"Kappl","asciiname":"Kappl","alternatenames":["Kappl"],"latitude":"47.06667","longitude":"10.38333","feature_class":"P","feature_code":"PPLA3","country_code":"AT","cc2":"","admin1_code":"07","admin2_code":"706","admin3_code":"70609","admin4_code":"","population":"0","elevation":"","dem":"1321","timezone":"Europe/Vienna","modification_date":"2011-07-31"},{"geonameid":"2774876","name":"Kaltenbach","asciiname":"Kaltenbach","alternatenames":[""],"latitude":"47.28333","longitude":"11.86667","feature_class":"P","feature_code":"PPLA3","country_code":"AT","cc2":"","admin1_code":"07","admin2_code":"709","admin3_code":"70918","admin4_code":"","population":"0","elevation":"","dem":"930","timezone":"Europe/Vienna","modification_date":"2011-07-31"},{"geonameid":"2775000","name":"Jungholz","asciiname":"Jungholz","alternatenames":[""],"latitude":"47.57409","longitude":"10.44723","feature_class":"P","feature_code":"PPLA3","country_code":"AT","cc2":"","admin1_code":"07","admin2_code":"708","admin3_code":"70818","admin4_code":"","population":"0","elevation":"","dem":"1057","timezone":"Europe/Vienna","modification_date":"2011-07-31"},{"geonameid":"2775068","name":"Jochberg","asciiname":"Jochberg","alternatenames":["Jochberg","Khollersbakh","Холлерсбах"],"latitude":"47.3792","longitude":"12.41807","feature_class":"P","feature_code":"PPLA3","country_code":"AT","cc2":"","admin1_code":"07","admin2_code":"704","admin3_code":"70408","admin4_code":"","population":"0","elevation":"","dem":"931","timezone":"Europe/Vienna","modification_date":"2012-04-21"},{"geonameid":"2775086","name":"Jerzens","asciiname":"Jerzens","alternatenames":[""],"latitude":"47.15","longitude":"10.73333","feature_class":"P","feature_code":"PPLA3","country_code":"AT","cc2":"","admin1_code":"07","admin2_code":"702","admin3_code":"70205","admin4_code":"","population":"0","elevation":"","dem":"1143","timezone":"Europe/Vienna","modification_date":"2011-07-31"},{"geonameid":"2775093","name":"Jenbach","asciiname":"Jenbach","alternatenames":[""],"latitude":"47.39173","longitude":"11.77245","feature_class":"P","feature_code":"PPLA3","country_code":"AT","cc2":"","admin1_code":"07","admin2_code":"709","admin3_code":"70917","admin4_code":"","population":"6806","elevation":"","dem":"564","timezone":"Europe/Vienna","modification_date":"2011-07-31"},{"geonameid":"2775183","name":"Ischgl","asciiname":"Ischgl","alternatenames":["Isglis","Ishgl'","Ishgul","Išglis","XOI","aschgl","yi shi ge er","Ішгль","Ишгль","Ишгъл","אישגל","اسچگل","伊施格尔"],"latitude":"47.01257","longitude":"10.29179","feature_class":"P","feature_code":"PPLA3","country_code":"AT","cc2":"","admin1_code":"07","admin2_code":"706","admin3_code":"70608","admin4_code":"","population":"2128","elevation":"","dem":"1378","timezone":"Europe/Vienna","modification_date":"2011-07-31"},{"geonameid":"2775200","name":"Inzing","asciiname":"Inzing","alternatenames":[""],"latitude":"47.28333","longitude":"11.18333","feature_class":"P","feature_code":"PPLA3","country_code":"AT","cc2":"","admin1_code":"07","admin2_code":"703","admin3_code":"70319","admin4_code":"","population":"0","elevation":"","dem":"601","timezone":"Europe/Vienna","modification_date":"2011-07-31"},{"geonameid":"2775220","name":"Innsbruck","asciiname":"Innsbruck","alternatenames":["Gorad Insbruk","INN","Innsbruck","Innschbruck","Insbruc","Insbruk","Insbruka","Insbrukas","Insmprouk","Inzbruk","Pons Aeni","ansbrwk","anzbrk","aynsbrwk","insabruka","inseubeulukeu","insuburukku","xin s brukh","yin si bei lu ke","yin si bu lu ke","İnnsbruck","İnsbruk","Ίνσμπρουκ","Інсбрук","Горад Інсбрук","Инзбрук","Инсбрук","Ինսբրուք","אינסברוק","إنسبروك","انزبرک","اینسبروک","इन्सब्रुक","ইন্সব্রুক","อินส์บรุค","ინსბრუკი","インスブルック","因斯孛鲁克","因斯布鲁克","인스브루크"],"latitude":"47.26266","longitude":"11.39454","feature_class":"P","feature_code":"PPLA","country_code":"AT","cc2":"","admin1_code":"07","admin2_code":"701","admin3_code":"70101","admin4_code":"","population":"112467","elevation":"570","dem":"587","timezone":"Europe/Vienna","modification_date":"2014-05-03"},{"geonameid":"2775228","name":"Innervillgraten","asciiname":"Innervillgraten","alternatenames":["Innervillgraten"],"latitude":"46.81194","longitude":"12.37472","feature_class":"P","feature_code":"PPLA3","country_code":"AT","cc2":"","admin1_code":"07","admin2_code":"707","admin3_code":"70710","admin4_code":"","population":"0","elevation":"","dem":"1530","timezone":"Europe/Vienna","modification_date":"2011-07-31"},{"geonameid":"2775304","name":"Imsterberg","asciiname":"Imsterberg","alternatenames":[""],"latitude":"47.20517","longitude":"10.69605","feature_class":"P","feature_code":"PPLA3","country_code":"AT","cc2":"","admin1_code":"07","admin2_code":"702","admin3_code":"70204","admin4_code":"","population":"0","elevation":"","dem":"899","timezone":"Europe/Vienna","modification_date":"2011-07-31"},{"geonameid":"2775307","name":"Imst","asciiname":"Imst","alternatenames":["Imscht","Imst","imusuto","yi mu si te","Імст","Имст","イムスト","伊姆斯特"],"latitude":"47.24504","longitude":"10.73974","feature_class":"P","feature_code":"PPLA3","country_code":"AT","cc2":"","admin1_code":"07","admin2_code":"702","admin3_code":"70203","admin4_code":"","population":"9225","elevation":"","dem":"823","timezone":"Europe/Vienna","modification_date":"2011-07-31"},{"geonameid":"2775541","name":"Hopfgarten im Brixental","asciiname":"Hopfgarten im Brixental","alternatenames":["Gopfgarten-im-Briksental'","Hopfgarten","Hopfgarten Markt","Hopfgarten im Brixental","Hopfgarten in Nordtirol","Khopfgarten-im-Briksental'","bu li ke sen gu de huo pu fu jia er teng","Гопфгартен-ім-Бріксенталь","Хопфгартен-им-Бриксенталь","布里克森谷地霍普夫加尔滕"],"latitude":"47.45","longitude":"12.16667","feature_class":"P","feature_code":"PPL","country_code":"AT","cc2":"","admin1_code":"07","admin2_code":"704","admin3_code":"70406","admin4_code":"","population":"5314","elevation":"","dem":"726","timezone":"Europe/Vienna","modification_date":"2014-05-03"},{"geonameid":"2775542","name":"Hopfgarten in Defereggen","asciiname":"Hopfgarten in Defereggen","alternatenames":["Hopfgarten","Hopfgarten in Defereggen"],"latitude":"46.91917","longitude":"12.53639","feature_class":"P","feature_code":"PPLA3","country_code":"AT","cc2":"AT","admin1_code":"07","admin2_code":"707","admin3_code":"70709","admin4_code":"","population":"0","elevation":"","dem":"1318","timezone":"Europe/Vienna","modification_date":"2011-07-31"},{"geonameid":"2775843","name":"Höfen","asciiname":"Hofen","alternatenames":[""],"latitude":"47.46667","longitude":"10.68333","feature_class":"P","feature_code":"PPLA3","country_code":"AT","cc2":"","admin1_code":"07","admin2_code":"708","admin3_code":"70816","admin4_code":"","population":"0","elevation":"","dem":"860","timezone":"Europe/Vienna","modification_date":"2011-07-31"},{"geonameid":"2776069","name":"Hochfilzen","asciiname":"Hochfilzen","alternatenames":["Gokhfil'cen","Hochfilzen","Hohfilcene","Khokhfil'cen","Khokhfilcen","huo he fei er cen","Гохфільцен","Хохфилцен","Хохфильцен","霍赫菲尔岑"],"latitude":"47.46667","longitude":"12.61667","feature_class":"P","feature_code":"PPLA3","country_code":"AT","cc2":"","admin1_code":"07","admin2_code":"704","admin3_code":"70405","admin4_code":"","population":"0","elevation":"","dem":"1000","timezone":"Europe/Vienna","modification_date":"2011-07-31"},{"geonameid":"2776204","name":"Hippach","asciiname":"Hippach","alternatenames":["Hippach","Khippakh","Хиппах"],"latitude":"47.20435","longitude":"11.86523","feature_class":"P","feature_code":"PPLA3","country_code":"AT","cc2":"","admin1_code":"07","admin2_code":"709","admin3_code":"70916","admin4_code":"","population":"1371","elevation":"","dem":"604","timezone":"Europe/Vienna","modification_date":"2012-02-24"},{"geonameid":"2776546","name":"Heiterwang","asciiname":"Heiterwang","alternatenames":["Heiterwang"],"latitude":"47.45","longitude":"10.75","feature_class":"P","feature_code":"PPLA3","country_code":"AT","cc2":"","admin1_code":"07","admin2_code":"708","admin3_code":"70814","admin4_code":"","population":"0","elevation":"","dem":"980","timezone":"Europe/Vienna","modification_date":"2011-07-31"},{"geonameid":"2776693","name":"Hatting","asciiname":"Hatting","alternatenames":[""],"latitude":"47.28333","longitude":"11.16667","feature_class":"P","feature_code":"PPLA3","country_code":"AT","cc2":"","admin1_code":"07","admin2_code":"703","admin3_code":"70318","admin4_code":"","population":"0","elevation":"","dem":"607","timezone":"Europe/Vienna","modification_date":"2011-07-31"},{"geonameid":"2776748","name":"Häselgehr","asciiname":"Haselgehr","alternatenames":["Haselgehr","Häselgehr"],"latitude":"47.31667","longitude":"10.5","feature_class":"P","feature_code":"PPLA3","country_code":"AT","cc2":"","admin1_code":"07","admin2_code":"708","admin3_code":"70813","admin4_code":"","population":"0","elevation":"","dem":"1016","timezone":"Europe/Vienna","modification_date":"2011-07-31"},{"geonameid":"2776791","name":"Hart im Zillertal","asciiname":"Hart im Zillertal","alternatenames":["Hart","Hart im Zillertal"],"latitude":"47.35106","longitude":"11.86476","feature_class":"P","feature_code":"PPLA3","country_code":"AT","cc2":"AT","admin1_code":"07","admin2_code":"709","admin3_code":"70915","admin4_code":"","population":"0","elevation":"","dem":"534","timezone":"Europe/Vienna","modification_date":"2013-12-06"},{"geonameid":"2776866","name":"Bad Häring","asciiname":"Bad Haering","alternatenames":[""],"latitude":"47.51071","longitude":"12.11912","feature_class":"P","feature_code":"PPLA3","country_code":"AT","cc2":"","admin1_code":"07","admin2_code":"705","admin3_code":"70503","admin4_code":"","population":"2383","elevation":"650","dem":"589","timezone":"Europe/Vienna","modification_date":"2013-02-07"},{"geonameid":"2776970","name":"Hainzenberg","asciiname":"Hainzenberg","alternatenames":["Hainzenberg"],"latitude":"47.21788","longitude":"11.90034","feature_class":"P","feature_code":"PPLA3","country_code":"AT","cc2":"","admin1_code":"07","admin2_code":"709","admin3_code":"70914","admin4_code":"","population":"0","elevation":"","dem":"926","timezone":"Europe/Vienna","modification_date":"2011-07-31"},{"geonameid":"2777001","name":"Haiming","asciiname":"Haiming","alternatenames":[""],"latitude":"47.25","longitude":"10.88333","feature_class":"P","feature_code":"PPLA3","country_code":"AT","cc2":"","admin1_code":"07","admin2_code":"702","admin3_code":"70202","admin4_code":"","population":"0","elevation":"","dem":"674","timezone":"Europe/Vienna","modification_date":"2011-07-31"},{"geonameid":"2777939","name":"Grins","asciiname":"Grins","alternatenames":["Grins","Innerdorf"],"latitude":"47.14034","longitude":"10.51409","feature_class":"P","feature_code":"PPLA3","country_code":"AT","cc2":"","admin1_code":"07","admin2_code":"706","admin3_code":"70607","admin4_code":"","population":"0","elevation":"","dem":"996","timezone":"Europe/Vienna","modification_date":"2011-07-31"},{"geonameid":"2777974","name":"Gries im Sellrain","asciiname":"Gries im Sellrain","alternatenames":["Gries","Gries in Sellrain"],"latitude":"47.19554","longitude":"11.15619","feature_class":"P","feature_code":"PPLA3","country_code":"AT","cc2":"AT","admin1_code":"07","admin2_code":"703","admin3_code":"70314","admin4_code":"","population":"0","elevation":"1187","dem":"1193","timezone":"Europe/Vienna","modification_date":"2011-07-31"},{"geonameid":"2777992","name":"Gries am Brenner","asciiname":"Gries am Brenner","alternatenames":["Gries","Gries am Brenner","Ritten"],"latitude":"47.05","longitude":"11.48333","feature_class":"P","feature_code":"PPLA3","country_code":"AT","cc2":"AT","admin1_code":"07","admin2_code":"703","admin3_code":"70313","admin4_code":"","population":"0","elevation":"","dem":"1248","timezone":"Europe/Vienna","modification_date":"2011-07-31"},{"geonameid":"2778127","name":"Grän","asciiname":"Graen","alternatenames":["Gren","Грен"],"latitude":"47.5","longitude":"10.55","feature_class":"P","feature_code":"PPLA3","country_code":"AT","cc2":"","admin1_code":"07","admin2_code":"708","admin3_code":"70811","admin4_code":"","population":"586","elevation":"","dem":"1114","timezone":"Europe/Vienna","modification_date":"2011-07-31"},{"geonameid":"2778135","name":"Gramais","asciiname":"Gramais","alternatenames":["Gramais"],"latitude":"47.26667","longitude":"10.53333","feature_class":"P","feature_code":"PPLA3","country_code":"AT","cc2":"","admin1_code":"07","admin2_code":"708","admin3_code":"70812","admin4_code":"","population":"0","elevation":"","dem":"1293","timezone":"Europe/Vienna","modification_date":"2011-07-31"},{"geonameid":"2778220","name":"Götzens","asciiname":"Gotzens","alternatenames":[""],"latitude":"47.23606","longitude":"11.31154","feature_class":"P","feature_code":"PPLA3","country_code":"AT","cc2":"","admin1_code":"07","admin2_code":"703","admin3_code":"70312","admin4_code":"","population":"0","elevation":"","dem":"868","timezone":"Europe/Vienna","modification_date":"2011-07-31"},{"geonameid":"2778953","name":"Galtür","asciiname":"Galtur","alternatenames":["Galtur","Galtür","Platz"],"latitude":"46.96667","longitude":"10.18333","feature_class":"P","feature_code":"PPLA3","country_code":"AT","cc2":"AT","admin1_code":"07","admin2_code":"706","admin3_code":"70606","admin4_code":"","population":"0","elevation":"","dem":"1592","timezone":"Europe/Vienna","modification_date":"2011-07-31"},{"geonameid":"2778961","name":"Gallzein","asciiname":"Gallzein","alternatenames":["Gallzein","Gallzein uber Jenbach","Gallzein über Jenbach"],"latitude":"47.36807","longitude":"11.77159","feature_class":"P","feature_code":"PPLA3","country_code":"AT","cc2":"AT","admin1_code":"07","admin2_code":"709","admin3_code":"70911","admin4_code":"","population":"0","elevation":"","dem":"895","timezone":"Europe/Vienna","modification_date":"2013-02-07"},{"geonameid":"2779143","name":"Fulpmes","asciiname":"Fulpmes","alternatenames":["Ful'pmes","Fulpmes","Vulpmes","fu er pu mei si","Фульпмес","富尔普梅斯"],"latitude":"47.16667","longitude":"11.35","feature_class":"P","feature_code":"PPLA3","country_code":"AT","cc2":"AT","admin1_code":"07","admin2_code":"703","admin3_code":"70310","admin4_code":"","population":"0","elevation":"","dem":"1151","timezone":"Europe/Vienna","modification_date":"2011-07-31"},{"geonameid":"2779153","name":"Fügenberg","asciiname":"Fugenberg","alternatenames":["Fugenberg","Fügenberg"],"latitude":"47.3521","longitude":"11.84173","feature_class":"P","feature_code":"PPLA3","country_code":"AT","cc2":"","admin1_code":"07","admin2_code":"709","admin3_code":"70910","admin4_code":"","population":"0","elevation":"","dem":"687","timezone":"Europe/Vienna","modification_date":"2013-12-06"},{"geonameid":"2779154","name":"Fügen","asciiname":"Fugen","alternatenames":["Fjugen","Fugen","Fügen","Фюген"],"latitude":"47.347","longitude":"11.84939","feature_class":"P","feature_code":"PPLA3","country_code":"AT","cc2":"","admin1_code":"07","admin2_code":"709","admin3_code":"70909","admin4_code":"","population":"3734","elevation":"","dem":"544","timezone":"Europe/Vienna","modification_date":"2013-12-06"},{"geonameid":"2779214","name":"Fritzens","asciiname":"Fritzens","alternatenames":[""],"latitude":"47.3","longitude":"11.58333","feature_class":"P","feature_code":"PPLA3","country_code":"AT","cc2":"","admin1_code":"07","admin2_code":"703","admin3_code":"70309","admin4_code":"","population":"0","elevation":"","dem":"553","timezone":"Europe/Vienna","modification_date":"2011-07-31"},{"geonameid":"2779433","name":"Forchach","asciiname":"Forchach","alternatenames":["Forchach"],"latitude":"47.41667","longitude":"10.58333","feature_class":"P","feature_code":"PPLA3","country_code":"AT","cc2":"","admin1_code":"07","admin2_code":"708","admin3_code":"70810","admin4_code":"","population":"0","elevation":"","dem":"912","timezone":"Europe/Vienna","modification_date":"2011-07-31"},{"geonameid":"2779480","name":"Flirsch","asciiname":"Flirsch","alternatenames":["Flirsch"],"latitude":"47.15","longitude":"10.4","feature_class":"P","feature_code":"PPLA3","country_code":"AT","cc2":"","admin1_code":"07","admin2_code":"706","admin3_code":"70605","admin4_code":"","population":"0","elevation":"","dem":"1176","timezone":"Europe/Vienna","modification_date":"2011-07-31"},{"geonameid":"2779499","name":"Flaurling","asciiname":"Flaurling","alternatenames":[""],"latitude":"47.28333","longitude":"11.11667","feature_class":"P","feature_code":"PPLA3","country_code":"AT","cc2":"","admin1_code":"07","admin2_code":"703","admin3_code":"70308","admin4_code":"","population":"0","elevation":"","dem":"902","timezone":"Europe/Vienna","modification_date":"2011-07-31"},{"geonameid":"2779525","name":"Fiss","asciiname":"Fiss","alternatenames":["Fiss"],"latitude":"47.05","longitude":"10.61667","feature_class":"P","feature_code":"PPLA3","country_code":"AT","cc2":"","admin1_code":"07","admin2_code":"706","admin3_code":"70603","admin4_code":"","population":"0","elevation":"","dem":"1330","timezone":"Europe/Vienna","modification_date":"2011-07-31"},{"geonameid":"2779595","name":"Fieberbrunn","asciiname":"Fieberbrunn","alternatenames":["Fiberbrunn","Fieberbrunn","Фибербрунн"],"latitude":"47.48333","longitude":"12.55","feature_class":"P","feature_code":"PPLA3","country_code":"AT","cc2":"","admin1_code":"07","admin2_code":"704","admin3_code":"70403","admin4_code":"","population":"4180","elevation":"","dem":"932","timezone":"Europe/Vienna","modification_date":"2011-07-31"},{"geonameid":"2779648","name":"Fendels","asciiname":"Fendels","alternatenames":["Fendels"],"latitude":"47.05","longitude":"10.66667","feature_class":"P","feature_code":"PPLA3","country_code":"AT","cc2":"","admin1_code":"07","admin2_code":"706","admin3_code":"70602","admin4_code":"","population":"0","elevation":"","dem":"1283","timezone":"Europe/Vienna","modification_date":"2011-07-31"},{"geonameid":"2779982","name":"Erl","asciiname":"Erl","alternatenames":["Erl"],"latitude":"47.68333","longitude":"12.18333","feature_class":"P","feature_code":"PPLA3","country_code":"AT","cc2":"","admin1_code":"07","admin2_code":"705","admin3_code":"70510","admin4_code":"","population":"0","elevation":"","dem":"473","timezone":"Europe/Vienna","modification_date":"2011-07-31"},{"geonameid":"2780123","name":"Elmen","asciiname":"Elmen","alternatenames":["Elmen"],"latitude":"47.33333","longitude":"10.53333","feature_class":"P","feature_code":"PPLA3","country_code":"AT","cc2":"","admin1_code":"07","admin2_code":"708","admin3_code":"70809","admin4_code":"","population":"0","elevation":"","dem":"976","timezone":"Europe/Vienna","modification_date":"2011-07-31"},{"geonameid":"2780135","name":"Ellmau","asciiname":"Ellmau","alternatenames":["Ehl'mau","Эльмау"],"latitude":"47.51378","longitude":"12.29937","feature_class":"P","feature_code":"PPLA3","country_code":"AT","cc2":"","admin1_code":"07","admin2_code":"705","admin3_code":"70509","admin4_code":"","population":"0","elevation":"","dem":"791","timezone":"Europe/Vienna","modification_date":"2011-07-31"},{"geonameid":"2780153","name":"Elbigenalp","asciiname":"Elbigenalp","alternatenames":["Elbigenalp"],"latitude":"47.3","longitude":"10.43333","feature_class":"P","feature_code":"PPLA3","country_code":"AT","cc2":"","admin1_code":"07","admin2_code":"708","admin3_code":"70808","admin4_code":"","population":"0","elevation":"","dem":"1424","timezone":"Europe/Vienna","modification_date":"2011-07-31"},{"geonameid":"2780323","name":"Ehenbichl","asciiname":"Ehenbichl","alternatenames":["Ehenbichl"],"latitude":"47.46667","longitude":"10.7","feature_class":"P","feature_code":"PPLA3","country_code":"AT","cc2":"","admin1_code":"07","admin2_code":"708","admin3_code":"70806","admin4_code":"","population":"0","elevation":"","dem":"883","timezone":"Europe/Vienna","modification_date":"2011-07-31"},{"geonameid":"2780579","name":"Ebbs","asciiname":"Ebbs","alternatenames":["Ebbs","Ebs","Ehbbs","ai bu si","Еббс","Ебс","Эббс","埃布斯"],"latitude":"47.63333","longitude":"12.21667","feature_class":"P","feature_code":"PPLA3","country_code":"AT","cc2":"","admin1_code":"07","admin2_code":"705","admin3_code":"70508","admin4_code":"","population":"5088","elevation":"","dem":"475","timezone":"Europe/Vienna","modification_date":"2011-07-31"},{"geonameid":"2780859","name":"Dölsach","asciiname":"Dolsach","alternatenames":["Dolsach","Dölsach"],"latitude":"46.82833","longitude":"12.84528","feature_class":"P","feature_code":"PPLA3","country_code":"AT","cc2":"","admin1_code":"07","admin2_code":"707","admin3_code":"70707","admin4_code":"","population":"0","elevation":"","dem":"836","timezone":"Europe/Vienna","modification_date":"2011-07-31"},{"geonameid":"2781269","name":"Buch bei Jenbach","asciiname":"Buch bei Jenbach","alternatenames":["Buch","Buch bei Jenbach","Buch in Tirol","Bukh (Jenbakh)","Бух (Йенбах)"],"latitude":"47.37447","longitude":"11.754","feature_class":"P","feature_code":"PPLA3","country_code":"AT","cc2":"AT","admin1_code":"07","admin2_code":"709","admin3_code":"70905","admin4_code":"","population":"0","elevation":"","dem":"553","timezone":"Europe/Vienna","modification_date":"2013-02-07"},{"geonameid":"2781376","name":"Bruck am Ziller","asciiname":"Bruck am Ziller","alternatenames":["Bruck","Bruck am Ziller"],"latitude":"47.38998","longitude":"11.85124","feature_class":"P","feature_code":"PPLA3","country_code":"AT","cc2":"AT","admin1_code":"07","admin2_code":"709","admin3_code":"70904","admin4_code":"","population":"0","elevation":"","dem":"567","timezone":"Europe/Vienna","modification_date":"2011-07-31"},{"geonameid":"2781391","name":"Brixlegg","asciiname":"Brixlegg","alternatenames":["Briksleg","Брикслег"],"latitude":"47.42942","longitude":"11.87794","feature_class":"P","feature_code":"PPLA3","country_code":"AT","cc2":"","admin1_code":"07","admin2_code":"705","admin3_code":"70506","admin4_code":"","population":"0","elevation":"","dem":"534","timezone":"Europe/Vienna","modification_date":"2011-07-31"},{"geonameid":"2781394","name":"Brixen im Thale","asciiname":"Brixen im Thale","alternatenames":["Briksen-im-Tale","Brixen","Brixen im Tal","Brixen im Tale","Brixen im Thale","ta lei de qu bu li shen","Бриксен-им-Тале","Бріксен-ім-Тале","塔勒地区布里申"],"latitude":"47.45","longitude":"12.25","feature_class":"P","feature_code":"PPLA3","country_code":"AT","cc2":"AT","admin1_code":"07","admin2_code":"704","admin3_code":"70402","admin4_code":"","population":"2673","elevation":"","dem":"798","timezone":"Europe/Vienna","modification_date":"2011-07-31"},{"geonameid":"2781449","name":"Breitenwang","asciiname":"Breitenwang","alternatenames":["Breitenwang"],"latitude":"47.48333","longitude":"10.73333","feature_class":"P","feature_code":"PPLA3","country_code":"AT","cc2":"","admin1_code":"07","admin2_code":"708","admin3_code":"70805","admin4_code":"","population":"1532","elevation":"","dem":"906","timezone":"Europe/Vienna","modification_date":"2012-09-10"},{"geonameid":"2781480","name":"Breitenbach am Inn","asciiname":"Breitenbach am Inn","alternatenames":["Brajtenbakh-am-Inn","Breitenbach","Breitenbach am Inn","Брайтенбах-ам-Инн"],"latitude":"47.47829","longitude":"11.97372","feature_class":"P","feature_code":"PPLA3","country_code":"AT","cc2":"AT","admin1_code":"07","admin2_code":"705","admin3_code":"70505","admin4_code":"","population":"0","elevation":"","dem":"508","timezone":"Europe/Vienna","modification_date":"2013-02-07"},{"geonameid":"2781567","name":"Brandenberg","asciiname":"Brandenberg","alternatenames":["Brandenberg"],"latitude":"47.49053","longitude":"11.89459","feature_class":"P","feature_code":"PPLA3","country_code":"AT","cc2":"","admin1_code":"07","admin2_code":"705","admin3_code":"70504","admin4_code":"","population":"0","elevation":"","dem":"918","timezone":"Europe/Vienna","modification_date":"2011-07-31"},{"geonameid":"2781753","name":"Birgitz","asciiname":"Birgitz","alternatenames":[""],"latitude":"47.23536","longitude":"11.29922","feature_class":"P","feature_code":"PPLA3","country_code":"AT","cc2":"","admin1_code":"07","admin2_code":"703","admin3_code":"70306","admin4_code":"","population":"0","elevation":"","dem":"859","timezone":"Europe/Vienna","modification_date":"2011-07-31"},{"geonameid":"2781790","name":"Bichlbach","asciiname":"Bichlbach","alternatenames":["Bichlbach"],"latitude":"47.41667","longitude":"10.78333","feature_class":"P","feature_code":"PPLA3","country_code":"AT","cc2":"","admin1_code":"07","admin2_code":"708","admin3_code":"70804","admin4_code":"","population":"0","elevation":"","dem":"1318","timezone":"Europe/Vienna","modification_date":"2011-07-31"},{"geonameid":"2781800","name":"Biberwier","asciiname":"Biberwier","alternatenames":["Biberwiehr","Biberwier"],"latitude":"47.38333","longitude":"10.9","feature_class":"P","feature_code":"PPLA3","country_code":"AT","cc2":"AT","admin1_code":"07","admin2_code":"708","admin3_code":"70803","admin4_code":"","population":"0","elevation":"","dem":"974","timezone":"Europe/Vienna","modification_date":"2011-07-31"},{"geonameid":"2781814","name":"Berwang","asciiname":"Berwang","alternatenames":["Berwang"],"latitude":"47.40807","longitude":"10.74735","feature_class":"P","feature_code":"PPLA3","country_code":"AT","cc2":"","admin1_code":"07","admin2_code":"708","admin3_code":"70802","admin4_code":"","population":"0","elevation":"1336","dem":"1337","timezone":"Europe/Vienna","modification_date":"2011-10-27"},{"geonameid":"2781935","name":"Baumkirchen","asciiname":"Baumkirchen","alternatenames":[""],"latitude":"47.3","longitude":"11.56667","feature_class":"P","feature_code":"PPLA3","country_code":"AT","cc2":"","admin1_code":"07","admin2_code":"703","admin3_code":"70305","admin4_code":"","population":"0","elevation":"","dem":"582","timezone":"Europe/Vienna","modification_date":"2011-07-31"},{"geonameid":"2782106","name":"Axams","asciiname":"Axams","alternatenames":[""],"latitude":"47.23111","longitude":"11.27892","feature_class":"P","feature_code":"PPLA3","country_code":"AT","cc2":"","admin1_code":"07","admin2_code":"703","admin3_code":"70304","admin4_code":"","population":"0","elevation":"","dem":"876","timezone":"Europe/Vienna","modification_date":"2011-07-31"},{"geonameid":"2782118","name":"Außervillgraten","asciiname":"Ausservillgraten","alternatenames":["Ausserviligraten","Ausservillgraten","Außervillgraten"],"latitude":"46.7875","longitude":"12.43139","feature_class":"P","feature_code":"PPLA3","country_code":"AT","cc2":"AT","admin1_code":"07","admin2_code":"707","admin3_code":"70706","admin4_code":"","population":"0","elevation":"","dem":"1288","timezone":"Europe/Vienna","modification_date":"2011-07-31"},{"geonameid":"2782382","name":"Arzl im Pitztal","asciiname":"Arzl im Pitztal","alternatenames":["Arcl' (Pictal')","Arzl","Arzl im Pitztal","Арцль (Пицталь)"],"latitude":"47.2","longitude":"10.76667","feature_class":"P","feature_code":"PPLA3","country_code":"AT","cc2":"AT","admin1_code":"07","admin2_code":"702","admin3_code":"70201","admin4_code":"","population":"0","elevation":"","dem":"855","timezone":"Europe/Vienna","modification_date":"2011-07-31"},{"geonameid":"2782482","name":"Anras","asciiname":"Anras","alternatenames":["Anras"],"latitude":"46.77389","longitude":"12.56083","feature_class":"P","feature_code":"PPLA3","country_code":"AT","cc2":"","admin1_code":"07","admin2_code":"707","admin3_code":"70704","admin4_code":"","population":"0","elevation":"","dem":"1296","timezone":"Europe/Vienna","modification_date":"2011-07-31"},{"geonameid":"2782534","name":"Angath","asciiname":"Angath","alternatenames":["Angath"],"latitude":"47.5","longitude":"12.06667","feature_class":"P","feature_code":"PPLA3","country_code":"AT","cc2":"","admin1_code":"07","admin2_code":"705","admin3_code":"70502","admin4_code":"","population":"0","elevation":"","dem":"505","timezone":"Europe/Vienna","modification_date":"2011-07-31"},{"geonameid":"2782566","name":"Ampass","asciiname":"Ampass","alternatenames":["Agenbach","Ampass","Ampass Unterdorf"],"latitude":"47.26667","longitude":"11.45","feature_class":"P","feature_code":"PPLA3","country_code":"AT","cc2":"AT","admin1_code":"07","admin2_code":"703","admin3_code":"70303","admin4_code":"","population":"0","elevation":"","dem":"575","timezone":"Europe/Vienna","modification_date":"2011-07-31"},{"geonameid":"2782572","name":"Amlach","asciiname":"Amlach","alternatenames":[""],"latitude":"46.81639","longitude":"12.76361","feature_class":"P","feature_code":"PPLA3","country_code":"AT","cc2":"","admin1_code":"07","admin2_code":"707","admin3_code":"70703","admin4_code":"","population":"0","elevation":"","dem":"685","timezone":"Europe/Vienna","modification_date":"2011-07-31"},{"geonameid":"2782813","name":"Aldrans","asciiname":"Aldrans","alternatenames":[""],"latitude":"47.25","longitude":"11.45","feature_class":"P","feature_code":"PPLA3","country_code":"AT","cc2":"","admin1_code":"07","admin2_code":"703","admin3_code":"70302","admin4_code":"","population":"0","elevation":"","dem":"793","timezone":"Europe/Vienna","modification_date":"2011-07-31"},{"geonameid":"2782852","name":"Ainet","asciiname":"Ainet","alternatenames":["Ainet"],"latitude":"46.86611","longitude":"12.70139","feature_class":"P","feature_code":"PPLA3","country_code":"AT","cc2":"","admin1_code":"07","admin2_code":"707","admin3_code":"70702","admin4_code":"","population":"0","elevation":"","dem":"931","timezone":"Europe/Vienna","modification_date":"2011-07-31"},{"geonameid":"2783035","name":"Achenkirch","asciiname":"Achenkirch","alternatenames":[""],"latitude":"47.52659","longitude":"11.70559","feature_class":"P","feature_code":"PPLA3","country_code":"AT","cc2":"","admin1_code":"07","admin2_code":"709","admin3_code":"70901","admin4_code":"","population":"0","elevation":"","dem":"911","timezone":"Europe/Vienna","modification_date":"2011-07-31"},{"geonameid":"2783058","name":"Absam","asciiname":"Absam","alternatenames":[""],"latitude":"47.3","longitude":"11.5","feature_class":"P","feature_code":"PPLA3","country_code":"AT","cc2":"","admin1_code":"07","admin2_code":"703","admin3_code":"70301","admin4_code":"","population":"6594","elevation":"","dem":"677","timezone":"Europe/Vienna","modification_date":"2011-07-31"},{"geonameid":"2783062","name":"Abfaltersbach","asciiname":"Abfaltersbach","alternatenames":["Abfaltersbach"],"latitude":"46.76028","longitude":"12.54194","feature_class":"P","feature_code":"PPLA3","country_code":"AT","cc2":"","admin1_code":"07","admin2_code":"707","admin3_code":"70701","admin4_code":"","population":"0","elevation":"","dem":"978","timezone":"Europe/Vienna","modification_date":"2011-07-31"},{"geonameid":"3217367","name":"Schlaiten","asciiname":"Schlaiten","alternatenames":["Schlaiten"],"latitude":"46.87944","longitude":"12.65417","feature_class":"P","feature_code":"PPLA3","country_code":"AT","cc2":"","admin1_code":"07","admin2_code":"707","admin3_code":"70727","admin4_code":"","population":"0","elevation":"","dem":"867","timezone":"Europe/Vienna","modification_date":"2011-07-31"},{"geonameid":"3217418","name":"Thurn","asciiname":"Thurn","alternatenames":[""],"latitude":"46.85056","longitude":"12.76861","feature_class":"P","feature_code":"PPLA3","country_code":"AT","cc2":"","admin1_code":"07","admin2_code":"707","admin3_code":"70731","admin4_code":"","population":"0","elevation":"","dem":"985","timezone":"Europe/Vienna","modification_date":"2011-07-31"},{"geonameid":"3217911","name":"Untertilliach","asciiname":"Untertilliach","alternatenames":["Untertilliach"],"latitude":"46.70417","longitude":"12.70861","feature_class":"P","feature_code":"PPLA3","country_code":"AT","cc2":"","admin1_code":"07","admin2_code":"707","admin3_code":"70733","admin4_code":"","population":"0","elevation":"","dem":"1164","timezone":"Europe/Vienna","modification_date":"2011-07-31"},{"geonameid":"3319486","name":"Obernberg am Brenner","asciiname":"Obernberg am Brenner","alternatenames":[""],"latitude":"47.01667","longitude":"11.41667","feature_class":"P","feature_code":"PPLA3","country_code":"AT","cc2":"","admin1_code":"07","admin2_code":"703","admin3_code":"70336","admin4_code":"","population":"0","elevation":"","dem":"1424","timezone":"Europe/Vienna","modification_date":"2011-07-31"},{"geonameid":"3319503","name":"Mühlbachl","asciiname":"Muhlbachl","alternatenames":[""],"latitude":"47.13333","longitude":"11.45","feature_class":"P","feature_code":"PPLA3","country_code":"AT","cc2":"","admin1_code":"07","admin2_code":"703","admin3_code":"70330","admin4_code":"","population":"0","elevation":"","dem":"1058","timezone":"Europe/Vienna","modification_date":"2011-07-31"},{"geonameid":"3319549","name":"Leutasch","asciiname":"Leutasch","alternatenames":["Lojtash","luo yi ta shi","Лойташ","洛伊塔施"],"latitude":"47.3689","longitude":"11.14404","feature_class":"P","feature_code":"PPLA3","country_code":"AT","cc2":"","admin1_code":"07","admin2_code":"703","admin3_code":"70326","admin4_code":"","population":"2104","elevation":"1136","dem":"1135","timezone":"Europe/Vienna","modification_date":"2011-07-31"},{"geonameid":"3319569","name":"Gschnitz","asciiname":"Gschnitz","alternatenames":[""],"latitude":"47.05","longitude":"11.36667","feature_class":"P","feature_code":"PPLA3","country_code":"AT","cc2":"","admin1_code":"07","admin2_code":"703","admin3_code":"70317","admin4_code":"","population":"0","elevation":"","dem":"1229","timezone":"Europe/Vienna","modification_date":"2011-07-31"},{"geonameid":"3319571","name":"Navis","asciiname":"Navis","alternatenames":[""],"latitude":"47.11667","longitude":"11.53333","feature_class":"P","feature_code":"PPLA3","country_code":"AT","cc2":"","admin1_code":"07","admin2_code":"703","admin3_code":"70333","admin4_code":"","population":"0","elevation":"","dem":"1753","timezone":"Europe/Vienna","modification_date":"2011-07-31"},{"geonameid":"3319572","name":"Ellbögen","asciiname":"Ellbogen","alternatenames":[""],"latitude":"47.16667","longitude":"11.45","feature_class":"P","feature_code":"PPLA3","country_code":"AT","cc2":"","admin1_code":"07","admin2_code":"703","admin3_code":"70307","admin4_code":"","population":"0","elevation":"","dem":"1132","timezone":"Europe/Vienna","modification_date":"2011-07-31"},{"geonameid":"3319573","name":"Sellrain","asciiname":"Sellrain","alternatenames":[""],"latitude":"47.21667","longitude":"11.21667","feature_class":"P","feature_code":"PPLA3","country_code":"AT","cc2":"","admin1_code":"07","admin2_code":"703","admin3_code":"70352","admin4_code":"","population":"0","elevation":"","dem":"954","timezone":"Europe/Vienna","modification_date":"2011-07-31"},{"geonameid":"3319575","name":"Oberperfuss","asciiname":"Oberperfuss","alternatenames":["Oberperfuss"],"latitude":"47.23333","longitude":"11.25","feature_class":"P","feature_code":"PPLA3","country_code":"AT","cc2":"","admin1_code":"07","admin2_code":"703","admin3_code":"70337","admin4_code":"","population":"0","elevation":"","dem":"861","timezone":"Europe/Vienna","modification_date":"2011-07-31"},{"geonameid":"3319578","name":"Obsteig","asciiname":"Obsteig","alternatenames":[""],"latitude":"47.3","longitude":"10.93333","feature_class":"P","feature_code":"PPLA3","country_code":"AT","cc2":"","admin1_code":"07","admin2_code":"702","admin3_code":"70213","admin4_code":"","population":"0","elevation":"","dem":"992","timezone":"Europe/Vienna","modification_date":"2011-07-31"},{"geonameid":"3319579","name":"Kolsassberg","asciiname":"Kolsassberg","alternatenames":[""],"latitude":"47.3","longitude":"11.63333","feature_class":"P","feature_code":"PPLA3","country_code":"AT","cc2":"","admin1_code":"07","admin2_code":"703","admin3_code":"70323","admin4_code":"","population":"0","elevation":"","dem":"555","timezone":"Europe/Vienna","modification_date":"2011-07-31"},{"geonameid":"3319580","name":"Gnadenwald","asciiname":"Gnadenwald","alternatenames":[""],"latitude":"47.31667","longitude":"11.56667","feature_class":"P","feature_code":"PPLA3","country_code":"AT","cc2":"","admin1_code":"07","admin2_code":"703","admin3_code":"70311","admin4_code":"","population":"0","elevation":"","dem":"859","timezone":"Europe/Vienna","modification_date":"2011-07-31"},{"geonameid":"3319581","name":"Ehrwald","asciiname":"Ehrwald","alternatenames":["Ehrval'd","Ehrwald","Erval'd","ai er wa er de","Ервальд","Эрвальд","اہروالڈ","埃尔瓦尔德"],"latitude":"47.4","longitude":"10.91667","feature_class":"P","feature_code":"PPLA3","country_code":"AT","cc2":"","admin1_code":"07","admin2_code":"708","admin3_code":"70807","admin4_code":"","population":"0","elevation":"","dem":"973","timezone":"Europe/Vienna","modification_date":"2011-07-31"},{"geonameid":"3323819","name":"Heinfels","asciiname":"Heinfels","alternatenames":["Heinfels"],"latitude":"46.75","longitude":"12.45","feature_class":"P","feature_code":"PPLA3","country_code":"AT","cc2":"","admin1_code":"07","admin2_code":"707","admin3_code":"70735","admin4_code":"","population":"0","elevation":"","dem":"1101","timezone":"Europe/Vienna","modification_date":"2011-07-31"},{"geonameid":"3323920","name":"Gerlosberg","asciiname":"Gerlosberg","alternatenames":["Gerlosberg"],"latitude":"47.21667","longitude":"11.93333","feature_class":"P","feature_code":"PPLA3","country_code":"AT","cc2":"","admin1_code":"07","admin2_code":"709","admin3_code":"70913","admin4_code":"","population":"0","elevation":"","dem":"911","timezone":"Europe/Vienna","modification_date":"2011-07-31"},{"geonameid":"3323921","name":"Gerlos","asciiname":"Gerlos","alternatenames":["Gerlos","Герлос"],"latitude":"47.21667","longitude":"12","feature_class":"P","feature_code":"PPLA3","country_code":"AT","cc2":"","admin1_code":"07","admin2_code":"709","admin3_code":"70912","admin4_code":"","population":"783","elevation":"","dem":"1467","timezone":"Europe/Vienna","modification_date":"2011-07-31"},{"geonameid":"3323924","name":"Rohrberg","asciiname":"Rohrberg","alternatenames":[""],"latitude":"47.23333","longitude":"11.91667","feature_class":"P","feature_code":"PPLA3","country_code":"AT","cc2":"","admin1_code":"07","admin2_code":"709","admin3_code":"70924","admin4_code":"","population":"0","elevation":"","dem":"1201","timezone":"Europe/Vienna","modification_date":"2011-07-31"},{"geonameid":"3323944","name":"Ried im Zillertal","asciiname":"Ried im Zillertal","alternatenames":["Ried im Zillertal"],"latitude":"47.3","longitude":"11.86667","feature_class":"P","feature_code":"PPLA3","country_code":"AT","cc2":"","admin1_code":"07","admin2_code":"709","admin3_code":"70923","admin4_code":"","population":"0","elevation":"","dem":"588","timezone":"Europe/Vienna","modification_date":"2011-07-31"},{"geonameid":"3323982","name":"Alpbach","asciiname":"Alpbach","alternatenames":["Al'pbakh","Альпбах"],"latitude":"47.39878","longitude":"11.94373","feature_class":"P","feature_code":"PPLA3","country_code":"AT","cc2":"","admin1_code":"07","admin2_code":"705","admin3_code":"70501","admin4_code":"","population":"2585","elevation":"","dem":"971","timezone":"Europe/Vienna","modification_date":"2011-07-31"},{"geonameid":"3324013","name":"Itter","asciiname":"Itter","alternatenames":[""],"latitude":"47.46667","longitude":"12.13333","feature_class":"P","feature_code":"PPLA3","country_code":"AT","cc2":"","admin1_code":"07","admin2_code":"704","admin3_code":"70407","admin4_code":"","population":"0","elevation":"","dem":"613","timezone":"Europe/Vienna","modification_date":"2011-07-31"},{"geonameid":"6355129","name":"Wildschönau","asciiname":"Wildschoenau","alternatenames":[""],"latitude":"47.40619","longitude":"12.03784","feature_class":"P","feature_code":"PPLA3","country_code":"AT","cc2":"","admin1_code":"07","admin2_code":"705","admin3_code":"70530","admin4_code":"","population":"0","elevation":"","dem":"898","timezone":"Europe/Vienna","modification_date":"2011-07-31"},{"geonameid":"6559656","name":"Langkampfen","asciiname":"Langkampfen","alternatenames":["Langkampfen","Лангкампфен"],"latitude":"47.55111","longitude":"12.09325","feature_class":"P","feature_code":"PPLA3","country_code":"AT","cc2":"","admin1_code":"07","admin2_code":"705","admin3_code":"70515","admin4_code":"","population":"0","elevation":"","dem":"703","timezone":"Europe/Vienna","modification_date":"2011-07-31"},{"geonameid":"7581189","name":"Holzgau","asciiname":"Holzgau","alternatenames":[""],"latitude":"47.26045","longitude":"10.34419","feature_class":"P","feature_code":"PPLA3","country_code":"AT","cc2":"","admin1_code":"07","admin2_code":"708","admin3_code":"70817","admin4_code":"","population":"0","elevation":"","dem":"1104","timezone":"Europe/Vienna","modification_date":"2011-07-31"}]}