{"region_data":{"countryId":"895949","adminCode1":"03","countryName":"Zambia","fclName":"country, state, region,...","countryCode":"ZM","lng":"32","fcodeName":"first-order administrative division","toponymName":"Eastern Province","fcl":"A","numberOfChildren":7,"name":"Eastern Province","fcode":"ADM1","geonameId":917388,"lat":"-13.66667","adminName1":"Eastern","population":0},"country_data":{"ISO":"ZM","ISO3":"ZMB","ISO_Numeric":"894","fips":"ZA","country":"Zambia","capital":"Lusaka","area":"752614","Population":"13460305","Continent":"AF","tld":".zm","CurrencyCode":"ZMW","CurrencyName":"Kwacha","Phone":"260","Postal_Code_Format":"#####","Postal_Code_Regex":"^(\\d{5})$","Languages":"en-ZM,bem,loz,lun,lue,ny,toi","geonameid":"895949","neighbours":"ZW,TZ,MZ,CD,NA,MW,AO","EquivalentFipsCode":""},"cities":[{"geonameid":"899825","name":"Petauke","asciiname":"Petauke","alternatenames":["Petauke"],"latitude":"-14.24264","longitude":"31.3253","feature_class":"P","feature_code":"PPL","country_code":"ZM","cc2":"","admin1_code":"03","admin2_code":"","admin3_code":"","admin4_code":"","population":"19296","elevation":"","dem":"1021","timezone":"Africa/Lusaka","modification_date":"2012-01-17"},{"geonameid":"900056","name":"Nyimba","asciiname":"Nyimba","alternatenames":[""],"latitude":"-14.55656","longitude":"30.8149","feature_class":"P","feature_code":"PPL","country_code":"ZM","cc2":"","admin1_code":"03","admin2_code":"","admin3_code":"","admin4_code":"","population":"1336","elevation":"","dem":"716","timezone":"Africa/Lusaka","modification_date":"2011-03-06"},{"geonameid":"909299","name":"Lundazi","asciiname":"Lundazi","alternatenames":["Lundazi"],"latitude":"-12.29292","longitude":"33.1782","feature_class":"P","feature_code":"PPL","country_code":"ZM","cc2":"","admin1_code":"03","admin2_code":"","admin3_code":"","admin4_code":"","population":"11635","elevation":"","dem":"1143","timezone":"Africa/Lusaka","modification_date":"2012-01-17"},{"geonameid":"918702","name":"Chipata","asciiname":"Chipata","alternatenames":["CIP","Chipata","Cipata","Fort Jameson","Tsipata","chipata","qi pa ta","Čipata","Τσιπάτα","Чипата","奇帕塔","치파타"],"latitude":"-13.63333","longitude":"32.65","feature_class":"P","feature_code":"PPLA","country_code":"ZM","cc2":"","admin1_code":"03","admin2_code":"","admin3_code":"","admin4_code":"","population":"85963","elevation":"","dem":"1147","timezone":"Africa/Lusaka","modification_date":"2015-06-03"},{"geonameid":"920901","name":"Chama","asciiname":"Chama","alternatenames":["Chama"],"latitude":"-11.21303","longitude":"33.1521","feature_class":"P","feature_code":"PPL","country_code":"ZM","cc2":"","admin1_code":"03","admin2_code":"","admin3_code":"","admin4_code":"","population":"4061","elevation":"","dem":"765","timezone":"Africa/Lusaka","modification_date":"2012-01-17"},{"geonameid":"921028","name":"Chadiza","asciiname":"Chadiza","alternatenames":["Chadiza"],"latitude":"-14.06779","longitude":"32.43917","feature_class":"P","feature_code":"PPL","country_code":"ZM","cc2":"","admin1_code":"03","admin2_code":"","admin3_code":"","admin4_code":"","population":"3690","elevation":"","dem":"1066","timezone":"Africa/Lusaka","modification_date":"2012-01-17"}]}