{"region_data":{"countryId":"1210997","adminCode1":"81","countryName":"Bangladesh","fclName":"country, state, region,...","countryCode":"BD","lng":"90.41667","fcodeName":"first-order administrative division","toponymName":"Dhaka Division","fcl":"A","numberOfChildren":17,"name":"Dhaka Division","fcode":"ADM1","geonameId":1337179,"lat":"24.16667","adminName1":"Dhaka","population":47424418},"country_data":{"ISO":"BD","ISO3":"BGD","ISO_Numeric":"050","fips":"BG","country":"Bangladesh","capital":"Dhaka","area":"144000","Population":"156118464","Continent":"AS","tld":".bd","CurrencyCode":"BDT","CurrencyName":"Taka","Phone":"880","Postal_Code_Format":"####","Postal_Code_Regex":"^(\\d{4})$","Languages":"bn-BD,en","geonameid":"1210997","neighbours":"MM,IN","EquivalentFipsCode":""},"cities":[{"geonameid":"1185098","name":"Tungi","asciiname":"Tungi","alternatenames":["Tangi","Tongi","Tungi","tangi","টঙ্গী"],"latitude":"23.89154","longitude":"90.40232","feature_class":"P","feature_code":"PPL","country_code":"BD","cc2":"","admin1_code":"81","admin2_code":"","admin3_code":"","admin4_code":"","population":"337579","elevation":"","dem":"13","timezone":"Asia/Dhaka","modification_date":"2013-01-10"},{"geonameid":"1185100","name":"Dohār","asciiname":"Dohar","alternatenames":["Dohai","Dohar","Dohāi","Dohār","Sutarpara","Sutārpara"],"latitude":"23.59311","longitude":"90.14251","feature_class":"P","feature_code":"PPL","country_code":"BD","cc2":"","admin1_code":"81","admin2_code":"","admin3_code":"","admin4_code":"","population":"45543","elevation":"","dem":"14","timezone":"Asia/Dhaka","modification_date":"2013-02-08"},{"geonameid":"1185106","name":"Jamālpur","asciiname":"Jamalpur","alternatenames":["Jamaipur","Jamalpur","Jamālpur","Singhjani","Singhjāni"],"latitude":"24.91965","longitude":"89.94812","feature_class":"P","feature_code":"PPL","country_code":"BD","cc2":"","admin1_code":"81","admin2_code":"","admin3_code":"","admin4_code":"","population":"167900","elevation":"","dem":"23","timezone":"Asia/Dhaka","modification_date":"2013-02-08"},{"geonameid":"1185116","name":"Netrakona","asciiname":"Netrakona","alternatenames":["Netrakona","Satpai","Sātpāi"],"latitude":"24.88352","longitude":"90.72898","feature_class":"P","feature_code":"PPL","country_code":"BD","cc2":"","admin1_code":"81","admin2_code":"","admin3_code":"","admin4_code":"","population":"79016","elevation":"","dem":"14","timezone":"Asia/Dhaka","modification_date":"2012-09-06"},{"geonameid":"1185117","name":"Narsingdi","asciiname":"Narsingdi","alternatenames":["Narsingdi","Narsinghdi","Satirpara","Satirpāra"],"latitude":"23.92298","longitude":"90.71768","feature_class":"P","feature_code":"PPL","country_code":"BD","cc2":"","admin1_code":"81","admin2_code":"","admin3_code":"","admin4_code":"","population":"281080","elevation":"","dem":"13","timezone":"Asia/Dhaka","modification_date":"2012-07-04"},{"geonameid":"1185155","name":"Nārāyanganj","asciiname":"Narayanganj","alternatenames":["Narajanganj","Narayanganj","Nārāyanganj"],"latitude":"23.61352","longitude":"90.50298","feature_class":"P","feature_code":"PPL","country_code":"BD","cc2":"","admin1_code":"81","admin2_code":"","admin3_code":"","admin4_code":"","population":"223622","elevation":"","dem":"13","timezone":"Asia/Dhaka","modification_date":"2012-07-04"},{"geonameid":"1185159","name":"Nāgarpur","asciiname":"Nagarpur","alternatenames":["Nagarpur","Nagurpoor","Nāgarpur"],"latitude":"24.05783","longitude":"89.87696","feature_class":"P","feature_code":"PPL","country_code":"BD","cc2":"BD","admin1_code":"81","admin2_code":"","admin3_code":"","admin4_code":"","population":"238422","elevation":"","dem":"15","timezone":"Asia/Dhaka","modification_date":"2012-10-18"},{"geonameid":"1185162","name":"Mymensingh","asciiname":"Mymensingh","alternatenames":["Majmensingkh","Mymensing","Mymensingh","Nasirabad","Nasirābād","mayamanasinha","Майменсингх","ময়মনসিংহ"],"latitude":"24.75636","longitude":"90.40646","feature_class":"P","feature_code":"PPL","country_code":"BD","cc2":"","admin1_code":"81","admin2_code":"","admin3_code":"","admin4_code":"","population":"225126","elevation":"","dem":"19","timezone":"Asia/Dhaka","modification_date":"2013-07-20"},{"geonameid":"1185164","name":"Muktāgācha","asciiname":"Muktagacha","alternatenames":["Muktagacha","Muktagachha","Muktāgācha"],"latitude":"24.76484","longitude":"90.25698","feature_class":"P","feature_code":"PPL","country_code":"BD","cc2":"","admin1_code":"81","admin2_code":"","admin3_code":"","admin4_code":"","population":"24684","elevation":"","dem":"22","timezone":"Asia/Dhaka","modification_date":"2012-10-18"},{"geonameid":"1185165","name":"Mirzāpur","asciiname":"Mirzapur","alternatenames":["Mirzapur","Mirzāpur","Mrizapur","Мирзапур"],"latitude":"24.10287","longitude":"90.09841","feature_class":"P","feature_code":"PPL","country_code":"BD","cc2":"","admin1_code":"81","admin2_code":"","admin3_code":"","admin4_code":"","population":"41137","elevation":"","dem":"15","timezone":"Asia/Dhaka","modification_date":"2013-02-08"},{"geonameid":"1185218","name":"Gafargaon","asciiname":"Gafargaon","alternatenames":["Gafargaon","Gaffargaon","Ghafargaon"],"latitude":"24.432","longitude":"90.5585","feature_class":"P","feature_code":"PPL","country_code":"BD","cc2":"","admin1_code":"81","admin2_code":"","admin3_code":"","admin4_code":"","population":"34177","elevation":"","dem":"16","timezone":"Asia/Dhaka","modification_date":"2012-10-18"},{"geonameid":"1185241","name":"Dhaka","asciiname":"Dhaka","alternatenames":["DAC","Daca","Dacca","Dacca - dhaka","Dacca - ঢাকা","Daka","Dakah","Dakk","Dakka","Dakkae","Dakke","Dako","Deka","Dgaka","Dhaka","Dháka","Dhâkâ","Dəkkə","Gorad Daka","Mujib City","Ntaka","Ntakka","da ka","da ka shi","daka","dakka","dhaka","dhakka","dka","takka","thaka","Ντάκα","Ντάκκα","Горад Дака","Дака","Даккæ","Дакка","Дакке","Дгака","Դաքքա","דאקא","דאקה","داكا","داككا","داکا","دكا","ڈھاکہ","ޑާކާ","ढाका","ঢাকা","ਢਾਕਾ","ઢાકા","ଢାକା","டாக்கா","ఢాకా","ಢಾಕಾ","ഢാക്ക","ธากา","དྷ་ཁ།","ဒါကာမြို့","დაკა","ዳካ","ダッカ","达卡","达卡市","達卡","다카"],"latitude":"23.7104","longitude":"90.40744","feature_class":"P","feature_code":"PPLC","country_code":"BD","cc2":"","admin1_code":"81","admin2_code":"3026","admin3_code":"","admin4_code":"","population":"10356500","elevation":"","dem":"23","timezone":"Asia/Dhaka","modification_date":"2014-10-29"},{"geonameid":"1185263","name":"Bhairab Bāzār","asciiname":"Bhairab Bazar","alternatenames":["Bhairab Bazar","Bhairab Bāzār","Bhairab Town"],"latitude":"24.0524","longitude":"90.9764","feature_class":"P","feature_code":"PPL","country_code":"BD","cc2":"","admin1_code":"81","admin2_code":"","admin3_code":"","admin4_code":"","population":"105457","elevation":"","dem":"12","timezone":"Asia/Dhaka","modification_date":"2012-10-18"},{"geonameid":"1185276","name":"Bājitpur","asciiname":"Bajitpur","alternatenames":["Bajitpur","Bajutpur","Bājitpur"],"latitude":"24.21623","longitude":"90.95002","feature_class":"P","feature_code":"PPL","country_code":"BD","cc2":"","admin1_code":"81","admin2_code":"","admin3_code":"","admin4_code":"","population":"34560","elevation":"","dem":"14","timezone":"Asia/Dhaka","modification_date":"2012-10-18"},{"geonameid":"1185920","name":"Tungipāra","asciiname":"Tungipara","alternatenames":["Tongipara","Tungipara","Tungipāra"],"latitude":"22.89983","longitude":"89.90326","feature_class":"P","feature_code":"PPL","country_code":"BD","cc2":"","admin1_code":"81","admin2_code":"","admin3_code":"","admin4_code":"","population":"62210","elevation":"","dem":"8","timezone":"Asia/Dhaka","modification_date":"2012-10-18"},{"geonameid":"1188569","name":"Sarishābāri","asciiname":"Sarishabari","alternatenames":["Sarisabar","Sarisabari","Sarishabari","Sarishābāri","Sarsabari"],"latitude":"24.75127","longitude":"89.83126","feature_class":"P","feature_code":"PPL","country_code":"BD","cc2":"","admin1_code":"81","admin2_code":"","admin3_code":"","admin4_code":"","population":"81325","elevation":"","dem":"22","timezone":"Asia/Dhaka","modification_date":"2012-10-18"},{"geonameid":"1189056","name":"Sakhipur","asciiname":"Sakhipur","alternatenames":[""],"latitude":"24.31988","longitude":"90.16943","feature_class":"P","feature_code":"PPL","country_code":"BD","cc2":"","admin1_code":"81","admin2_code":"","admin3_code":"","admin4_code":"","population":"40869","elevation":"","dem":"25","timezone":"Asia/Dhaka","modification_date":"2012-10-18"},{"geonameid":"1191368","name":"Pālang","asciiname":"Palang","alternatenames":[""],"latitude":"23.21824","longitude":"90.35076","feature_class":"P","feature_code":"PPL","country_code":"BD","cc2":"","admin1_code":"81","admin2_code":"","admin3_code":"","admin4_code":"","population":"67652","elevation":"","dem":"12","timezone":"Asia/Dhaka","modification_date":"2013-10-29"},{"geonameid":"1203344","name":"Farīdpur","asciiname":"Faridpur","alternatenames":[""],"latitude":"23.60612","longitude":"89.84064","feature_class":"P","feature_code":"PPL","country_code":"BD","cc2":"","admin1_code":"81","admin2_code":"","admin3_code":"","admin4_code":"","population":"112187","elevation":"","dem":"15","timezone":"Asia/Dhaka","modification_date":"2013-02-08"},{"geonameid":"1207047","name":"Char Bhadrāsan","asciiname":"Char Bhadrasan","alternatenames":[""],"latitude":"23.30916","longitude":"90.22698","feature_class":"P","feature_code":"PPL","country_code":"BD","cc2":"","admin1_code":"81","admin2_code":"","admin3_code":"","admin4_code":"","population":"34423","elevation":"","dem":"11","timezone":"Asia/Dhaka","modification_date":"2012-10-18"},{"geonameid":"1336144","name":"Tāngāil","asciiname":"Tangail","alternatenames":["Tangail","Tāngāil"],"latitude":"24.24984","longitude":"89.91655","feature_class":"P","feature_code":"PPL","country_code":"BD","cc2":"","admin1_code":"81","admin2_code":"","admin3_code":"","admin4_code":"","population":"180144","elevation":"","dem":"17","timezone":"Asia/Dhaka","modification_date":"2013-02-09"},{"geonameid":"1337245","name":"Mādārīpur","asciiname":"Madaripur","alternatenames":[""],"latitude":"23.17097","longitude":"90.20935","feature_class":"P","feature_code":"PPL","country_code":"BD","cc2":"","admin1_code":"81","admin2_code":"","admin3_code":"","admin4_code":"","population":"84789","elevation":"","dem":"10","timezone":"Asia/Dhaka","modification_date":"2012-07-05"},{"geonameid":"1337248","name":"Sherpur","asciiname":"Sherpur","alternatenames":["Sherpur"],"latitude":"25.01881","longitude":"90.01751","feature_class":"P","feature_code":"PPL","country_code":"BD","cc2":"","admin1_code":"81","admin2_code":"","admin3_code":"","admin4_code":"","population":"107419","elevation":"","dem":"25","timezone":"Asia/Dhaka","modification_date":"2012-01-19"},{"geonameid":"1337249","name":"Kishorganj","asciiname":"Kishorganj","alternatenames":["Kisharganj","Kishoreganj","Kishoreganj Municipality","Kishorganj"],"latitude":"24.43944","longitude":"90.78291","feature_class":"P","feature_code":"PPL","country_code":"BD","cc2":"","admin1_code":"81","admin2_code":"","admin3_code":"","admin4_code":"","population":"90690","elevation":"","dem":"16","timezone":"Asia/Dhaka","modification_date":"2012-07-05"},{"geonameid":"7701354","name":"Azimpur","asciiname":"Azimpur","alternatenames":["Azimpur  Dhaka  Bangladesh"],"latitude":"23.7298","longitude":"90.3854","feature_class":"P","feature_code":"PPL","country_code":"BD","cc2":"","admin1_code":"81","admin2_code":"","admin3_code":"","admin4_code":"","population":"96641","elevation":"","dem":"4","timezone":"Asia/Dhaka","modification_date":"2014-11-30"},{"geonameid":"9827976","name":"Paltan","asciiname":"Paltan","alternatenames":["Paltan  Dhaka  Bangladesh"],"latitude":"23.73625","longitude":"90.41426","feature_class":"P","feature_code":"PPL","country_code":"BD","cc2":"","admin1_code":"81","admin2_code":"","admin3_code":"","admin4_code":"","population":"84492","elevation":"","dem":"3","timezone":"Asia/Dhaka","modification_date":"2014-11-10"}]}