{"region_data":{"countryId":"130758","adminCode1":"29","countryName":"Iran","fclName":"country, state, region,...","countryCode":"IR","lng":"57.25","fcodeName":"first-order administrative division","toponymName":"Ostān-e Kermān","fcl":"A","numberOfChildren":24,"name":"Ostān-e Kermān","fcode":"ADM1","geonameId":128231,"lat":"29.75","adminName1":"Kermān","population":0},"country_data":{"ISO":"IR","ISO3":"IRN","ISO_Numeric":"364","fips":"IR","country":"Iran","capital":"Tehran","area":"1648000","Population":"76923300","Continent":"AS","tld":".ir","CurrencyCode":"IRR","CurrencyName":"Rial","Phone":"98","Postal_Code_Format":"##########","Postal_Code_Regex":"^(\\d{10})$","Languages":"fa-IR,ku","geonameid":"130758","neighbours":"TM,AF,IQ,AM,PK,AZ,TR","EquivalentFipsCode":""},"cities":[{"geonameid":"111421","name":"Zarand","asciiname":"Zarand","alternatenames":["Zarand","zrnd","زرند"],"latitude":"30.81271","longitude":"56.56399","feature_class":"P","feature_code":"PPLA2","country_code":"IR","cc2":"","admin1_code":"29","admin2_code":"","admin3_code":"","admin4_code":"","population":"58983","elevation":"","dem":"1656","timezone":"Asia/Tehran","modification_date":"2014-09-04"},{"geonameid":"114259","name":"Sirjan","asciiname":"Sirjan","alternatenames":["SYJ","Sa'idabad","Sa‘īdābād","Sirdschan","Sirjan","Sīrjān","syrjan","سیرجان"],"latitude":"29.45137","longitude":"55.6809","feature_class":"P","feature_code":"PPL","country_code":"IR","cc2":"","admin1_code":"29","admin2_code":"","admin3_code":"","admin4_code":"","population":"207645","elevation":"","dem":"1744","timezone":"Asia/Tehran","modification_date":"2014-05-28"},{"geonameid":"115781","name":"Shahr-e Bābak","asciiname":"Shahr-e Babak","alternatenames":["Shahr Babak","Shahr Bābak","Shahr-e Babak","Shahr-e Bābak","Shahr-i-Babak","Shahr-i-Bābak","shhr babk","شهر بابک"],"latitude":"30.1165","longitude":"55.1186","feature_class":"P","feature_code":"PPLA2","country_code":"IR","cc2":"","admin1_code":"29","admin2_code":"","admin3_code":"","admin4_code":"","population":"52409","elevation":"","dem":"1846","timezone":"Asia/Tehran","modification_date":"2014-09-04"},{"geonameid":"118323","name":"Narmāshīr","asciiname":"Narmashir","alternatenames":["Narmashir","Narmāshīr","Rostamabad","Rostamābād","nrmashyr","rstm abad","رستم آباد","نرماشير"],"latitude":"28.95216","longitude":"58.69773","feature_class":"P","feature_code":"PPLA2","country_code":"IR","cc2":"","admin1_code":"29","admin2_code":"","admin3_code":"","admin4_code":"","population":"0","elevation":"","dem":"759","timezone":"Asia/Tehran","modification_date":"2014-09-04"},{"geonameid":"118704","name":"Rāvar","asciiname":"Ravar","alternatenames":["Ravar","Rāvar","rawr","راور"],"latitude":"31.26562","longitude":"56.80545","feature_class":"P","feature_code":"PPLA2","country_code":"IR","cc2":"","admin1_code":"29","admin2_code":"","admin3_code":"","admin4_code":"","population":"40167","elevation":"","dem":"1181","timezone":"Asia/Tehran","modification_date":"2014-09-04"},{"geonameid":"118994","name":"Rafsanjān","asciiname":"Rafsanjan","alternatenames":["Bahramabad","Bahrāmābād","Rafsandzhane","Rafsanjan","Rafsanjān","Rafsinjan","Rafsinjān","rfsnjan","Рафсанджане","رفسنجان"],"latitude":"30.4067","longitude":"55.9939","feature_class":"P","feature_code":"PPLA2","country_code":"IR","cc2":"","admin1_code":"29","admin2_code":"","admin3_code":"","admin4_code":"","population":"147680","elevation":"","dem":"1514","timezone":"Asia/Tehran","modification_date":"2014-09-04"},{"geonameid":"119010","name":"Rābor","asciiname":"Rabor","alternatenames":["Raber","Rabor","Rabur","Rahbur","Rābor","Rābur","Rāhbur","rabr","رابر"],"latitude":"29.2912","longitude":"56.9131","feature_class":"P","feature_code":"PPLA2","country_code":"IR","cc2":"","admin1_code":"29","admin2_code":"","admin3_code":"","admin4_code":"","population":"0","elevation":"","dem":"2331","timezone":"Asia/Tehran","modification_date":"2014-09-04"},{"geonameid":"120323","name":"Qal‘eh Ganj","asciiname":"Qal`eh Ganj","alternatenames":["Ghal`eh Ganj","Ghal‘eh Ganj","Kalat-i-Ganj","Kalateh-ye Ganj","Kalāt-i-Ganj","Kalāteh-ye Ganj","Mohammadabad","Moḩammadābād","Qal`eh Ganj","Qal`eh-ye Ganj","Qal‘eh Ganj","Qal‘eh-ye Ganj","قلعه گنج"],"latitude":"27.5236","longitude":"57.8811","feature_class":"P","feature_code":"PPLA2","country_code":"IR","cc2":"","admin1_code":"29","admin2_code":"","admin3_code":"","admin4_code":"","population":"0","elevation":"","dem":"406","timezone":"Asia/Tehran","modification_date":"2014-09-04"},{"geonameid":"123674","name":"Moḩammadābād","asciiname":"Mohammadabad","alternatenames":["Mohammadabad","Mohammadabad-e Rigan","Moḩammadābād","Moḩammadābād-e Rīgān","Muhammadabad","Muhammadābād","mhmd abad","محمد آباد"],"latitude":"28.66877","longitude":"59.07341","feature_class":"P","feature_code":"PPLA2","country_code":"IR","cc2":"","admin1_code":"29","admin2_code":"","admin3_code":"","admin4_code":"","population":"0","elevation":"","dem":"602","timezone":"Asia/Tehran","modification_date":"2014-09-04"},{"geonameid":"124647","name":"Bardsīr","asciiname":"Bardsir","alternatenames":["Bardesir","Bardesīr","Bardsir","Bardsīr","Deh-e Now-e Mashiz","Deh-e Now-e Mashīz","Mashiz","Mashīz","Mshiz","Qal`eh-ye Mashiz","Qal‘eh-ye Mashīz","brdsyr","بردسیر"],"latitude":"29.92266","longitude":"56.57433","feature_class":"P","feature_code":"PPLA2","country_code":"IR","cc2":"","admin1_code":"29","admin2_code":"","admin3_code":"","admin4_code":"","population":"37192","elevation":"","dem":"2049","timezone":"Asia/Tehran","modification_date":"2014-09-04"},{"geonameid":"124914","name":"Manūjān","asciiname":"Manujan","alternatenames":["Jarian","Jārīān","Manujan","Manūjān","Posht Qalat","Posht Qalāt","Qal`eh-ye Manujan","Qal‘eh-ye Manūjān","jaryan","mnwjan","جاریان","منوجان"],"latitude":"27.40698","longitude":"57.50128","feature_class":"P","feature_code":"PPLA2","country_code":"IR","cc2":"","admin1_code":"29","admin2_code":"","admin3_code":"","admin4_code":"","population":"0","elevation":"","dem":"345","timezone":"Asia/Tehran","modification_date":"2014-09-04"},{"geonameid":"126411","name":"Kūhbanān","asciiname":"Kuhbanan","alternatenames":["Koobanan","Kuh Banan","Kuh Baneh","Kuhbanan","Kuhbonan","Kūh Baneh","Kūh Banān","Kūhbanān","Kūhbonān","kwhbnan","کوهبنان"],"latitude":"31.41029","longitude":"56.28255","feature_class":"P","feature_code":"PPLA2","country_code":"IR","cc2":"","admin1_code":"29","admin2_code":"","admin3_code":"","admin4_code":"","population":"0","elevation":"","dem":"1990","timezone":"Asia/Tehran","modification_date":"2014-09-04"},{"geonameid":"128234","name":"Kermān","asciiname":"Kerman","alternatenames":["Carmana","KER","Kerman","Kermán","Kermān","Kirman","Kirmon","keruman","krman","Керман","Кирмон","کرمان","ケルマーン"],"latitude":"30.28321","longitude":"57.07879","feature_class":"P","feature_code":"PPLA","country_code":"IR","cc2":"","admin1_code":"29","admin2_code":"","admin3_code":"","admin4_code":"","population":"577514","elevation":"","dem":"1760","timezone":"Asia/Tehran","modification_date":"2012-01-16"},{"geonameid":"134735","name":"Fāryāb","asciiname":"Faryab","alternatenames":["Fariab","Fariyab","Faryab","Fāryāb","Fārīāb","Pariab","Paryab","Paryāb","Pay Ab","Pārīāb","Pāy Āb","Shahmoradi-ye Faryab","Shahmorādi-ye Fāryāb","faryab","فاریاب"],"latitude":"28.0987","longitude":"57.23181","feature_class":"P","feature_code":"PPLA2","country_code":"IR","cc2":"","admin1_code":"29","admin2_code":"","admin3_code":"","admin4_code":"","population":"0","elevation":"","dem":"660","timezone":"Asia/Tehran","modification_date":"2015-04-07"},{"geonameid":"134962","name":"Fahraj","asciiname":"Fahraj","alternatenames":["Fahraj","Fahrej","Iranshahr","Irānshahr","Narmashir","Narmāshīr","fhrj","فهرج"],"latitude":"28.9502","longitude":"58.885","feature_class":"P","feature_code":"PPLA2","country_code":"IR","cc2":"","admin1_code":"29","admin2_code":"","admin3_code":"","admin4_code":"","population":"0","elevation":"","dem":"680","timezone":"Asia/Tehran","modification_date":"2014-09-04"},{"geonameid":"141736","name":"Bam","asciiname":"Bam","alternatenames":["BXR","Bam","bamu","bm","Бам","بم","バム"],"latitude":"29.106","longitude":"58.357","feature_class":"P","feature_code":"PPLA2","country_code":"IR","cc2":"","admin1_code":"29","admin2_code":"","admin3_code":"","admin4_code":"","population":"99268","elevation":"","dem":"1061","timezone":"Asia/Tehran","modification_date":"2014-09-04"},{"geonameid":"142247","name":"Bāft","asciiname":"Baft","alternatenames":["Baft","Bāft","baft","بافت"],"latitude":"29.2331","longitude":"56.6022","feature_class":"P","feature_code":"PPLA2","country_code":"IR","cc2":"","admin1_code":"29","admin2_code":"","admin3_code":"","admin4_code":"","population":"0","elevation":"","dem":"2268","timezone":"Asia/Tehran","modification_date":"2014-09-04"},{"geonameid":"142902","name":"Arzū’īyeh","asciiname":"Arzu'iyeh","alternatenames":["Arzoo'eyeh","Arzoo’eyeh","Arzu","Arzu'iyeh","Arzū’īyeh","Orzu'iyeh","Orzū’īyeh","Ozu'iyeh","Ozū’īyeh","`Orsu'iyeh","arzwyyh","Ārzū","ارزوئیه","‘Orsū’īyeh"],"latitude":"28.4414","longitude":"56.3728","feature_class":"P","feature_code":"PPLA2","country_code":"IR","cc2":"","admin1_code":"29","admin2_code":"","admin3_code":"","admin4_code":"","population":"0","elevation":"","dem":"1044","timezone":"Asia/Tehran","modification_date":"2014-09-30"},{"geonameid":"143471","name":"‘Anbarābād","asciiname":"`Anbarabad","alternatenames":["Ambarabad","Ambārābād","`Anbarabad","عنبر آباد","‘Anbarābād"],"latitude":"28.4759","longitude":"57.848","feature_class":"P","feature_code":"PPLA2","country_code":"IR","cc2":"","admin1_code":"29","admin2_code":"","admin3_code":"","admin4_code":"","population":"0","elevation":"","dem":"603","timezone":"Asia/Tehran","modification_date":"2014-09-04"},{"geonameid":"143499","name":"Anār","asciiname":"Anar","alternatenames":["Anar","Anār","anar","انار"],"latitude":"30.87066","longitude":"55.27025","feature_class":"P","feature_code":"PPLA2","country_code":"IR","cc2":"","admin1_code":"29","admin2_code":"","admin3_code":"","admin4_code":"","population":"0","elevation":"","dem":"1409","timezone":"Asia/Tehran","modification_date":"2014-09-04"},{"geonameid":"390054","name":"Kūh Sefīd","asciiname":"Kuh Sefid","alternatenames":["Kuh Sefid","Kuh-e Sefid","Kūh Sefīd","Kūh-e Sefīd","kwh sfyd","کوه سفید"],"latitude":"29.2762","longitude":"56.8014","feature_class":"P","feature_code":"PPL","country_code":"IR","cc2":"","admin1_code":"29","admin2_code":"","admin3_code":"","admin4_code":"","population":"2850","elevation":"","dem":"2564","timezone":"Asia/Tehran","modification_date":"2012-01-19"},{"geonameid":"403126","name":"Shahrak-e Pābedānā","asciiname":"Shahrak-e Pabedana","alternatenames":["Kian Shahr","Kiyan Shar","Kīyān Shār","Kīān Shahr","Shahrak-e Pabedana","Shahrak-e Pābedānā"],"latitude":"31.13444","longitude":"56.39806","feature_class":"P","feature_code":"PPL","country_code":"IR","cc2":"IR","admin1_code":"29","admin2_code":"","admin3_code":"","admin4_code":"","population":"6503","elevation":"","dem":"2117","timezone":"Asia/Tehran","modification_date":"2013-05-05"},{"geonameid":"6925362","name":"Jīroft","asciiname":"Jiroft","alternatenames":["Jiroft","Jīroft","Sabzawaran","Sabzevaran","Sabzevaran-e Jiroft","Sabzevārān","Sabzevārān-e Jiroft","Sabzvaran","Sabzvārān","Sabzāwārān","jyrft","جیرفت"],"latitude":"28.6535","longitude":"57.7646","feature_class":"P","feature_code":"PPLA2","country_code":"IR","cc2":"","admin1_code":"29","admin2_code":"","admin3_code":"","admin4_code":"","population":"0","elevation":"","dem":"657","timezone":"Asia/Tehran","modification_date":"2014-09-06"},{"geonameid":"6928551","name":"Eslāmābād","asciiname":"Eslamabad","alternatenames":["Eslamabad","Eslamabad-e Rudbar","Eslāmābād","Eslāmābād-e Rūdbār","Rudbar","Rūdbār","aslam abad","aslam abad rwdbar","rwdbar","اسلام آباد","اسلام آباد رودبار","رودبار"],"latitude":"28.02611","longitude":"58","feature_class":"P","feature_code":"PPLA2","country_code":"IR","cc2":"","admin1_code":"29","admin2_code":"","admin3_code":"","admin4_code":"","population":"0","elevation":"","dem":"487","timezone":"Asia/Tehran","modification_date":"2014-09-06"},{"geonameid":"6961608","name":"Kahnūj","asciiname":"Kahnuj","alternatenames":["Kahnuj","Kahnūj","khnwj","کهنوج"],"latitude":"27.9519","longitude":"57.6996","feature_class":"P","feature_code":"PPLA2","country_code":"IR","cc2":"","admin1_code":"29","admin2_code":"","admin3_code":"","admin4_code":"","population":"0","elevation":"","dem":"505","timezone":"Asia/Tehran","modification_date":"2014-09-06"}]}