{"region_data":{"countryId":"614540","adminCode1":"67","countryName":"Georgia","fclName":"country, state, region,...","countryCode":"GE","lng":"45.71667","fcodeName":"first-order administrative division","toponymName":"Kakheti","fcl":"A","numberOfChildren":13,"name":"Kakheti","fcode":"ADM1","geonameId":865537,"lat":"41.75","adminName1":"Kakheti","population":395456},"country_data":{"ISO":"GE","ISO3":"GEO","ISO_Numeric":"268","fips":"GG","country":"Georgia","capital":"Tbilisi","area":"69700","Population":"4630000","Continent":"AS","tld":".ge","CurrencyCode":"GEL","CurrencyName":"Lari","Phone":"995","Postal_Code_Format":"####","Postal_Code_Regex":"^(\\d{4})$","Languages":"ka,ru,hy,az","geonameid":"614540","neighbours":"AM,AZ,TR,RU","EquivalentFipsCode":""},"cities":[{"geonameid":"611492","name":"Tsinandali","asciiname":"Tsinandali","alternatenames":["Cinandali","Tsinandali","Tsinondali","tsʼinandali","Цинандали","წინანდალი"],"latitude":"41.89315","longitude":"45.57129","feature_class":"P","feature_code":"PPL","country_code":"GE","cc2":"","admin1_code":"67","admin2_code":"","admin3_code":"","admin4_code":"","population":"3800","elevation":"","dem":"605","timezone":"Asia/Tbilisi","modification_date":"2013-08-05"},{"geonameid":"611694","name":"Telavi","asciiname":"Telavi","alternatenames":["T'elavi","Telav","Telavi","Telavis","Telawi","Telev","Thelavi","telavi","Телави","თელავი"],"latitude":"41.91978","longitude":"45.47315","feature_class":"P","feature_code":"PPLA","country_code":"GE","cc2":"","admin1_code":"67","admin2_code":"7667581","admin3_code":"","admin4_code":"","population":"21800","elevation":"","dem":"722","timezone":"Asia/Tbilisi","modification_date":"2014-07-08"},{"geonameid":"611902","name":"Sighnaghi","asciiname":"Sighnaghi","alternatenames":["Sighnaghi","Signagi","Signakh","Signakhi","Ssignachi","Сигнахи"],"latitude":"41.62046","longitude":"45.92198","feature_class":"P","feature_code":"PPL","country_code":"GE","cc2":"","admin1_code":"67","admin2_code":"","admin3_code":"","admin4_code":"","population":"1923","elevation":"","dem":"779","timezone":"Asia/Tbilisi","modification_date":"2014-06-26"},{"geonameid":"612230","name":"Sagarejo","asciiname":"Sagarejo","alternatenames":["Sagaredzho","Sagarejo","sagarejo","Сагареджо","საგარეჯო"],"latitude":"41.73397","longitude":"45.33149","feature_class":"P","feature_code":"PPL","country_code":"GE","cc2":"","admin1_code":"67","admin2_code":"","admin3_code":"","admin4_code":"","population":"12173","elevation":"","dem":"748","timezone":"Asia/Tbilisi","modification_date":"2013-08-05"},{"geonameid":"612338","name":"Qvareli","asciiname":"Qvareli","alternatenames":["Kvareli","Kvarely","Qvareli","Кварели"],"latitude":"41.95493","longitude":"45.81716","feature_class":"P","feature_code":"PPL","country_code":"GE","cc2":"","admin1_code":"67","admin2_code":"","admin3_code":"","admin4_code":"","population":"8612","elevation":"","dem":"442","timezone":"Asia/Tbilisi","modification_date":"2013-08-05"},{"geonameid":"613342","name":"Lagodekhi","asciiname":"Lagodekhi","alternatenames":["Lagodechis","Lagodekhi","lagodekhi","lgwdhy","Лагодехи","לגודחי","ლაგოდეხი"],"latitude":"41.82681","longitude":"46.27667","feature_class":"P","feature_code":"PPL","country_code":"GE","cc2":"","admin1_code":"67","admin2_code":"","admin3_code":"","admin4_code":"","population":"6550","elevation":"","dem":"469","timezone":"Asia/Tbilisi","modification_date":"2014-06-26"},{"geonameid":"614351","name":"Gurjaani","asciiname":"Gurjaani","alternatenames":["Gurdjaani","Gurdzhaani","Gurdzhani","Gurjaani","gurjaani","Гурджаани","გურჯაანი"],"latitude":"41.74292","longitude":"45.80111","feature_class":"P","feature_code":"PPL","country_code":"GE","cc2":"","admin1_code":"67","admin2_code":"7667580","admin3_code":"","admin4_code":"","population":"9466","elevation":"","dem":"400","timezone":"Asia/Tbilisi","modification_date":"2013-08-05"},{"geonameid":"615844","name":"Akhmet’a","asciiname":"Akhmet'a","alternatenames":["Akhmet'a","Akhmeta","Akhmeti","Akhmety","Akhmet’a","akhmetʼa","Ахмета","ახმეტა"],"latitude":"42.03111","longitude":"45.2075","feature_class":"P","feature_code":"PPLA2","country_code":"GE","cc2":"","admin1_code":"67","admin2_code":"","admin3_code":"","admin4_code":"","population":"8569","elevation":"","dem":"582","timezone":"Asia/Tbilisi","modification_date":"2014-07-08"}]}