{"region_data":{"countryId":"1527747","adminCode1":"02","countryName":"Kyrgyzstan","fclName":"country, state, region,...","countryCode":"KG","lng":"74.5","fcodeName":"first-order administrative division","toponymName":"Chuyskaya Oblast’","fcl":"A","numberOfChildren":12,"name":"Chuyskaya Oblast’","fcode":"ADM1","geonameId":1538652,"lat":"42.41667","adminName1":"Chüy","population":790438},"country_data":{"ISO":"KG","ISO3":"KGZ","ISO_Numeric":"417","fips":"KG","country":"Kyrgyzstan","capital":"Bishkek","area":"198500","Population":"5508626","Continent":"AS","tld":".kg","CurrencyCode":"KGS","CurrencyName":"Som","Phone":"996","Postal_Code_Format":"######","Postal_Code_Regex":"^(\\d{6})$","Languages":"ky,uz,ru","geonameid":"1527747","neighbours":"CN,TJ,UZ,KZ","EquivalentFipsCode":""},"cities":[{"geonameid":"1527199","name":"Tokmok","asciiname":"Tokmok","alternatenames":["Tokmak","Tokmok","Токмак","Токмок"],"latitude":"42.84194","longitude":"75.30149","feature_class":"P","feature_code":"PPLA2","country_code":"KG","cc2":"","admin1_code":"02","admin2_code":"","admin3_code":"","admin4_code":"","population":"63047","elevation":"800","dem":"824","timezone":"Asia/Bishkek","modification_date":"2015-05-26"},{"geonameid":"1527351","name":"Sosnovka","asciiname":"Sosnovka","alternatenames":["Sosnovka","Сосновка"],"latitude":"42.63707","longitude":"73.89608","feature_class":"P","feature_code":"PPL","country_code":"KG","cc2":"","admin1_code":"02","admin2_code":"","admin3_code":"","admin4_code":"","population":"5885","elevation":"","dem":"1208","timezone":"Asia/Bishkek","modification_date":"2015-05-28"},{"geonameid":"1528182","name":"Kara-Balta","asciiname":"Kara-Balta","alternatenames":["Imeni Mikoyana","Kara-Balta","Kara-Balty","Karabalto","Karabaltö","Кара-Балта"],"latitude":"42.81423","longitude":"73.84813","feature_class":"P","feature_code":"PPLA2","country_code":"KG","cc2":"","admin1_code":"02","admin2_code":"","admin3_code":"","admin4_code":"","population":"62796","elevation":"","dem":"789","timezone":"Asia/Bishkek","modification_date":"2015-05-25"},{"geonameid":"1528193","name":"Kant","asciiname":"Kant","alternatenames":["Kant","Кант"],"latitude":"42.89106","longitude":"74.85077","feature_class":"P","feature_code":"PPLA2","country_code":"KG","cc2":"","admin1_code":"02","admin2_code":"","admin3_code":"","admin4_code":"","population":"20181","elevation":"","dem":"743","timezone":"Asia/Bishkek","modification_date":"2015-06-07"},{"geonameid":"1528234","name":"Kaindy","asciiname":"Kaindy","alternatenames":["Kainda","Kaindy","Kayyngdy","Molotovsk","Molotovskiy","Каинды"],"latitude":"42.82469","longitude":"73.67585","feature_class":"P","feature_code":"PPLA2","country_code":"KG","cc2":"","admin1_code":"02","admin2_code":"","admin3_code":"","admin4_code":"","population":"10616","elevation":"","dem":"738","timezone":"Asia/Bishkek","modification_date":"2015-06-07"},{"geonameid":"1528606","name":"Kemin","asciiname":"Kemin","alternatenames":["Bostrorechenskoye","Bystrorechenskoye","Bystrovka","Kemin","Быстровка","Кемин"],"latitude":"42.78458","longitude":"75.68917","feature_class":"P","feature_code":"PPLA2","country_code":"KG","cc2":"","admin1_code":"02","admin2_code":"","admin3_code":"","admin4_code":"","population":"10295","elevation":"","dem":"1120","timezone":"Asia/Bishkek","modification_date":"2015-05-31"}]}