{"region_data":{"countryId":"2802361","adminCode1":"VLG","countryName":"Belgium","fclName":"country, state, region,...","countryCode":"BE","lng":"4.5","fcodeName":"first-order administrative division","toponymName":"Flanders","fcl":"A","numberOfChildren":5,"name":"Flemish","fcode":"ADM1","geonameId":3337388,"lat":"51","adminName1":"Flemish","population":6350765},"country_data":{"ISO":"BE","ISO3":"BEL","ISO_Numeric":"056","fips":"BE","country":"Belgium","capital":"Brussels","area":"30510","Population":"10403000","Continent":"EU","tld":".be","CurrencyCode":"EUR","CurrencyName":"Euro","Phone":"32","Postal_Code_Format":"####","Postal_Code_Regex":"^(\\d{4})$","Languages":"nl-BE,fr-BE,de-BE","geonameid":"2802361","neighbours":"DE,NL,LU,FR","EquivalentFipsCode":""},"cities":[{"geonameid":"2783081","name":"Zwijndrecht","asciiname":"Zwijndrecht","alternatenames":["Zwijndrecht","Zwyndrecht"],"latitude":"51.21979","longitude":"4.32664","feature_class":"P","feature_code":"PPL","country_code":"BE","cc2":"","admin1_code":"VLG","admin2_code":"VAN","admin3_code":"11","admin4_code":"11056","population":"18249","elevation":"","dem":"7","timezone":"Europe/Brussels","modification_date":"2011-02-07"},{"geonameid":"2783089","name":"Zwevegem","asciiname":"Zwevegem","alternatenames":["Sweveghem","Zwevegem","Zwevehem"],"latitude":"50.81268","longitude":"3.33848","feature_class":"P","feature_code":"PPL","country_code":"BE","cc2":"","admin1_code":"VLG","admin2_code":"VWV","admin3_code":"34","admin4_code":"34042","population":"23358","elevation":"","dem":"30","timezone":"Europe/Brussels","modification_date":"2012-01-18"},{"geonameid":"2783143","name":"Zutendaal","asciiname":"Zutendaal","alternatenames":["Sutendael","Zutendaal"],"latitude":"50.93306","longitude":"5.5753","feature_class":"P","feature_code":"PPL","country_code":"BE","cc2":"","admin1_code":"VLG","admin2_code":"VLI","admin3_code":"71","admin4_code":"71067","population":"6962","elevation":"","dem":"84","timezone":"Europe/Brussels","modification_date":"2011-02-28"},{"geonameid":"2783151","name":"Zulte","asciiname":"Zulte","alternatenames":["Zulte"],"latitude":"50.91954","longitude":"3.44859","feature_class":"P","feature_code":"PPL","country_code":"BE","cc2":"","admin1_code":"VLG","admin2_code":"VOV","admin3_code":"44","admin4_code":"44081","population":"14670","elevation":"","dem":"11","timezone":"Europe/Brussels","modification_date":"2012-01-18"},{"geonameid":"2783153","name":"Zuienkerke","asciiname":"Zuienkerke","alternatenames":["Zuienkerke","Zuujnkerke","Zuyenkerke"],"latitude":"51.26511","longitude":"3.15506","feature_class":"P","feature_code":"PPL","country_code":"BE","cc2":"","admin1_code":"VLG","admin2_code":"VWV","admin3_code":"31","admin4_code":"31042","population":"2736","elevation":"","dem":"3","timezone":"Europe/Brussels","modification_date":"2012-01-18"},{"geonameid":"2783170","name":"Zoutleeuw","asciiname":"Zoutleeuw","alternatenames":["Leau","Léau","Zoutleeuw","Zoutleew"],"latitude":"50.83316","longitude":"5.10376","feature_class":"P","feature_code":"PPL","country_code":"BE","cc2":"","admin1_code":"VLG","admin2_code":"VBR","admin3_code":"24","admin4_code":"24130","population":"7897","elevation":"","dem":"30","timezone":"Europe/Brussels","modification_date":"2012-01-18"},{"geonameid":"2783175","name":"Zottegem","asciiname":"Zottegem","alternatenames":["Sottegem","Zotegem","Zottegem","ztzhm","zuo te hai mu","Зотегем","Зоттегем","زتژم","佐特海姆"],"latitude":"50.86955","longitude":"3.81052","feature_class":"P","feature_code":"PPL","country_code":"BE","cc2":"","admin1_code":"VLG","admin2_code":"VOV","admin3_code":"41","admin4_code":"41081","population":"24434","elevation":"","dem":"63","timezone":"Europe/Brussels","modification_date":"2012-01-18"},{"geonameid":"2783184","name":"Zonnebeke","asciiname":"Zonnebeke","alternatenames":["Zonnebeke","Zunnebeke"],"latitude":"50.8726","longitude":"2.98725","feature_class":"P","feature_code":"PPL","country_code":"BE","cc2":"","admin1_code":"VLG","admin2_code":"VWV","admin3_code":"33","admin4_code":"33037","population":"11581","elevation":"","dem":"34","timezone":"Europe/Brussels","modification_date":"2008-08-02"},{"geonameid":"2783188","name":"Zonhoven","asciiname":"Zonhoven","alternatenames":["Zoneve","Zonhoven","Zonhovena"],"latitude":"50.99064","longitude":"5.36819","feature_class":"P","feature_code":"PPL","country_code":"BE","cc2":"","admin1_code":"VLG","admin2_code":"VLI","admin3_code":"71","admin4_code":"71066","population":"19922","elevation":"","dem":"44","timezone":"Europe/Brussels","modification_date":"2011-02-23"},{"geonameid":"2783195","name":"Zomergem","asciiname":"Zomergem","alternatenames":["Somergein","Somergem","Zomergem"],"latitude":"51.11994","longitude":"3.56496","feature_class":"P","feature_code":"PPL","country_code":"BE","cc2":"","admin1_code":"VLG","admin2_code":"VOV","admin3_code":"44","admin4_code":"44080","population":"8158","elevation":"","dem":"9","timezone":"Europe/Brussels","modification_date":"2012-01-18"},{"geonameid":"2783204","name":"Zoersel","asciiname":"Zoersel","alternatenames":["OBL","Zoersel"],"latitude":"51.26825","longitude":"4.71296","feature_class":"P","feature_code":"PPL","country_code":"BE","cc2":"","admin1_code":"VLG","admin2_code":"VAN","admin3_code":"11","admin4_code":"11055","population":"20642","elevation":"","dem":"17","timezone":"Europe/Brussels","modification_date":"2011-02-08"},{"geonameid":"2783215","name":"Zingem","asciiname":"Zingem","alternatenames":["Syngem","Zingem"],"latitude":"50.90409","longitude":"3.65305","feature_class":"P","feature_code":"PPL","country_code":"BE","cc2":"","admin1_code":"VLG","admin2_code":"VOV","admin3_code":"45","admin4_code":"45057","population":"6588","elevation":"","dem":"16","timezone":"Europe/Brussels","modification_date":"2012-01-18"},{"geonameid":"2783274","name":"Zemst","asciiname":"Zemst","alternatenames":["Sempst","Zemst","Земст"],"latitude":"50.98318","longitude":"4.46079","feature_class":"P","feature_code":"PPL","country_code":"BE","cc2":"","admin1_code":"VLG","admin2_code":"VBR","admin3_code":"23","admin4_code":"23096","population":"21096","elevation":"","dem":"11","timezone":"Europe/Brussels","modification_date":"2011-02-03"},{"geonameid":"2783278","name":"Zelzate","asciiname":"Zelzate","alternatenames":["Selzaet","Selzaete","Zelzate"],"latitude":"51.18963","longitude":"3.80777","feature_class":"P","feature_code":"PPL","country_code":"BE","cc2":"","admin1_code":"VLG","admin2_code":"VOV","admin3_code":"43","admin4_code":"43018","population":"11901","elevation":"","dem":"7","timezone":"Europe/Brussels","modification_date":"2012-01-18"},{"geonameid":"2783293","name":"Zele","asciiname":"Zele","alternatenames":["Zele","Зеле"],"latitude":"51.06566","longitude":"4.0403","feature_class":"P","feature_code":"PPL","country_code":"BE","cc2":"","admin1_code":"VLG","admin2_code":"VOV","admin3_code":"42","admin4_code":"42028","population":"20236","elevation":"","dem":"6","timezone":"Europe/Brussels","modification_date":"2012-01-18"},{"geonameid":"2783307","name":"Zeebrugge","asciiname":"Zeebrugge","alternatenames":["Zebrjugge","Zeebruegge","Zeebruges","Zeebrugge","Zeebrygge","Zeebrügge","Zêebrugge","ze bu lu he","Зебрюгге","泽布吕赫"],"latitude":"51.32901","longitude":"3.18188","feature_class":"P","feature_code":"PPL","country_code":"BE","cc2":"","admin1_code":"VLG","admin2_code":"VWV","admin3_code":"","admin4_code":"","population":"4500","elevation":"","dem":"10","timezone":"Europe/Brussels","modification_date":"2013-06-26"},{"geonameid":"2783308","name":"Zedelgem","asciiname":"Zedelgem","alternatenames":["Zedel'gem","Zedelgem","Zedelghem","Zillegem","Zillehem","ze de er hai mu","zwdlzhm","Зеделгем","Зедельгем","زودلژم","泽德尔海姆"],"latitude":"51.14236","longitude":"3.1368","feature_class":"P","feature_code":"PPL","country_code":"BE","cc2":"","admin1_code":"VLG","admin2_code":"VWV","admin3_code":"31","admin4_code":"31040","population":"21968","elevation":"","dem":"9","timezone":"Europe/Brussels","modification_date":"2012-01-18"},{"geonameid":"2783310","name":"Zaventem","asciiname":"Zaventem","alternatenames":["Saventhem","Zaventem","zha fen te mu","zwantm","Завентем","زوانتم","扎芬特姆"],"latitude":"50.88365","longitude":"4.47298","feature_class":"P","feature_code":"PPL","country_code":"BE","cc2":"","admin1_code":"VLG","admin2_code":"VBR","admin3_code":"23","admin4_code":"23094","population":"28188","elevation":"","dem":"46","timezone":"Europe/Brussels","modification_date":"2011-02-03"},{"geonameid":"2783347","name":"Zandhoven","asciiname":"Zandhoven","alternatenames":["Santhoven","Zandhoven"],"latitude":"51.21488","longitude":"4.66164","feature_class":"P","feature_code":"PPL","country_code":"BE","cc2":"","admin1_code":"VLG","admin2_code":"VAN","admin3_code":"11","admin4_code":"11054","population":"12306","elevation":"","dem":"11","timezone":"Europe/Brussels","modification_date":"2012-01-18"},{"geonameid":"2783416","name":"Wuustwezel","asciiname":"Wuustwezel","alternatenames":["Wuestwezel","Wuustwezel"],"latitude":"51.39214","longitude":"4.59546","feature_class":"P","feature_code":"PPL","country_code":"BE","cc2":"","admin1_code":"VLG","admin2_code":"VAN","admin3_code":"11","admin4_code":"11053","population":"18117","elevation":"","dem":"18","timezone":"Europe/Brussels","modification_date":"2011-02-11"},{"geonameid":"2783462","name":"Wommelgem","asciiname":"Wommelgem","alternatenames":["Wommelgem","Wommelghem"],"latitude":"51.20452","longitude":"4.5225","feature_class":"P","feature_code":"PPL","country_code":"BE","cc2":"","admin1_code":"VLG","admin2_code":"VAN","admin3_code":"11","admin4_code":"11052","population":"11917","elevation":"","dem":"9","timezone":"Europe/Brussels","modification_date":"2011-02-07"},{"geonameid":"2783586","name":"Wingene","asciiname":"Wingene","alternatenames":["Wingene","Wynghene"],"latitude":"51.05782","longitude":"3.27359","feature_class":"P","feature_code":"PPL","country_code":"BE","cc2":"","admin1_code":"VLG","admin2_code":"VWV","admin3_code":"37","admin4_code":"37018","population":"12887","elevation":"","dem":"26","timezone":"Europe/Brussels","modification_date":"2012-01-18"},{"geonameid":"2783632","name":"Willebroek","asciiname":"Willebroek","alternatenames":["Villebruk","Willebroeck","Willebroek","Виллебрук"],"latitude":"51.06041","longitude":"4.36019","feature_class":"P","feature_code":"PPL","country_code":"BE","cc2":"","admin1_code":"VLG","admin2_code":"VAN","admin3_code":"12","admin4_code":"12040","population":"22808","elevation":"","dem":"4","timezone":"Europe/Brussels","modification_date":"2012-01-18"},{"geonameid":"2783684","name":"Wijnegem","asciiname":"Wijnegem","alternatenames":["Wijnegem","Wyneghem"],"latitude":"51.22787","longitude":"4.51895","feature_class":"P","feature_code":"PPL","country_code":"BE","cc2":"","admin1_code":"VLG","admin2_code":"VAN","admin3_code":"11","admin4_code":"11050","population":"8932","elevation":"","dem":"8","timezone":"Europe/Brussels","modification_date":"2012-01-18"},{"geonameid":"2783717","name":"Wielsbeke","asciiname":"Wielsbeke","alternatenames":["Wielsbeke"],"latitude":"50.9","longitude":"3.36667","feature_class":"P","feature_code":"PPL","country_code":"BE","cc2":"","admin1_code":"VLG","admin2_code":"VWV","admin3_code":"37","admin4_code":"37017","population":"8828","elevation":"","dem":"9","timezone":"Europe/Brussels","modification_date":"2012-01-18"},{"geonameid":"2783728","name":"Wichelen","asciiname":"Wichelen","alternatenames":["Wichelen"],"latitude":"51.00526","longitude":"3.97683","feature_class":"P","feature_code":"PPL","country_code":"BE","cc2":"","admin1_code":"VLG","admin2_code":"VOV","admin3_code":"42","admin4_code":"42026","population":"11014","elevation":"","dem":"8","timezone":"Europe/Brussels","modification_date":"2012-01-18"},{"geonameid":"2783737","name":"Wezembeek-Oppem","asciiname":"Wezembeek-Oppem","alternatenames":["Wesembeek","Wezembeek-Oppem"],"latitude":"50.8395","longitude":"4.49427","feature_class":"P","feature_code":"PPL","country_code":"BE","cc2":"","admin1_code":"VLG","admin2_code":"VBR","admin3_code":"23","admin4_code":"23103","population":"13245","elevation":"","dem":"67","timezone":"Europe/Brussels","modification_date":"2011-01-25"},{"geonameid":"2783759","name":"Wevelgem","asciiname":"Wevelgem","alternatenames":["Vevel'geme","Vevelgem","Wevelgem","Wevelghem","Wevelhem","wei fu er hai mu","Вевелгем","Вевельгеме","韦弗尔海姆"],"latitude":"50.8","longitude":"3.16667","feature_class":"P","feature_code":"PPL","country_code":"BE","cc2":"","admin1_code":"VLG","admin2_code":"VWV","admin3_code":"34","admin4_code":"34041","population":"30954","elevation":"","dem":"15","timezone":"Europe/Brussels","modification_date":"2012-01-18"},{"geonameid":"2783763","name":"Wetteren","asciiname":"Wetteren","alternatenames":["Vetteren","Wetteran","Wetteren","Веттерен"],"latitude":"51.00526","longitude":"3.88341","feature_class":"P","feature_code":"PPL","country_code":"BE","cc2":"","admin1_code":"VLG","admin2_code":"VOV","admin3_code":"42","admin4_code":"42025","population":"22930","elevation":"","dem":"16","timezone":"Europe/Brussels","modification_date":"2012-01-18"},{"geonameid":"2783801","name":"Westerlo","asciiname":"Westerlo","alternatenames":["Vesterlas","Vesterlo","Westerlo","Westerloo","awystrlw","wei si te luo","Вестерло","اوئسترلو","韦斯特洛"],"latitude":"51.09049","longitude":"4.91544","feature_class":"P","feature_code":"PPL","country_code":"BE","cc2":"","admin1_code":"VLG","admin2_code":"VAN","admin3_code":"13","admin4_code":"13049","population":"22579","elevation":"","dem":"14","timezone":"Europe/Brussels","modification_date":"2012-01-18"},{"geonameid":"2783820","name":"Wervik","asciiname":"Wervik","alternatenames":["Vervik","Viroviacum","Wervicq","Wervik","wei er fei ke","wrwyk","Вервик","Вервік","ورویک","韦尔菲克"],"latitude":"50.78069","longitude":"3.03854","feature_class":"P","feature_code":"PPL","country_code":"BE","cc2":"","admin1_code":"VLG","admin2_code":"VWV","admin3_code":"33","admin4_code":"33029","population":"17340","elevation":"","dem":"18","timezone":"Europe/Brussels","modification_date":"2012-01-18"},{"geonameid":"2783854","name":"Wenduine","asciiname":"Wenduine","alternatenames":["Vandjuin","Wenduine","Wenduyne","Вандюин"],"latitude":"51.2983","longitude":"3.08213","feature_class":"P","feature_code":"PPL","country_code":"BE","cc2":"","admin1_code":"VLG","admin2_code":"VWV","admin3_code":"35","admin4_code":"35029","population":"4003","elevation":"","dem":"5","timezone":"Europe/Brussels","modification_date":"2012-01-18"},{"geonameid":"2783856","name":"Wemmel","asciiname":"Wemmel","alternatenames":["Wemmel"],"latitude":"50.90812","longitude":"4.30613","feature_class":"P","feature_code":"PPL","country_code":"BE","cc2":"","admin1_code":"VLG","admin2_code":"VBR","admin3_code":"23","admin4_code":"23102","population":"14406","elevation":"","dem":"39","timezone":"Europe/Brussels","modification_date":"2011-02-03"},{"geonameid":"2783864","name":"Wellen","asciiname":"Wellen","alternatenames":["Wellen","Wille"],"latitude":"50.84096","longitude":"5.33867","feature_class":"P","feature_code":"PPL","country_code":"BE","cc2":"","admin1_code":"VLG","admin2_code":"VLI","admin3_code":"73","admin4_code":"73098","population":"6804","elevation":"","dem":"47","timezone":"Europe/Brussels","modification_date":"2011-03-02"},{"geonameid":"2784068","name":"Waregem","asciiname":"Waregem","alternatenames":["Varegem","Varegemas","Waereghem","Waregem","Waregemi vald","Woaregem","wa lei hai mu","warehemu","warkhm","Варегем","وارخم","ワレヘム","瓦勒海姆"],"latitude":"50.88898","longitude":"3.42756","feature_class":"P","feature_code":"PPL","country_code":"BE","cc2":"","admin1_code":"VLG","admin2_code":"VWV","admin3_code":"34","admin4_code":"34040","population":"35896","elevation":"","dem":"13","timezone":"Europe/Brussels","modification_date":"2012-01-18"},{"geonameid":"2784227","name":"Wachtebeke","asciiname":"Wachtebeke","alternatenames":["Wachtebeke"],"latitude":"51.16852","longitude":"3.87183","feature_class":"P","feature_code":"PPL","country_code":"BE","cc2":"","admin1_code":"VLG","admin2_code":"VOV","admin3_code":"44","admin4_code":"44073","population":"6911","elevation":"","dem":"7","timezone":"Europe/Brussels","modification_date":"2012-01-18"},{"geonameid":"2784231","name":"Waasmunster","asciiname":"Waasmunster","alternatenames":["Waasmunster","Waesmunster"],"latitude":"51.10572","longitude":"4.08573","feature_class":"P","feature_code":"PPL","country_code":"BE","cc2":"","admin1_code":"VLG","admin2_code":"VOV","admin3_code":"42","admin4_code":"42023","population":"10460","elevation":"","dem":"5","timezone":"Europe/Brussels","modification_date":"2012-01-18"},{"geonameid":"2784237","name":"Waarschoot","asciiname":"Waarschoot","alternatenames":["Waarschoot","Waerschoot"],"latitude":"51.1525","longitude":"3.605","feature_class":"P","feature_code":"PPL","country_code":"BE","cc2":"","admin1_code":"VLG","admin2_code":"VOV","admin3_code":"44","admin4_code":"44072","population":"7762","elevation":"","dem":"6","timezone":"Europe/Brussels","modification_date":"2012-01-18"},{"geonameid":"2784349","name":"Vosselaar","asciiname":"Vosselaar","alternatenames":["Vosselaar","Vosselaer"],"latitude":"51.30856","longitude":"4.8896","feature_class":"P","feature_code":"PPL","country_code":"BE","cc2":"","admin1_code":"VLG","admin2_code":"VAN","admin3_code":"13","admin4_code":"13046","population":"10317","elevation":"","dem":"22","timezone":"Europe/Brussels","modification_date":"2011-02-08"},{"geonameid":"2784370","name":"Vorselaar","asciiname":"Vorselaar","alternatenames":["Vorselaar","Vorsselaer"],"latitude":"51.20243","longitude":"4.77259","feature_class":"P","feature_code":"PPL","country_code":"BE","cc2":"","admin1_code":"VLG","admin2_code":"VAN","admin3_code":"13","admin4_code":"13044","population":"7238","elevation":"","dem":"14","timezone":"Europe/Brussels","modification_date":"2012-01-18"},{"geonameid":"2784604","name":"Vilvoorde","asciiname":"Vilvoorde","alternatenames":["Vilvoorde","Vilvorde","Vilvordė","fei er fu er de","wylwwrd","Вилворде","Вілворде","ویلوورد","菲尔福尔德"],"latitude":"50.92814","longitude":"4.42938","feature_class":"P","feature_code":"PPL","country_code":"BE","cc2":"","admin1_code":"VLG","admin2_code":"VBR","admin3_code":"23","admin4_code":"23088","population":"36955","elevation":"","dem":"19","timezone":"Europe/Brussels","modification_date":"2011-02-03"},{"geonameid":"2784804","name":"Veurne","asciiname":"Veurne","alternatenames":["Furna","Furnes","V'orne","Veurn","Veurne","fu er nei","wrn","Вьорне","ورن","弗尔内"],"latitude":"51.07316","longitude":"2.66803","feature_class":"P","feature_code":"PPLA3","country_code":"BE","cc2":"","admin1_code":"VLG","admin2_code":"VWV","admin3_code":"38","admin4_code":"38025","population":"11983","elevation":"","dem":"3","timezone":"Europe/Brussels","modification_date":"2013-11-23"},{"geonameid":"2785141","name":"Turnhout","asciiname":"Turnhout","alternatenames":["T'ornkhaut","Tjurnkhaut","Turnaut","Turnholtum","Turnhout","Turnkhout","di lun hao te","to~urunhauto","twrnw","Турнаут","Турнхоут","Тьорнхаут","Тюрнхаут","تورنو","トゥルンハウト","蒂伦豪特"],"latitude":"51.32254","longitude":"4.94471","feature_class":"P","feature_code":"PPLA3","country_code":"BE","cc2":"","admin1_code":"VLG","admin2_code":"VAN","admin3_code":"13","admin4_code":"13040","population":"39654","elevation":"","dem":"29","timezone":"Europe/Brussels","modification_date":"2013-03-05"},{"geonameid":"2785293","name":"Tremelo","asciiname":"Tremelo","alternatenames":["Tremelo","Tremeloo"],"latitude":"50.99231","longitude":"4.70807","feature_class":"P","feature_code":"PPL","country_code":"BE","cc2":"","admin1_code":"VLG","admin2_code":"VBR","admin3_code":"24","admin4_code":"24109","population":"13721","elevation":"","dem":"10","timezone":"Europe/Brussels","modification_date":"2011-02-17"},{"geonameid":"2785364","name":"Torhout","asciiname":"Torhout","alternatenames":["Thourout","Toeroet","Torhout","Torkhout","Торхоут"],"latitude":"51.0656","longitude":"3.10085","feature_class":"P","feature_code":"PPL","country_code":"BE","cc2":"","admin1_code":"VLG","admin2_code":"VWV","admin3_code":"31","admin4_code":"31033","population":"18933","elevation":"","dem":"22","timezone":"Europe/Brussels","modification_date":"2012-01-18"},{"geonameid":"2785389","name":"Tongeren","asciiname":"Tongeren","alternatenames":["Atuatuca Tungrorum","Tongere","Tongeren","Tongerenas","Tongres","Toungern","Tungro","Tóngere","tnzhran","tong e lun","tong-eleon","tonheren","txng khexren","Тонгерен","تنژران","ตองเคอเรน","トンヘレン","通厄伦","통에런"],"latitude":"50.78054","longitude":"5.46484","feature_class":"P","feature_code":"PPL","country_code":"BE","cc2":"","admin1_code":"VLG","admin2_code":"VLI","admin3_code":"73","admin4_code":"73083","population":"29816","elevation":"","dem":"107","timezone":"Europe/Brussels","modification_date":"2011-02-28"},{"geonameid":"2785470","name":"Tienen","asciiname":"Tienen","alternatenames":["Thenae","Thienen","Tienen","Tijnen","Tinen","Tirlemont","di nen","tyynan","Тийнен","Тинен","تیئنان","蒂嫩"],"latitude":"50.80745","longitude":"4.9378","feature_class":"P","feature_code":"PPL","country_code":"BE","cc2":"","admin1_code":"VLG","admin2_code":"VBR","admin3_code":"24","admin4_code":"24107","population":"31743","elevation":"","dem":"46","timezone":"Europe/Brussels","modification_date":"2012-01-18"},{"geonameid":"2785476","name":"Tielt","asciiname":"Tielt","alternatenames":["Thielt","Tielt","Tijlt","Tilt","di er te","tyylt","Тийлт","Тілт","تیئلت","蒂尔特"],"latitude":"50.99931","longitude":"3.32707","feature_class":"P","feature_code":"PPLA3","country_code":"BE","cc2":"","admin1_code":"VLG","admin2_code":"VWV","admin3_code":"37","admin4_code":"37015","population":"19299","elevation":"","dem":"46","timezone":"Europe/Brussels","modification_date":"2013-03-05"},{"geonameid":"2785612","name":"Tessenderlo","asciiname":"Tessenderlo","alternatenames":["Loei","Tessenderlo","Tessenderloo"],"latitude":"51.06513","longitude":"5.08856","feature_class":"P","feature_code":"PPL","country_code":"BE","cc2":"","admin1_code":"VLG","admin2_code":"VLI","admin3_code":"71","admin4_code":"71057","population":"16574","elevation":"","dem":"27","timezone":"Europe/Brussels","modification_date":"2011-03-14"},{"geonameid":"2785622","name":"Tervuren","asciiname":"Tervuren","alternatenames":["Terv'oren","Tervjuren","Tervueren","Tervuren","te er fei lun","trwwran","Тервьорен","Тервюрен","ترووران","特尔菲伦"],"latitude":"50.82372","longitude":"4.51418","feature_class":"P","feature_code":"PPL","country_code":"BE","cc2":"","admin1_code":"VLG","admin2_code":"VBR","admin3_code":"24","admin4_code":"24104","population":"20623","elevation":"","dem":"79","timezone":"Europe/Brussels","modification_date":"2011-02-15"},{"geonameid":"2785654","name":"Ternat","asciiname":"Ternat","alternatenames":["Ternat","Ternath"],"latitude":"50.86654","longitude":"4.16682","feature_class":"P","feature_code":"PPL","country_code":"BE","cc2":"","admin1_code":"VLG","admin2_code":"VBR","admin3_code":"23","admin4_code":"23086","population":"14569","elevation":"","dem":"21","timezone":"Europe/Brussels","modification_date":"2011-02-02"},{"geonameid":"2785778","name":"Temse","asciiname":"Temse","alternatenames":["Tamise","Tamsch","Tamse","Temsche","Temse","Темсе"],"latitude":"51.12794","longitude":"4.21372","feature_class":"P","feature_code":"PPL","country_code":"BE","cc2":"","admin1_code":"VLG","admin2_code":"VOV","admin3_code":"46","admin4_code":"46025","population":"26054","elevation":"","dem":"15","timezone":"Europe/Brussels","modification_date":"2012-01-18"},{"geonameid":"2786087","name":"Stekene","asciiname":"Stekene","alternatenames":["Stekene"],"latitude":"51.2099","longitude":"4.03651","feature_class":"P","feature_code":"PPL","country_code":"BE","cc2":"","admin1_code":"VLG","admin2_code":"VOV","admin3_code":"46","admin4_code":"46024","population":"16989","elevation":"","dem":"7","timezone":"Europe/Brussels","modification_date":"2012-01-18"},{"geonameid":"2786124","name":"Steenokkerzeel","asciiname":"Steenokkerzeel","alternatenames":["Steen-Ockerzeel","Steenokkerzeel"],"latitude":"50.91851","longitude":"4.50989","feature_class":"P","feature_code":"PPL","country_code":"BE","cc2":"","admin1_code":"VLG","admin2_code":"VBR","admin3_code":"23","admin4_code":"23081","population":"10566","elevation":"","dem":"23","timezone":"Europe/Brussels","modification_date":"2011-02-07"},{"geonameid":"2786226","name":"Staden","asciiname":"Staden","alternatenames":["Staden"],"latitude":"50.97456","longitude":"3.01469","feature_class":"P","feature_code":"PPL","country_code":"BE","cc2":"","admin1_code":"VLG","admin2_code":"VWV","admin3_code":"36","admin4_code":"36019","population":"10786","elevation":"","dem":"21","timezone":"Europe/Brussels","modification_date":"2012-01-18"},{"geonameid":"2786229","name":"Stabroek","asciiname":"Stabroek","alternatenames":["Stabroeck","Stabroek"],"latitude":"51.33189","longitude":"4.37127","feature_class":"P","feature_code":"PPL","country_code":"BE","cc2":"","admin1_code":"VLG","admin2_code":"VAN","admin3_code":"11","admin4_code":"11044","population":"17294","elevation":"","dem":"3","timezone":"Europe/Brussels","modification_date":"2012-01-18"},{"geonameid":"2786545","name":"Sint-Truiden","asciiname":"Sint-Truiden","alternatenames":["Saint-Trond","Sint Truijen","Sint-Trjujden","Sint-Truiden","Sintruin","Синт-Трюйден"],"latitude":"50.81679","longitude":"5.18647","feature_class":"P","feature_code":"PPL","country_code":"BE","cc2":"","admin1_code":"VLG","admin2_code":"VLI","admin3_code":"71","admin4_code":"71053","population":"37859","elevation":"","dem":"54","timezone":"Europe/Brussels","modification_date":"2012-01-18"},{"geonameid":"2786559","name":"Sint-Pieters-Leeuw","asciiname":"Sint-Pieters-Leeuw","alternatenames":["Leeuw Sancti Petri","Leeuw-Saint-Pierre","Sin Piters Leuv","Sint Pijters Leu","Sint-Pieters-Leeuw","Sint-Piters-Leuv","sheng bi de si-lai wu","sn-pywth-lyw","Син Питерс Леув","Синт Пийтерс Леу","Синт-Питерс-Леув","سن-پیوته-لئو","圣彼得斯-莱乌"],"latitude":"50.77926","longitude":"4.24355","feature_class":"P","feature_code":"PPL","country_code":"BE","cc2":"","admin1_code":"VLG","admin2_code":"VBR","admin3_code":"23","admin4_code":"23077","population":"30446","elevation":"","dem":"45","timezone":"Europe/Brussels","modification_date":"2012-01-18"},{"geonameid":"2786578","name":"Sint-Niklaas","asciiname":"Sint-Niklaas","alternatenames":["Saint-Nicolas","Sint-Niklaas","Sint-Niklas","Синт-Никлас"],"latitude":"51.16509","longitude":"4.1437","feature_class":"P","feature_code":"PPLA3","country_code":"BE","cc2":"","admin1_code":"VLG","admin2_code":"VOV","admin3_code":"46","admin4_code":"46021","population":"69010","elevation":"","dem":"21","timezone":"Europe/Brussels","modification_date":"2013-03-05"},{"geonameid":"2786587","name":"Sint-Martens-Lennik","asciiname":"Sint-Martens-Lennik","alternatenames":["Lennick-Saint-Martin","Lennik (Sint-Martens-Lennik)"],"latitude":"50.81158","longitude":"4.16965","feature_class":"P","feature_code":"PPL","country_code":"BE","cc2":"","admin1_code":"VLG","admin2_code":"VBR","admin3_code":"23","admin4_code":"23104","population":"8818","elevation":"","dem":"57","timezone":"Europe/Brussels","modification_date":"2011-02-02"},{"geonameid":"2786591","name":"Sint-Martens-Latem","asciiname":"Sint-Martens-Latem","alternatenames":["Laethem-Saint-Martin","Sint-Martens-Latem"],"latitude":"51.01459","longitude":"3.63779","feature_class":"P","feature_code":"PPL","country_code":"BE","cc2":"","admin1_code":"VLG","admin2_code":"VOV","admin3_code":"44","admin4_code":"44064","population":"8303","elevation":"","dem":"8","timezone":"Europe/Brussels","modification_date":"2012-01-18"},{"geonameid":"2786603","name":"Sint-Maria-Lierde","asciiname":"Sint-Maria-Lierde","alternatenames":["Lierde-Sainte-Marie","Sint-Maria-Lierde"],"latitude":"50.82172","longitude":"3.84814","feature_class":"P","feature_code":"PPL","country_code":"BE","cc2":"","admin1_code":"VLG","admin2_code":"VOV","admin3_code":"45","admin4_code":"45063","population":"6449","elevation":"","dem":"50","timezone":"Europe/Brussels","modification_date":"2012-01-18"},{"geonameid":"2786616","name":"Sint-Lievens-Houtem","asciiname":"Sint-Lievens-Houtem","alternatenames":["Hautem-Saint-Lievin","Hautem-Saint-Liévin","Sint-Lievens-Houtem"],"latitude":"50.9197","longitude":"3.86225","feature_class":"P","feature_code":"PPL","country_code":"BE","cc2":"","admin1_code":"VLG","admin2_code":"VOV","admin3_code":"41","admin4_code":"41063","population":"9146","elevation":"","dem":"38","timezone":"Europe/Brussels","modification_date":"2012-01-18"},{"geonameid":"2786626","name":"Sint-Laureins","asciiname":"Sint-Laureins","alternatenames":["Saint-Laurent","Sint-Laureins"],"latitude":"51.24202","longitude":"3.52441","feature_class":"P","feature_code":"PPL","country_code":"BE","cc2":"","admin1_code":"VLG","admin2_code":"VOV","admin3_code":"43","admin4_code":"43014","population":"6657","elevation":"","dem":"2","timezone":"Europe/Brussels","modification_date":"2013-06-04"},{"geonameid":"2786634","name":"Sint-Kruis","asciiname":"Sint-Kruis","alternatenames":["Sainte-Croix","Sint-Kruis"],"latitude":"51.21399","longitude":"3.24949","feature_class":"P","feature_code":"PPL","country_code":"BE","cc2":"","admin1_code":"VLG","admin2_code":"VWV","admin3_code":"","admin4_code":"","population":"16000","elevation":"","dem":"7","timezone":"Europe/Brussels","modification_date":"2012-12-03"},{"geonameid":"2786641","name":"Sint-Katelijne-Waver","asciiname":"Sint-Katelijne-Waver","alternatenames":["Sint-Katelijne-Waver","Wavre-Sainte-Catherine"],"latitude":"51.06691","longitude":"4.53469","feature_class":"P","feature_code":"PPL","country_code":"BE","cc2":"","admin1_code":"VLG","admin2_code":"VAN","admin3_code":"12","admin4_code":"12035","population":"19487","elevation":"","dem":"6","timezone":"Europe/Brussels","modification_date":"2011-02-10"},{"geonameid":"2786694","name":"Sint-Gillis-Waas","asciiname":"Sint-Gillis-Waas","alternatenames":["Saint-Gilles-Waes","Saint-Gillis-Waas","Sint-Gillis-Waas"],"latitude":"51.21914","longitude":"4.12374","feature_class":"P","feature_code":"PPL","country_code":"BE","cc2":"","admin1_code":"VLG","admin2_code":"VOV","admin3_code":"46","admin4_code":"46020","population":"17658","elevation":"","dem":"5","timezone":"Europe/Brussels","modification_date":"2014-02-21"},{"geonameid":"2786700","name":"Sint-Genesius-Rode","asciiname":"Sint-Genesius-Rode","alternatenames":["Rhode-Saint-Genese","Rhode-Saint-Genèse","Sint-Genesius-Rode"],"latitude":"50.74645","longitude":"4.35754","feature_class":"P","feature_code":"PPL","country_code":"BE","cc2":"","admin1_code":"VLG","admin2_code":"VBR","admin3_code":"23","admin4_code":"23101","population":"17990","elevation":"","dem":"83","timezone":"Europe/Brussels","modification_date":"2011-02-02"},{"geonameid":"2786746","name":"Sint-Amands","asciiname":"Sint-Amands","alternatenames":["Saint-Amand","Sint-Amands"],"latitude":"51.05645","longitude":"4.20957","feature_class":"P","feature_code":"PPL","country_code":"BE","cc2":"","admin1_code":"VLG","admin2_code":"VAN","admin3_code":"12","admin4_code":"12034","population":"7653","elevation":"","dem":"5","timezone":"Europe/Brussels","modification_date":"2011-02-10"},{"geonameid":"2786963","name":"Schoten","asciiname":"Schoten","alternatenames":["Schooten","Schoten"],"latitude":"51.25251","longitude":"4.50268","feature_class":"P","feature_code":"PPL","country_code":"BE","cc2":"","admin1_code":"VLG","admin2_code":"VAN","admin3_code":"11","admin4_code":"11040","population":"33622","elevation":"","dem":"8","timezone":"Europe/Brussels","modification_date":"2011-02-11"},{"geonameid":"2787048","name":"Schilde","asciiname":"Schilde","alternatenames":["Schilde","Shil'de","Шильде"],"latitude":"51.24107","longitude":"4.58336","feature_class":"P","feature_code":"PPL","country_code":"BE","cc2":"","admin1_code":"VLG","admin2_code":"VAN","admin3_code":"11","admin4_code":"11039","population":"20373","elevation":"","dem":"9","timezone":"Europe/Brussels","modification_date":"2011-02-11"},{"geonameid":"2787080","name":"Schelle","asciiname":"Schelle","alternatenames":["Schelle"],"latitude":"51.12615","longitude":"4.34114","feature_class":"P","feature_code":"PPL","country_code":"BE","cc2":"","admin1_code":"VLG","admin2_code":"VAN","admin3_code":"11","admin4_code":"11038","population":"7675","elevation":"","dem":"7","timezone":"Europe/Brussels","modification_date":"2011-02-10"},{"geonameid":"2787313","name":"Saint-Yvon","asciiname":"Saint-Yvon","alternatenames":["Saint Ivon"],"latitude":"50.74335","longitude":"2.90992","feature_class":"P","feature_code":"PPLA3","country_code":"BE","cc2":"","admin1_code":"VLG","admin2_code":"VWV","admin3_code":"","admin4_code":"","population":"0","elevation":"22","dem":"27","timezone":"Europe/Brussels","modification_date":"2010-03-06"},{"geonameid":"2787521","name":"Rumst","asciiname":"Rumst","alternatenames":["Rumpst","Rumst"],"latitude":"51.08153","longitude":"4.42217","feature_class":"P","feature_code":"PPL","country_code":"BE","cc2":"","admin1_code":"VLG","admin2_code":"VAN","admin3_code":"11","admin4_code":"11037","population":"14521","elevation":"","dem":"6","timezone":"Europe/Brussels","modification_date":"2014-12-11"},{"geonameid":"2787547","name":"Ruiselede","asciiname":"Ruiselede","alternatenames":["Ruiselede","Ruysselede"],"latitude":"51.04039","longitude":"3.39416","feature_class":"P","feature_code":"PPL","country_code":"BE","cc2":"","admin1_code":"VLG","admin2_code":"VWV","admin3_code":"37","admin4_code":"37012","population":"5129","elevation":"","dem":"15","timezone":"Europe/Brussels","modification_date":"2012-01-18"},{"geonameid":"2787662","name":"Rotselaar","asciiname":"Rotselaar","alternatenames":["Rotselaar","Rotselaer","Rotselar","luo ce la er","rwtswlr","Ротселар","روتسولر","罗策拉尔"],"latitude":"50.95302","longitude":"4.71665","feature_class":"P","feature_code":"PPL","country_code":"BE","cc2":"","admin1_code":"VLG","admin2_code":"VBR","admin3_code":"24","admin4_code":"24094","population":"15007","elevation":"","dem":"12","timezone":"Europe/Brussels","modification_date":"2011-02-17"},{"geonameid":"2787769","name":"Ronse","asciiname":"Ronse","alternatenames":["Renaix","Ronse","Rotnacum","long sai","rnz","Ронсе","رنز","龙塞"],"latitude":"50.74574","longitude":"3.6005","feature_class":"P","feature_code":"PPL","country_code":"BE","cc2":"","admin1_code":"VLG","admin2_code":"VOV","admin3_code":"45","admin4_code":"45041","population":"24204","elevation":"","dem":"42","timezone":"Europe/Brussels","modification_date":"2012-01-18"},{"geonameid":"2787889","name":"Roeselare","asciiname":"Roeselare","alternatenames":["Roeselare","Roeselare vald","Roeselave","Roeseloare","Roulers","Rouselare","Ruselare","Ruselarė","lu se la lei","ruserare","ryzlr","Руселаре","رئزلر","ルーセラーレ","鲁瑟拉勒"],"latitude":"50.94653","longitude":"3.12269","feature_class":"P","feature_code":"PPL","country_code":"BE","cc2":"","admin1_code":"VLG","admin2_code":"VWV","admin3_code":"36","admin4_code":"36015","population":"56016","elevation":"","dem":"22","timezone":"Europe/Brussels","modification_date":"2008-07-26"},{"geonameid":"2788051","name":"Rijkevorsel","asciiname":"Rijkevorsel","alternatenames":["Rijkevorsel","Ryckevorsel"],"latitude":"51.34795","longitude":"4.76053","feature_class":"P","feature_code":"PPL","country_code":"BE","cc2":"","admin1_code":"VLG","admin2_code":"VAN","admin3_code":"13","admin4_code":"13037","population":"10606","elevation":"","dem":"24","timezone":"Europe/Brussels","modification_date":"2012-01-18"},{"geonameid":"2788088","name":"Riemst","asciiname":"Riemst","alternatenames":["Riempst","Riemst"],"latitude":"50.80995","longitude":"5.60131","feature_class":"P","feature_code":"PPL","country_code":"BE","cc2":"","admin1_code":"VLG","admin2_code":"VLI","admin3_code":"73","admin4_code":"73066","population":"15809","elevation":"","dem":"105","timezone":"Europe/Brussels","modification_date":"2011-03-02"},{"geonameid":"2788138","name":"Retie","asciiname":"Retie","alternatenames":["Rethy","Retie"],"latitude":"51.26652","longitude":"5.08242","feature_class":"P","feature_code":"PPL","country_code":"BE","cc2":"","admin1_code":"VLG","admin2_code":"VAN","admin3_code":"13","admin4_code":"13036","population":"10069","elevation":"","dem":"24","timezone":"Europe/Brussels","modification_date":"2012-01-18"},{"geonameid":"2788312","name":"Ravels","asciiname":"Ravels","alternatenames":["Raevels","Ravels"],"latitude":"51.37274","longitude":"4.9921","feature_class":"P","feature_code":"PPL","country_code":"BE","cc2":"","admin1_code":"VLG","admin2_code":"VAN","admin3_code":"13","admin4_code":"13035","population":"13560","elevation":"","dem":"32","timezone":"Europe/Brussels","modification_date":"2012-01-18"},{"geonameid":"2788348","name":"Ranst","asciiname":"Ranst","alternatenames":["Ranst"],"latitude":"51.18983","longitude":"4.56533","feature_class":"P","feature_code":"PPL","country_code":"BE","cc2":"","admin1_code":"VLG","admin2_code":"VAN","admin3_code":"11","admin4_code":"11035","population":"17405","elevation":"","dem":"12","timezone":"Europe/Brussels","modification_date":"2011-02-10"},{"geonameid":"2788506","name":"Puurs","asciiname":"Puurs","alternatenames":["Puers","Puurs"],"latitude":"51.07409","longitude":"4.28844","feature_class":"P","feature_code":"PPL","country_code":"BE","cc2":"","admin1_code":"VLG","admin2_code":"VAN","admin3_code":"12","admin4_code":"12030","population":"15944","elevation":"","dem":"4","timezone":"Europe/Brussels","modification_date":"2011-02-10"},{"geonameid":"2788521","name":"Putte","asciiname":"Putte","alternatenames":["Putte"],"latitude":"51.05337","longitude":"4.63263","feature_class":"P","feature_code":"PPL","country_code":"BE","cc2":"","admin1_code":"VLG","admin2_code":"VAN","admin3_code":"12","admin4_code":"12029","population":"15276","elevation":"","dem":"22","timezone":"Europe/Brussels","modification_date":"2011-02-10"},{"geonameid":"2788726","name":"Poperinge","asciiname":"Poperinge","alternatenames":["Poperienge","Poperinge","Poperinghe","bo po ling e","pprnzh","Поперинге","پپرنژ","波珀灵厄"],"latitude":"50.85386","longitude":"2.72659","feature_class":"P","feature_code":"PPL","country_code":"BE","cc2":"","admin1_code":"VLG","admin2_code":"VWV","admin3_code":"33","admin4_code":"33021","population":"19537","elevation":"","dem":"19","timezone":"Europe/Brussels","modification_date":"2012-01-18"},{"geonameid":"2788925","name":"Pittem","asciiname":"Pittem","alternatenames":["Pittem","Pitthem"],"latitude":"50.99279","longitude":"3.26317","feature_class":"P","feature_code":"PPL","country_code":"BE","cc2":"","admin1_code":"VLG","admin2_code":"VWV","admin3_code":"37","admin4_code":"37011","population":"6589","elevation":"","dem":"32","timezone":"Europe/Brussels","modification_date":"2012-01-18"},{"geonameid":"2789167","name":"Perre","asciiname":"Perre","alternatenames":[""],"latitude":"50.88914","longitude":"3.86098","feature_class":"P","feature_code":"PPL","country_code":"BE","cc2":"","admin1_code":"VLG","admin2_code":"VOV","admin3_code":"","admin4_code":"","population":"3000","elevation":"","dem":"54","timezone":"Europe/Brussels","modification_date":"2007-03-06"},{"geonameid":"2789192","name":"Pepingen","asciiname":"Pepingen","alternatenames":["Pepingen","Pepinghen"],"latitude":"50.75922","longitude":"4.15983","feature_class":"P","feature_code":"PPL","country_code":"BE","cc2":"","admin1_code":"VLG","admin2_code":"VBR","admin3_code":"23","admin4_code":"23064","population":"4261","elevation":"","dem":"52","timezone":"Europe/Brussels","modification_date":"2012-01-18"},{"geonameid":"2789232","name":"Peer","asciiname":"Peer","alternatenames":["Peer"],"latitude":"51.1303","longitude":"5.45952","feature_class":"P","feature_code":"PPL","country_code":"BE","cc2":"","admin1_code":"VLG","admin2_code":"VLI","admin3_code":"72","admin4_code":"72030","population":"15551","elevation":"","dem":"64","timezone":"Europe/Brussels","modification_date":"2011-03-14"},{"geonameid":"2789403","name":"Overpelt","asciiname":"Overpelt","alternatenames":["Ieverpelt","Overpelt"],"latitude":"51.21038","longitude":"5.41557","feature_class":"P","feature_code":"PPL","country_code":"BE","cc2":"","admin1_code":"VLG","admin2_code":"VLI","admin3_code":"72","admin4_code":"72029","population":"13344","elevation":"","dem":"44","timezone":"Europe/Brussels","modification_date":"2011-03-04"},{"geonameid":"2789413","name":"Overijse","asciiname":"Overijse","alternatenames":["Overijase","Overijsche","Overijse","Overyssche","Оверийсе"],"latitude":"50.77436","longitude":"4.53461","feature_class":"P","feature_code":"PPL","country_code":"BE","cc2":"","admin1_code":"VLG","admin2_code":"VBR","admin3_code":"23","admin4_code":"23062","population":"23486","elevation":"","dem":"88","timezone":"Europe/Brussels","modification_date":"2011-01-25"},{"geonameid":"2789483","name":"Oud-Turnhout","asciiname":"Oud-Turnhout","alternatenames":["Oud-Turnhout","Vieux-Turnhout"],"latitude":"51.31978","longitude":"4.9841","feature_class":"P","feature_code":"PPL","country_code":"BE","cc2":"","admin1_code":"VLG","admin2_code":"VAN","admin3_code":"13","admin4_code":"13031","population":"12354","elevation":"","dem":"25","timezone":"Europe/Brussels","modification_date":"2011-02-08"},{"geonameid":"2789492","name":"Oud-Heverlee","asciiname":"Oud-Heverlee","alternatenames":["Oud-Heverlee","Vieux-Heverle","Vieux-Héverlé"],"latitude":"50.83522","longitude":"4.66421","feature_class":"P","feature_code":"PPL","country_code":"BE","cc2":"","admin1_code":"VLG","admin2_code":"VBR","admin3_code":"24","admin4_code":"24086","population":"10533","elevation":"","dem":"56","timezone":"Europe/Brussels","modification_date":"2011-02-15"},{"geonameid":"2789519","name":"Oudenburg","asciiname":"Oudenburg","alternatenames":["Oednburh","Oudenburg"],"latitude":"51.18489","longitude":"3.00035","feature_class":"P","feature_code":"PPL","country_code":"BE","cc2":"","admin1_code":"VLG","admin2_code":"VWV","admin3_code":"35","admin4_code":"35014","population":"8752","elevation":"","dem":"3","timezone":"Europe/Brussels","modification_date":"2012-01-18"},{"geonameid":"2789529","name":"Oudenaarde","asciiname":"Oudenaarde","alternatenames":["Aldenarda","Audenaarde","Audenarde","Ontenarnt","Oudenaarde","Oudenoarde","ao de na er de","audenarude","awdnrd","Οντενάρντ","Ауденарде","Оуденаарде","اودنرد","アウデナールデ","奥德纳尔德"],"latitude":"50.85168","longitude":"3.60891","feature_class":"P","feature_code":"PPLA3","country_code":"BE","cc2":"","admin1_code":"VLG","admin2_code":"VOV","admin3_code":"45","admin4_code":"45035","population":"27935","elevation":"","dem":"11","timezone":"Europe/Brussels","modification_date":"2013-03-05"},{"geonameid":"2789654","name":"Opwijk","asciiname":"Opwijk","alternatenames":["Opwijk","Opwyck"],"latitude":"50.96724","longitude":"4.18442","feature_class":"P","feature_code":"PPL","country_code":"BE","cc2":"","admin1_code":"VLG","admin2_code":"VBR","admin3_code":"23","admin4_code":"23060","population":"12045","elevation":"","dem":"22","timezone":"Europe/Brussels","modification_date":"2011-02-02"},{"geonameid":"2789714","name":"Opglabbeek","asciiname":"Opglabbeek","alternatenames":["Opglabbeek"],"latitude":"51.04258","longitude":"5.58346","feature_class":"P","feature_code":"PPL","country_code":"BE","cc2":"","admin1_code":"VLG","admin2_code":"VLI","admin3_code":"71","admin4_code":"71047","population":"9452","elevation":"","dem":"72","timezone":"Europe/Brussels","modification_date":"2011-02-28"},{"geonameid":"2789737","name":"Oostrozebeke","asciiname":"Oostrozebeke","alternatenames":["Oostroosebeke","Oostroozebeke","Oostrozebeke"],"latitude":"50.92093","longitude":"3.33799","feature_class":"P","feature_code":"PPL","country_code":"BE","cc2":"","admin1_code":"VLG","admin2_code":"VWV","admin3_code":"37","admin4_code":"37010","population":"7489","elevation":"","dem":"14","timezone":"Europe/Brussels","modification_date":"2012-01-18"},{"geonameid":"2789745","name":"Oostmalle","asciiname":"Oostmalle","alternatenames":["Oostmalle"],"latitude":"51.3","longitude":"4.73333","feature_class":"P","feature_code":"PPL","country_code":"BE","cc2":"","admin1_code":"VLG","admin2_code":"VAN","admin3_code":"11","admin4_code":"11057","population":"7034","elevation":"","dem":"23","timezone":"Europe/Brussels","modification_date":"2015-03-16"},{"geonameid":"2789751","name":"Oostkamp","asciiname":"Oostkamp","alternatenames":["Oostcamp","Oostkamp","Ostkamp","Oôstkamp","Ôostkamp","Осткамп"],"latitude":"51.15432","longitude":"3.23128","feature_class":"P","feature_code":"PPL","country_code":"BE","cc2":"","admin1_code":"VLG","admin2_code":"VWV","admin3_code":"31","admin4_code":"31022","population":"21489","elevation":"","dem":"10","timezone":"Europe/Brussels","modification_date":"2012-01-18"},{"geonameid":"2789771","name":"Oosterzele","asciiname":"Oosterzele","alternatenames":["Oosterzeele","Oosterzele"],"latitude":"50.95261","longitude":"3.79826","feature_class":"P","feature_code":"PPL","country_code":"BE","cc2":"","admin1_code":"VLG","admin2_code":"VOV","admin3_code":"44","admin4_code":"44052","population":"13151","elevation":"","dem":"45","timezone":"Europe/Brussels","modification_date":"2012-01-18"},{"geonameid":"2789786","name":"Ostend","asciiname":"Ostend","alternatenames":["OST","Oostende","Oostenn","Ostend","Ostenda","Ostende","Ostendo","Ostendė","ao si teng de","astent","awstndh","oseutendeo","osutende","Οστένδη","Остенде","אוסטנדה","اوستنده","ஆஸ்டெண்ட்","オーステンデ","奥斯滕德","오스텐더"],"latitude":"51.21551","longitude":"2.927","feature_class":"P","feature_code":"PPLA3","country_code":"BE","cc2":"","admin1_code":"VLG","admin2_code":"VWV","admin3_code":"35","admin4_code":"35013","population":"69011","elevation":"","dem":"6","timezone":"Europe/Brussels","modification_date":"2014-10-30"},{"geonameid":"2789886","name":"Olen","asciiname":"Olen","alternatenames":["Olen","Oolen"],"latitude":"51.14391","longitude":"4.8598","feature_class":"P","feature_code":"PPL","country_code":"BE","cc2":"","admin1_code":"VLG","admin2_code":"VAN","admin3_code":"13","admin4_code":"13029","population":"11070","elevation":"","dem":"25","timezone":"Europe/Brussels","modification_date":"2012-01-18"},{"geonameid":"2790114","name":"Ninove","asciiname":"Ninove","alternatenames":["Ninove","ni nuo fu","nynw","Нинове","نینو","尼诺弗"],"latitude":"50.82776","longitude":"4.02657","feature_class":"P","feature_code":"PPL","country_code":"BE","cc2":"","admin1_code":"VLG","admin2_code":"VOV","admin3_code":"41","admin4_code":"41048","population":"34795","elevation":"","dem":"17","timezone":"Europe/Brussels","modification_date":"2012-01-18"},{"geonameid":"2790135","name":"Nijlen","asciiname":"Nijlen","alternatenames":["Nijlen","Nylen"],"latitude":"51.16096","longitude":"4.67008","feature_class":"P","feature_code":"PPL","country_code":"BE","cc2":"","admin1_code":"VLG","admin2_code":"VAN","admin3_code":"12","admin4_code":"12026","population":"20792","elevation":"","dem":"7","timezone":"Europe/Brussels","modification_date":"2012-01-18"},{"geonameid":"2790150","name":"Nieuwpoort","asciiname":"Nieuwpoort","alternatenames":["Nieuport","Nieuwpoort","Nieuwpoôrt","Nieuwpôort"],"latitude":"51.13008","longitude":"2.75135","feature_class":"P","feature_code":"PPL","country_code":"BE","cc2":"","admin1_code":"VLG","admin2_code":"VWV","admin3_code":"38","admin4_code":"38016","population":"10845","elevation":"","dem":"9","timezone":"Europe/Brussels","modification_date":"2012-01-18"},{"geonameid":"2790179","name":"Nieuwerkerken","asciiname":"Nieuwerkerken","alternatenames":["Nieuwerkerken"],"latitude":"50.8638","longitude":"5.19467","feature_class":"P","feature_code":"PPL","country_code":"BE","cc2":"","admin1_code":"VLG","admin2_code":"VLI","admin3_code":"71","admin4_code":"71045","population":"6466","elevation":"","dem":"44","timezone":"Europe/Brussels","modification_date":"2012-01-18"},{"geonameid":"2790225","name":"Niel","asciiname":"Niel","alternatenames":["Niel"],"latitude":"51.11096","longitude":"4.33428","feature_class":"P","feature_code":"PPL","country_code":"BE","cc2":"","admin1_code":"VLG","admin2_code":"VAN","admin3_code":"11","admin4_code":"11030","population":"8656","elevation":"","dem":"8","timezone":"Europe/Brussels","modification_date":"2011-02-10"},{"geonameid":"2790235","name":"Nevele","asciiname":"Nevele","alternatenames":["Nevele"],"latitude":"51.03531","longitude":"3.54574","feature_class":"P","feature_code":"PPL","country_code":"BE","cc2":"","admin1_code":"VLG","admin2_code":"VOV","admin3_code":"44","admin4_code":"44049","population":"11153","elevation":"","dem":"7","timezone":"Europe/Brussels","modification_date":"2012-01-18"},{"geonameid":"2790357","name":"Neerpelt","asciiname":"Neerpelt","alternatenames":["Neerpelt"],"latitude":"51.22807","longitude":"5.4427","feature_class":"P","feature_code":"PPL","country_code":"BE","cc2":"","admin1_code":"VLG","admin2_code":"VLI","admin3_code":"72","admin4_code":"72025","population":"16122","elevation":"","dem":"39","timezone":"Europe/Brussels","modification_date":"2011-03-04"},{"geonameid":"2790433","name":"Nazareth","asciiname":"Nazareth","alternatenames":["Nazareth"],"latitude":"50.95686","longitude":"3.59425","feature_class":"P","feature_code":"PPL","country_code":"BE","cc2":"","admin1_code":"VLG","admin2_code":"VOV","admin3_code":"44","admin4_code":"44048","population":"10890","elevation":"","dem":"12","timezone":"Europe/Brussels","modification_date":"2012-01-18"},{"geonameid":"2790676","name":"Mortsel","asciiname":"Mortsel","alternatenames":["Mortsel","Мортсел"],"latitude":"51.16697","longitude":"4.45127","feature_class":"P","feature_code":"PPL","country_code":"BE","cc2":"","admin1_code":"VLG","admin2_code":"VAN","admin3_code":"11","admin4_code":"11029","population":"24525","elevation":"","dem":"19","timezone":"Europe/Brussels","modification_date":"2011-02-10"},{"geonameid":"2790729","name":"Moorslede","asciiname":"Moorslede","alternatenames":["Moorslede"],"latitude":"50.8919","longitude":"3.06117","feature_class":"P","feature_code":"PPL","country_code":"BE","cc2":"","admin1_code":"VLG","admin2_code":"VWV","admin3_code":"36","admin4_code":"36012","population":"10720","elevation":"","dem":"43","timezone":"Europe/Brussels","modification_date":"2012-01-18"},{"geonameid":"2791067","name":"Mol","asciiname":"Mol","alternatenames":["Mol","Moli vald","Moll","mo er","mwl","Мол","مول","莫尔"],"latitude":"51.19188","longitude":"5.11662","feature_class":"P","feature_code":"PPL","country_code":"BE","cc2":"","admin1_code":"VLG","admin2_code":"VAN","admin3_code":"13","admin4_code":"13025","population":"32659","elevation":"","dem":"27","timezone":"Europe/Brussels","modification_date":"2011-02-10"},{"geonameid":"2791120","name":"Moerbeke","asciiname":"Moerbeke","alternatenames":["Moerbeke"],"latitude":"51.17409","longitude":"3.93001","feature_class":"P","feature_code":"PPL","country_code":"BE","cc2":"","admin1_code":"VLG","admin2_code":"VOV","admin3_code":"44","admin4_code":"44045","population":"5855","elevation":"","dem":"1","timezone":"Europe/Brussels","modification_date":"2012-01-18"},{"geonameid":"2791194","name":"Middelkerke","asciiname":"Middelkerke","alternatenames":["Middelkerke","Middelkerke Bains","Middelkerke-Baden","Midelkerke","mi de er ke er ke","mydlkrk","Миделкерке","میدلکرک","米德尔克尔克"],"latitude":"51.18532","longitude":"2.82077","feature_class":"P","feature_code":"PPL","country_code":"BE","cc2":"","admin1_code":"VLG","admin2_code":"VWV","admin3_code":"35","admin4_code":"35011","population":"17789","elevation":"","dem":"4","timezone":"Europe/Brussels","modification_date":"2012-01-18"},{"geonameid":"2791255","name":"Meulebeke","asciiname":"Meulebeke","alternatenames":["Meulebeke"],"latitude":"50.95136","longitude":"3.28804","feature_class":"P","feature_code":"PPL","country_code":"BE","cc2":"","admin1_code":"VLG","admin2_code":"VWV","admin3_code":"37","admin4_code":"37007","population":"10948","elevation":"","dem":"19","timezone":"Europe/Brussels","modification_date":"2012-01-18"},{"geonameid":"2791297","name":"Merksplas","asciiname":"Merksplas","alternatenames":["Merksplas","Merxplas"],"latitude":"51.35851","longitude":"4.86513","feature_class":"P","feature_code":"PPL","country_code":"BE","cc2":"","admin1_code":"VLG","admin2_code":"VAN","admin3_code":"13","admin4_code":"13023","population":"7963","elevation":"","dem":"26","timezone":"Europe/Brussels","modification_date":"2012-01-18"},{"geonameid":"2791315","name":"Merelbeke","asciiname":"Merelbeke","alternatenames":["Meirelbeke","Merelbeke","Мерелбеке"],"latitude":"50.99447","longitude":"3.74621","feature_class":"P","feature_code":"PPL","country_code":"BE","cc2":"","admin1_code":"VLG","admin2_code":"VOV","admin3_code":"44","admin4_code":"44043","population":"22047","elevation":"","dem":"12","timezone":"Europe/Brussels","modification_date":"2012-01-18"},{"geonameid":"2791323","name":"Merchtem","asciiname":"Merchtem","alternatenames":["Merchtem"],"latitude":"50.95129","longitude":"4.23197","feature_class":"P","feature_code":"PPL","country_code":"BE","cc2":"","admin1_code":"VLG","admin2_code":"VBR","admin3_code":"23","admin4_code":"23052","population":"14660","elevation":"","dem":"25","timezone":"Europe/Brussels","modification_date":"2011-02-02"},{"geonameid":"2791343","name":"Menen","asciiname":"Menen","alternatenames":["Meenen","Meenn","Menen","Menin","Mjeenn","Mêenn","mei nen","mnn","Менен","منن","梅嫩"],"latitude":"50.79722","longitude":"3.12245","feature_class":"P","feature_code":"PPL","country_code":"BE","cc2":"","admin1_code":"VLG","admin2_code":"VWV","admin3_code":"34","admin4_code":"34027","population":"31916","elevation":"","dem":"18","timezone":"Europe/Brussels","modification_date":"2012-01-18"},{"geonameid":"2791385","name":"Melle","asciiname":"Melle","alternatenames":["Melle"],"latitude":"51.00232","longitude":"3.80526","feature_class":"P","feature_code":"PPL","country_code":"BE","cc2":"","admin1_code":"VLG","admin2_code":"VOV","admin3_code":"44","admin4_code":"44040","population":"10687","elevation":"","dem":"8","timezone":"Europe/Brussels","modification_date":"2012-01-18"},{"geonameid":"2791424","name":"Meise","asciiname":"Meise","alternatenames":["Meise","Meysse"],"latitude":"50.93934","longitude":"4.32655","feature_class":"P","feature_code":"PPL","country_code":"BE","cc2":"","admin1_code":"VLG","admin2_code":"VBR","admin3_code":"23","admin4_code":"23050","population":"18497","elevation":"","dem":"58","timezone":"Europe/Brussels","modification_date":"2011-02-03"},{"geonameid":"2791494","name":"Meerhout","asciiname":"Meerhout","alternatenames":["Meerhout"],"latitude":"51.1321","longitude":"5.07842","feature_class":"P","feature_code":"PPL","country_code":"BE","cc2":"","admin1_code":"VLG","admin2_code":"VAN","admin3_code":"13","admin4_code":"13021","population":"9346","elevation":"","dem":"30","timezone":"Europe/Brussels","modification_date":"2012-01-18"},{"geonameid":"2791537","name":"Mechelen","asciiname":"Mechelen","alternatenames":["Gorad Mekhelen","Malinas","Malines","Mechele","Mechelen","Mechelenas","Mecheln","Mechlinia","Mehleno","Mekhelen","Meĥleno","ZGP","me khexlein","mehellen","meheren","mei he lun","mkln","mshlan","Горад Мехелен","Мехелен","מכלן","مشلان","เมเคอเลิน","メヘレン","梅赫伦","메헬렌"],"latitude":"51.02574","longitude":"4.47762","feature_class":"P","feature_code":"PPL","country_code":"BE","cc2":"","admin1_code":"VLG","admin2_code":"VAN","admin3_code":"12","admin4_code":"12025","population":"77530","elevation":"","dem":"8","timezone":"Europe/Brussels","modification_date":"2011-02-10"},{"geonameid":"2791857","name":"Maldegem","asciiname":"Maldegem","alternatenames":["Mal'degem","Maldegem","Мальдегем"],"latitude":"51.20737","longitude":"3.44511","feature_class":"P","feature_code":"PPL","country_code":"BE","cc2":"","admin1_code":"VLG","admin2_code":"VOV","admin3_code":"43","admin4_code":"43010","population":"22092","elevation":"","dem":"9","timezone":"Europe/Brussels","modification_date":"2012-01-18"},{"geonameid":"2791951","name":"Machelen","asciiname":"Machelen","alternatenames":["Machelen"],"latitude":"50.91061","longitude":"4.44174","feature_class":"P","feature_code":"PPL","country_code":"BE","cc2":"","admin1_code":"VLG","admin2_code":"VBR","admin3_code":"23","admin4_code":"23047","population":"12252","elevation":"","dem":"30","timezone":"Europe/Brussels","modification_date":"2011-02-03"},{"geonameid":"2791961","name":"Maasmechelen","asciiname":"Maasmechelen","alternatenames":["Maasmechelen","Maasmekhelen","Maasmekhelene","Masmekhelen","Massmechelen","Mechele","ma si mei he lun","mas mekkhe len","masumeheren","myamshlan","Маасмехелен","Маасмехелене","Масмехелен","مئامشلان","มาสเมกเคเลน","マースメヘレン","马斯梅赫伦"],"latitude":"50.96545","longitude":"5.69452","feature_class":"P","feature_code":"PPL","country_code":"BE","cc2":"","admin1_code":"VLG","admin2_code":"VLI","admin3_code":"73","admin4_code":"73107","population":"36251","elevation":"","dem":"39","timezone":"Europe/Brussels","modification_date":"2011-02-28"},{"geonameid":"2791964","name":"Maaseik","asciiname":"Maaseik","alternatenames":["Maaseik","Maasejk","Maeseyck","Mezeik","ma sai ke","mas sik","mzk","Маасейк","مزک","มาสสิก","马塞克"],"latitude":"51.09802","longitude":"5.78379","feature_class":"P","feature_code":"PPL","country_code":"BE","cc2":"","admin1_code":"VLG","admin2_code":"VLI","admin3_code":"72","admin4_code":"72021","population":"23684","elevation":"","dem":"30","timezone":"Europe/Brussels","modification_date":"2011-02-28"},{"geonameid":"2792007","name":"Lummen","asciiname":"Lummen","alternatenames":["Lummen"],"latitude":"50.98772","longitude":"5.19121","feature_class":"P","feature_code":"PPL","country_code":"BE","cc2":"","admin1_code":"VLG","admin2_code":"VLI","admin3_code":"71","admin4_code":"71037","population":"13689","elevation":"","dem":"41","timezone":"Europe/Brussels","modification_date":"2011-02-23"},{"geonameid":"2792034","name":"Lubbeek","asciiname":"Lubbeek","alternatenames":["Lubbeek"],"latitude":"50.88278","longitude":"4.83896","feature_class":"P","feature_code":"PPL","country_code":"BE","cc2":"","admin1_code":"VLG","admin2_code":"VBR","admin3_code":"24","admin4_code":"24066","population":"13574","elevation":"","dem":"59","timezone":"Europe/Brussels","modification_date":"2011-02-18"},{"geonameid":"2792057","name":"Lovendegem","asciiname":"Lovendegem","alternatenames":["Lovendegem"],"latitude":"51.10168","longitude":"3.61298","feature_class":"P","feature_code":"PPL","country_code":"BE","cc2":"","admin1_code":"VLG","admin2_code":"VOV","admin3_code":"44","admin4_code":"44036","population":"9272","elevation":"","dem":"6","timezone":"Europe/Brussels","modification_date":"2012-01-18"},{"geonameid":"2792165","name":"Londerzeel","asciiname":"Londerzeel","alternatenames":["Londerzeel"],"latitude":"51.00468","longitude":"4.30304","feature_class":"P","feature_code":"PPL","country_code":"BE","cc2":"","admin1_code":"VLG","admin2_code":"VBR","admin3_code":"23","admin4_code":"23045","population":"17274","elevation":"","dem":"12","timezone":"Europe/Brussels","modification_date":"2011-02-03"},{"geonameid":"2792179","name":"Lommel","asciiname":"Lommel","alternatenames":["Lomel","Lomelis","Lommel","lml","lom mel","luo mo er","Ломел","Ломмел","لمل","โลมเมล","洛默尔"],"latitude":"51.23074","longitude":"5.31349","feature_class":"P","feature_code":"PPL","country_code":"BE","cc2":"","admin1_code":"VLG","admin2_code":"VLI","admin3_code":"72","admin4_code":"72020","population":"31993","elevation":"","dem":"48","timezone":"Europe/Brussels","modification_date":"2012-01-18"},{"geonameid":"2792196","name":"Lokeren","asciiname":"Lokeren","alternatenames":["Lokeren","Lokerenas","luo ke lun","lwkrn","Локерен","لوکرن","洛克伦"],"latitude":"51.10364","longitude":"3.99339","feature_class":"P","feature_code":"PPL","country_code":"BE","cc2":"","admin1_code":"VLG","admin2_code":"VOV","admin3_code":"46","admin4_code":"46014","population":"37567","elevation":"","dem":"6","timezone":"Europe/Brussels","modification_date":"2012-01-18"},{"geonameid":"2792235","name":"Lochristi","asciiname":"Lochristi","alternatenames":["Lochristi","Loochristi","Loochristy"],"latitude":"51.09644","longitude":"3.83194","feature_class":"P","feature_code":"PPL","country_code":"BE","cc2":"","admin1_code":"VLG","admin2_code":"VOV","admin3_code":"44","admin4_code":"44034","population":"19696","elevation":"","dem":"8","timezone":"Europe/Brussels","modification_date":"2012-01-18"},{"geonameid":"2792292","name":"Lint","asciiname":"Lint","alternatenames":["Lint","Linth"],"latitude":"51.12707","longitude":"4.49669","feature_class":"P","feature_code":"PPL","country_code":"BE","cc2":"","admin1_code":"VLG","admin2_code":"VAN","admin3_code":"11","admin4_code":"11025","population":"7982","elevation":"","dem":"11","timezone":"Europe/Brussels","modification_date":"2012-01-18"},{"geonameid":"2792301","name":"Linkebeek","asciiname":"Linkebeek","alternatenames":["Linkebeek"],"latitude":"50.76781","longitude":"4.33688","feature_class":"P","feature_code":"PPL","country_code":"BE","cc2":"","admin1_code":"VLG","admin2_code":"VBR","admin3_code":"23","admin4_code":"23100","population":"4823","elevation":"","dem":"85","timezone":"Europe/Brussels","modification_date":"2012-01-18"},{"geonameid":"2792360","name":"Lille","asciiname":"Lille","alternatenames":["Lille"],"latitude":"51.24197","longitude":"4.82313","feature_class":"P","feature_code":"PPL","country_code":"BE","cc2":"","admin1_code":"VLG","admin2_code":"VAN","admin3_code":"13","admin4_code":"13019","population":"15466","elevation":"","dem":"17","timezone":"Europe/Brussels","modification_date":"2012-01-18"},{"geonameid":"2792397","name":"Lier","asciiname":"Lier","alternatenames":["L'er","Lier","Lierre","Lijr","Lir","Lyras","li er","lyr","riru","Лийр","Лир","Льер","Лір","لیر","リール","利尔"],"latitude":"51.13128","longitude":"4.57041","feature_class":"P","feature_code":"PPL","country_code":"BE","cc2":"","admin1_code":"VLG","admin2_code":"VAN","admin3_code":"12","admin4_code":"12021","population":"33272","elevation":"","dem":"9","timezone":"Europe/Brussels","modification_date":"2011-02-10"},{"geonameid":"2792423","name":"Liedekerke","asciiname":"Liedekerke","alternatenames":["Liedekerke"],"latitude":"50.86892","longitude":"4.08743","feature_class":"P","feature_code":"PPL","country_code":"BE","cc2":"","admin1_code":"VLG","admin2_code":"VBR","admin3_code":"23","admin4_code":"23044","population":"11980","elevation":"","dem":"24","timezone":"Europe/Brussels","modification_date":"2011-02-02"},{"geonameid":"2792428","name":"Lichtervelde","asciiname":"Lichtervelde","alternatenames":["Lichterveld","Lichtervelde"],"latitude":"51.03333","longitude":"3.15","feature_class":"P","feature_code":"PPL","country_code":"BE","cc2":"","admin1_code":"VLG","admin2_code":"VWV","admin3_code":"36","admin4_code":"36011","population":"8169","elevation":"","dem":"24","timezone":"Europe/Brussels","modification_date":"2012-01-18"},{"geonameid":"2792482","name":"Leuven","asciiname":"Leuven","alternatenames":["L'oven","Leouben","Leuve","Leuven","Ljoven","Loewen","Louvain","Lovaina","Lovan","Lovanio","Lovanium","Lovaň","Loveno","Luven","Löwen","ZGK","lu wen","revu~en","ruvu~en","Λέουβεν","Лувен","Льовен","Лёвен","ルーヴェン","レーヴェン","鲁汶"],"latitude":"50.87959","longitude":"4.70093","feature_class":"P","feature_code":"PPL","country_code":"BE","cc2":"","admin1_code":"VLG","admin2_code":"VBR","admin3_code":"24","admin4_code":"24062","population":"92892","elevation":"","dem":"28","timezone":"Europe/Brussels","modification_date":"2008-07-11"},{"geonameid":"2792856","name":"Leopoldsburg","asciiname":"Leopoldsburg","alternatenames":["Bourg-Leopold","Bourg-Léopold","Leopoldsburg"],"latitude":"51.11667","longitude":"5.25","feature_class":"P","feature_code":"PPL","country_code":"BE","cc2":"","admin1_code":"VLG","admin2_code":"VLI","admin3_code":"71","admin4_code":"71034","population":"14149","elevation":"","dem":"48","timezone":"Europe/Brussels","modification_date":"2012-01-18"},{"geonameid":"2792879","name":"Lendelede","asciiname":"Lendelede","alternatenames":["Lendelede","Lendlee"],"latitude":"50.88626","longitude":"3.23747","feature_class":"P","feature_code":"PPL","country_code":"BE","cc2":"","admin1_code":"VLG","admin2_code":"VWV","admin3_code":"34","admin4_code":"34025","population":"5393","elevation":"","dem":"38","timezone":"Europe/Brussels","modification_date":"2012-01-18"},{"geonameid":"2793067","name":"Ledegem","asciiname":"Ledegem","alternatenames":["Ledegem","Ledeghem"],"latitude":"50.85785","longitude":"3.12409","feature_class":"P","feature_code":"PPL","country_code":"BE","cc2":"","admin1_code":"VLG","admin2_code":"VWV","admin3_code":"36","admin4_code":"36010","population":"9102","elevation":"","dem":"20","timezone":"Europe/Brussels","modification_date":"2012-01-18"},{"geonameid":"2793070","name":"Ledeberg","asciiname":"Ledeberg","alternatenames":["Ledeberg"],"latitude":"51.03859","longitude":"3.74458","feature_class":"P","feature_code":"PPL","country_code":"BE","cc2":"","admin1_code":"VLG","admin2_code":"VOV","admin3_code":"44","admin4_code":"","population":"8454","elevation":"","dem":"10","timezone":"Europe/Brussels","modification_date":"2012-12-03"},{"geonameid":"2793077","name":"Lede","asciiname":"Lede","alternatenames":["Lede"],"latitude":"50.96626","longitude":"3.98594","feature_class":"P","feature_code":"PPL","country_code":"BE","cc2":"","admin1_code":"VLG","admin2_code":"VOV","admin3_code":"41","admin4_code":"41034","population":"16813","elevation":"","dem":"25","timezone":"Europe/Brussels","modification_date":"2012-01-18"},{"geonameid":"2793144","name":"Lebbeke","asciiname":"Lebbeke","alternatenames":["Lebbeke"],"latitude":"51.00464","longitude":"4.13457","feature_class":"P","feature_code":"PPL","country_code":"BE","cc2":"","admin1_code":"VLG","admin2_code":"VOV","admin3_code":"42","admin4_code":"42011","population":"17372","elevation":"","dem":"6","timezone":"Europe/Brussels","modification_date":"2012-01-18"},{"geonameid":"2793429","name":"Landen","asciiname":"Landen","alternatenames":["Landen"],"latitude":"50.75267","longitude":"5.082","feature_class":"P","feature_code":"PPL","country_code":"BE","cc2":"","admin1_code":"VLG","admin2_code":"VBR","admin3_code":"24","admin4_code":"24059","population":"14458","elevation":"","dem":"72","timezone":"Europe/Brussels","modification_date":"2012-01-18"},{"geonameid":"2793446","name":"Lanaken","asciiname":"Lanaken","alternatenames":["Lanaeken","Lanaken"],"latitude":"50.89318","longitude":"5.6468","feature_class":"P","feature_code":"PPL","country_code":"BE","cc2":"","admin1_code":"VLG","admin2_code":"VLI","admin3_code":"73","admin4_code":"73042","population":"24771","elevation":"","dem":"63","timezone":"Europe/Brussels","modification_date":"2011-02-23"},{"geonameid":"2793797","name":"Laarne","asciiname":"Laarne","alternatenames":["Laarne","Laerne"],"latitude":"51.03078","longitude":"3.85077","feature_class":"P","feature_code":"PPL","country_code":"BE","cc2":"","admin1_code":"VLG","admin2_code":"VOV","admin3_code":"42","admin4_code":"42010","population":"11600","elevation":"","dem":"8","timezone":"Europe/Brussels","modification_date":"2012-01-18"},{"geonameid":"2793857","name":"Kuurne","asciiname":"Kuurne","alternatenames":["Cuerne","Kuurne"],"latitude":"50.85143","longitude":"3.2824","feature_class":"P","feature_code":"PPL","country_code":"BE","cc2":"","admin1_code":"VLG","admin2_code":"VWV","admin3_code":"34","admin4_code":"34023","population":"12638","elevation":"","dem":"16","timezone":"Europe/Brussels","modification_date":"2012-01-18"},{"geonameid":"2793907","name":"Kruishoutem","asciiname":"Kruishoutem","alternatenames":["Cruyshautem","Kruishoutem"],"latitude":"50.90168","longitude":"3.52588","feature_class":"P","feature_code":"PPL","country_code":"BE","cc2":"","admin1_code":"VLG","admin2_code":"VOV","admin3_code":"45","admin4_code":"45017","population":"8179","elevation":"","dem":"45","timezone":"Europe/Brussels","modification_date":"2012-01-18"},{"geonameid":"2793940","name":"Kruibeke","asciiname":"Kruibeke","alternatenames":["Cruybeke","Kruibeke"],"latitude":"51.17048","longitude":"4.31444","feature_class":"P","feature_code":"PPL","country_code":"BE","cc2":"","admin1_code":"VLG","admin2_code":"VOV","admin3_code":"46","admin4_code":"46013","population":"14815","elevation":"","dem":"6","timezone":"Europe/Brussels","modification_date":"2012-01-18"},{"geonameid":"2794016","name":"Kraainem","asciiname":"Kraainem","alternatenames":["Crainhem","Kraainem"],"latitude":"50.86155","longitude":"4.46946","feature_class":"P","feature_code":"PPL","country_code":"BE","cc2":"","admin1_code":"VLG","admin2_code":"VBR","admin3_code":"23","admin4_code":"23099","population":"12815","elevation":"","dem":"51","timezone":"Europe/Brussels","modification_date":"2011-01-25"},{"geonameid":"2794055","name":"Kortrijk","asciiname":"Kortrijk","alternatenames":["Contrai","Cortoriacum","Cortrique","Courtrai","Gorad Kortrehjk","KJK","Kortrajk","Kortreika","Kortreikas","Kortrejk","Kortrejko","Kortrijk","Kortrik","Kortryk","ke te lai ke","khxrth rikh","koleuteuleikeu","kortrejk","korutoreiku","kwrtryk","qwrtryyq","Горад Кортрэйк","Кортрајк","Кортрейк","קורטרייק","کورتریک","คอร์ทไรค์","コルトレイク","科特赖克","코르트레이크"],"latitude":"50.82803","longitude":"3.26487","feature_class":"P","feature_code":"PPL","country_code":"BE","cc2":"","admin1_code":"VLG","admin2_code":"VWV","admin3_code":"34","admin4_code":"34022","population":"73879","elevation":"","dem":"22","timezone":"Europe/Brussels","modification_date":"2008-06-15"},{"geonameid":"2794063","name":"Kortessem","asciiname":"Kortessem","alternatenames":["Cortessem","Cortessum","Kortessem","Kortessum"],"latitude":"50.8589","longitude":"5.38974","feature_class":"P","feature_code":"PPL","country_code":"BE","cc2":"","admin1_code":"VLG","admin2_code":"VLI","admin3_code":"73","admin4_code":"73040","population":"8042","elevation":"","dem":"55","timezone":"Europe/Brussels","modification_date":"2011-02-28"},{"geonameid":"2794070","name":"Kortenberg","asciiname":"Kortenberg","alternatenames":["Cortenberg","Kortenberg"],"latitude":"50.88982","longitude":"4.54353","feature_class":"P","feature_code":"PPL","country_code":"BE","cc2":"","admin1_code":"VLG","admin2_code":"VBR","admin3_code":"24","admin4_code":"24055","population":"17774","elevation":"","dem":"47","timezone":"Europe/Brussels","modification_date":"2011-02-03"},{"geonameid":"2794072","name":"Kortenaken","asciiname":"Kortenaken","alternatenames":["Cortenaeken","Kortenaken"],"latitude":"50.90862","longitude":"5.05968","feature_class":"P","feature_code":"PPL","country_code":"BE","cc2":"","admin1_code":"VLG","admin2_code":"VBR","admin3_code":"24","admin4_code":"24054","population":"7374","elevation":"","dem":"35","timezone":"Europe/Brussels","modification_date":"2012-01-18"},{"geonameid":"2794074","name":"Kortemark","asciiname":"Kortemark","alternatenames":["Cortemarck","Kortemark"],"latitude":"51.02951","longitude":"3.04112","feature_class":"P","feature_code":"PPL","country_code":"BE","cc2":"","admin1_code":"VLG","admin2_code":"VWV","admin3_code":"32","admin4_code":"32011","population":"11937","elevation":"","dem":"11","timezone":"Europe/Brussels","modification_date":"2012-01-18"},{"geonameid":"2794117","name":"Kontich","asciiname":"Kontich","alternatenames":["Contich","Kontich","Контич"],"latitude":"51.13213","longitude":"4.44706","feature_class":"P","feature_code":"PPL","country_code":"BE","cc2":"","admin1_code":"VLG","admin2_code":"VAN","admin3_code":"11","admin4_code":"11024","population":"20290","elevation":"","dem":"20","timezone":"Europe/Brussels","modification_date":"2011-02-10"},{"geonameid":"2794166","name":"Koksijde","asciiname":"Koksijde","alternatenames":["Coxyde","Koksejde","Koksijde","Koksyde","ke ke sai de","kwksyzhd","Коксейде","Коксийде","کوکسیژد","科克赛德"],"latitude":"51.11642","longitude":"2.63772","feature_class":"P","feature_code":"PPL","country_code":"BE","cc2":"","admin1_code":"VLG","admin2_code":"VWV","admin3_code":"38","admin4_code":"38014","population":"21027","elevation":"","dem":"8","timezone":"Europe/Brussels","modification_date":"2012-01-18"},{"geonameid":"2794194","name":"Koekelare","asciiname":"Koekelare","alternatenames":["Couckelaere","Koekelare"],"latitude":"51.09047","longitude":"2.9783","feature_class":"P","feature_code":"PPL","country_code":"BE","cc2":"","admin1_code":"VLG","admin2_code":"VWV","admin3_code":"32","admin4_code":"32010","population":"8317","elevation":"","dem":"15","timezone":"Europe/Brussels","modification_date":"2012-01-18"},{"geonameid":"2794210","name":"Knokke-Heist","asciiname":"Knokke-Heist","alternatenames":["Knoke-Khajst","Knokke-Heist","Knokke-Khejst","Knokkne","Noke-Khajst","ke nuo ke-hai si te","knwkyst","kunokku=heisuto","Кноке-Хайст","Кнокке-Хейст","Ноке-Хајст","کنوکئست","クノック＝ヘイスト","克诺克－海斯特"],"latitude":"51.35","longitude":"3.26667","feature_class":"P","feature_code":"PPL","country_code":"BE","cc2":"","admin1_code":"VLG","admin2_code":"VWV","admin3_code":"31","admin4_code":"31043","population":"33781","elevation":"","dem":"5","timezone":"Europe/Brussels","modification_date":"2012-01-18"},{"geonameid":"2794223","name":"Knesselare","asciiname":"Knesselare","alternatenames":["Knesselaere","Knesselare"],"latitude":"51.13932","longitude":"3.41282","feature_class":"P","feature_code":"PPL","country_code":"BE","cc2":"","admin1_code":"VLG","admin2_code":"VOV","admin3_code":"44","admin4_code":"44029","population":"7889","elevation":"","dem":"16","timezone":"Europe/Brussels","modification_date":"2012-01-18"},{"geonameid":"2794445","name":"Kinrooi","asciiname":"Kinrooi","alternatenames":["Kinjer","Kinroy"],"latitude":"51.14543","longitude":"5.74207","feature_class":"P","feature_code":"PPL","country_code":"BE","cc2":"","admin1_code":"VLG","admin2_code":"VLI","admin3_code":"72","admin4_code":"72018","population":"11946","elevation":"","dem":"33","timezone":"Europe/Brussels","modification_date":"2009-02-11"},{"geonameid":"2794619","name":"Keerbergen","asciiname":"Keerbergen","alternatenames":["Keerbergen"],"latitude":"51.00295","longitude":"4.63434","feature_class":"P","feature_code":"PPL","country_code":"BE","cc2":"","admin1_code":"VLG","admin2_code":"VBR","admin3_code":"24","admin4_code":"24048","population":"12363","elevation":"","dem":"10","timezone":"Europe/Brussels","modification_date":"2011-02-17"},{"geonameid":"2794663","name":"Kasterlee","asciiname":"Kasterlee","alternatenames":["Casterle","Kasterlee"],"latitude":"51.24118","longitude":"4.96651","feature_class":"P","feature_code":"PPL","country_code":"BE","cc2":"","admin1_code":"VLG","admin2_code":"VAN","admin3_code":"13","admin4_code":"13017","population":"17765","elevation":"","dem":"22","timezone":"Europe/Brussels","modification_date":"2011-02-10"},{"geonameid":"2794707","name":"Kaprijke","asciiname":"Kaprijke","alternatenames":["Caprycke","Kaprijke"],"latitude":"51.2172","longitude":"3.61519","feature_class":"P","feature_code":"PPL","country_code":"BE","cc2":"","admin1_code":"VLG","admin2_code":"VOV","admin3_code":"43","admin4_code":"43007","population":"6114","elevation":"","dem":"4","timezone":"Europe/Brussels","modification_date":"2012-01-18"},{"geonameid":"2794724","name":"Kapelle-op-den-Bos","asciiname":"Kapelle-op-den-Bos","alternatenames":["Chapelle-au-Bois","Kapelle-op-den-Bos"],"latitude":"51.0097","longitude":"4.36303","feature_class":"P","feature_code":"PPL","country_code":"BE","cc2":"","admin1_code":"VLG","admin2_code":"VBR","admin3_code":"23","admin4_code":"23039","population":"8859","elevation":"","dem":"12","timezone":"Europe/Brussels","modification_date":"2011-02-04"},{"geonameid":"2794730","name":"Kapellen","asciiname":"Kapellen","alternatenames":["Cappellen","Kapellen","Kapellene","Капеллене"],"latitude":"51.31377","longitude":"4.43539","feature_class":"P","feature_code":"PPL","country_code":"BE","cc2":"","admin1_code":"VLG","admin2_code":"VAN","admin3_code":"11","admin4_code":"11023","population":"26410","elevation":"","dem":"8","timezone":"Europe/Brussels","modification_date":"2011-02-11"},{"geonameid":"2794763","name":"Kampenhout","asciiname":"Kampenhout","alternatenames":["Campenhout","Kampenhout"],"latitude":"50.9421","longitude":"4.55103","feature_class":"P","feature_code":"PPL","country_code":"BE","cc2":"","admin1_code":"VLG","admin2_code":"VBR","admin3_code":"23","admin4_code":"23038","population":"10784","elevation":"","dem":"14","timezone":"Europe/Brussels","modification_date":"2012-01-18"},{"geonameid":"2794788","name":"Kalmthout","asciiname":"Kalmthout","alternatenames":["Calmpthout","Kalmthout"],"latitude":"51.38442","longitude":"4.47556","feature_class":"P","feature_code":"PPL","country_code":"BE","cc2":"","admin1_code":"VLG","admin2_code":"VAN","admin3_code":"11","admin4_code":"11022","population":"17485","elevation":"","dem":"21","timezone":"Europe/Brussels","modification_date":"2011-02-11"},{"geonameid":"2794999","name":"Jabbeke","asciiname":"Jabbeke","alternatenames":["Jabbeke"],"latitude":"51.18185","longitude":"3.08935","feature_class":"P","feature_code":"PPL","country_code":"BE","cc2":"","admin1_code":"VLG","admin2_code":"VWV","admin3_code":"31","admin4_code":"31012","population":"13488","elevation":"","dem":"7","timezone":"Europe/Brussels","modification_date":"2012-01-18"},{"geonameid":"2795009","name":"Izegem","asciiname":"Izegem","alternatenames":["Iseghem","Izegem","Izzegem","Izzehem","Изегем"],"latitude":"50.91396","longitude":"3.21378","feature_class":"P","feature_code":"PPL","country_code":"BE","cc2":"","admin1_code":"VLG","admin2_code":"VWV","admin3_code":"36","admin4_code":"36008","population":"26382","elevation":"","dem":"18","timezone":"Europe/Brussels","modification_date":"2012-01-18"},{"geonameid":"2795056","name":"Ingelmunster","asciiname":"Ingelmunster","alternatenames":["Ingelmunster"],"latitude":"50.92081","longitude":"3.25571","feature_class":"P","feature_code":"PPL","country_code":"BE","cc2":"","admin1_code":"VLG","admin2_code":"VWV","admin3_code":"36","admin4_code":"36007","population":"10603","elevation":"","dem":"15","timezone":"Europe/Brussels","modification_date":"2012-01-18"},{"geonameid":"2795100","name":"Ieper","asciiname":"Ieper","alternatenames":["Ieper","Iper","Ipr","Ipro","Yper","Ypern","Ypres","Ипр"],"latitude":"50.85114","longitude":"2.88569","feature_class":"P","feature_code":"PPLA3","country_code":"BE","cc2":"","admin1_code":"VLG","admin2_code":"VWV","admin3_code":"33","admin4_code":"33011","population":"35089","elevation":"","dem":"24","timezone":"Europe/Brussels","modification_date":"2013-04-11"},{"geonameid":"2795106","name":"Ichtegem","asciiname":"Ichtegem","alternatenames":["Ichtegem","Ichteghem"],"latitude":"51.09572","longitude":"3.01549","feature_class":"P","feature_code":"PPL","country_code":"BE","cc2":"","admin1_code":"VLG","admin2_code":"VWV","admin3_code":"35","admin4_code":"35006","population":"13582","elevation":"","dem":"16","timezone":"Europe/Brussels","modification_date":"2012-01-18"},{"geonameid":"2795170","name":"Hulshout","asciiname":"Hulshout","alternatenames":["Hulshout"],"latitude":"51.07451","longitude":"4.79081","feature_class":"P","feature_code":"PPL","country_code":"BE","cc2":"","admin1_code":"VLG","admin2_code":"VAN","admin3_code":"13","admin4_code":"13016","population":"9198","elevation":"","dem":"13","timezone":"Europe/Brussels","modification_date":"2012-01-18"},{"geonameid":"2795184","name":"Huldenberg","asciiname":"Huldenberg","alternatenames":["Huldenberg"],"latitude":"50.78939","longitude":"4.5831","feature_class":"P","feature_code":"PPL","country_code":"BE","cc2":"","admin1_code":"VLG","admin2_code":"VBR","admin3_code":"24","admin4_code":"24045","population":"9137","elevation":"","dem":"48","timezone":"Europe/Brussels","modification_date":"2011-02-15"},{"geonameid":"2795232","name":"Hove","asciiname":"Hove","alternatenames":["Hove"],"latitude":"51.15446","longitude":"4.4707","feature_class":"P","feature_code":"PPL","country_code":"BE","cc2":"","admin1_code":"VLG","admin2_code":"VAN","admin3_code":"11","admin4_code":"11021","population":"7968","elevation":"","dem":"22","timezone":"Europe/Brussels","modification_date":"2012-01-18"},{"geonameid":"2795255","name":"Houthulst","asciiname":"Houthulst","alternatenames":["Houthuls","Houthulst","Oetulst"],"latitude":"50.97824","longitude":"2.9505","feature_class":"P","feature_code":"PPL","country_code":"BE","cc2":"","admin1_code":"VLG","admin2_code":"VWV","admin3_code":"32","admin4_code":"32006","population":"8951","elevation":"","dem":"18","timezone":"Europe/Brussels","modification_date":"2012-01-18"},{"geonameid":"2795261","name":"Houthalen","asciiname":"Houthalen","alternatenames":["Houthaelen","Houthaelenberg","Houthalen-Helchteren (Houthalen)"],"latitude":"51.03427","longitude":"5.37429","feature_class":"P","feature_code":"PPL","country_code":"BE","cc2":"","admin1_code":"VLG","admin2_code":"VLI","admin3_code":"72","admin4_code":"72039","population":"30050","elevation":"","dem":"64","timezone":"Europe/Brussels","modification_date":"2011-02-23"},{"geonameid":"2795398","name":"Hoogstraten","asciiname":"Hoogstraten","alternatenames":["Hoogstraeten","Hoogstraten","Khogstraten","Хогстратен"],"latitude":"51.40029","longitude":"4.76034","feature_class":"P","feature_code":"PPL","country_code":"BE","cc2":"","admin1_code":"VLG","admin2_code":"VAN","admin3_code":"13","admin4_code":"13014","population":"18524","elevation":"","dem":"21","timezone":"Europe/Brussels","modification_date":"2012-01-18"},{"geonameid":"2795423","name":"Hooglede","asciiname":"Hooglede","alternatenames":["Hooglede","Ooglee"],"latitude":"50.98333","longitude":"3.08333","feature_class":"P","feature_code":"PPL","country_code":"BE","cc2":"","admin1_code":"VLG","admin2_code":"VWV","admin3_code":"36","admin4_code":"36006","population":"9900","elevation":"","dem":"41","timezone":"Europe/Brussels","modification_date":"2012-01-18"},{"geonameid":"2795511","name":"Holsbeek","asciiname":"Holsbeek","alternatenames":["Holsbeek"],"latitude":"50.92097","longitude":"4.75747","feature_class":"P","feature_code":"PPL","country_code":"BE","cc2":"","admin1_code":"VLG","admin2_code":"VBR","admin3_code":"24","admin4_code":"24043","population":"9094","elevation":"","dem":"21","timezone":"Europe/Brussels","modification_date":"2011-02-18"},{"geonameid":"2795648","name":"Hoeselt","asciiname":"Hoeselt","alternatenames":["Hoeiselt","Hoeselt","Hoesselt"],"latitude":"50.84714","longitude":"5.48767","feature_class":"P","feature_code":"PPL","country_code":"BE","cc2":"","admin1_code":"VLG","admin2_code":"VLI","admin3_code":"73","admin4_code":"73032","population":"9265","elevation":"","dem":"77","timezone":"Europe/Brussels","modification_date":"2011-02-28"},{"geonameid":"2795699","name":"Hoeilaart","asciiname":"Hoeilaart","alternatenames":["Hoeilaart","Hoeylaert"],"latitude":"50.7673","longitude":"4.46835","feature_class":"P","feature_code":"PPL","country_code":"BE","cc2":"","admin1_code":"VLG","admin2_code":"VBR","admin3_code":"23","admin4_code":"23033","population":"10272","elevation":"","dem":"84","timezone":"Europe/Brussels","modification_date":"2011-02-15"},{"geonameid":"2795703","name":"Hoegaarden","asciiname":"Hoegaarden","alternatenames":["Hoegaarden","Hougaerde"],"latitude":"50.7756","longitude":"4.88952","feature_class":"P","feature_code":"PPL","country_code":"BE","cc2":"","admin1_code":"VLG","admin2_code":"VBR","admin3_code":"24","admin4_code":"24041","population":"6110","elevation":"","dem":"54","timezone":"Europe/Brussels","modification_date":"2011-02-21"},{"geonameid":"2795730","name":"Hoboken","asciiname":"Hoboken","alternatenames":["Antwerp (Hoboken)","Hoboken-lez-Anvers"],"latitude":"51.17611","longitude":"4.34844","feature_class":"P","feature_code":"PPL","country_code":"BE","cc2":"BE","admin1_code":"VLG","admin2_code":"VAN","admin3_code":"11","admin4_code":"11002","population":"34443","elevation":"","dem":"12","timezone":"Europe/Brussels","modification_date":"2011-02-07"},{"geonameid":"2795800","name":"Heusden","asciiname":"Heusden","alternatenames":["Heusden-Zolder (Heusden)"],"latitude":"51.03664","longitude":"5.28013","feature_class":"P","feature_code":"PPL","country_code":"BE","cc2":"","admin1_code":"VLG","admin2_code":"VLI","admin3_code":"71","admin4_code":"71070","population":"31017","elevation":"","dem":"39","timezone":"Europe/Brussels","modification_date":"2011-02-23"},{"geonameid":"2795908","name":"Herzele","asciiname":"Herzele","alternatenames":["Herzele"],"latitude":"50.88681","longitude":"3.89014","feature_class":"P","feature_code":"PPL","country_code":"BE","cc2":"","admin1_code":"VLG","admin2_code":"VOV","admin3_code":"41","admin4_code":"41027","population":"16523","elevation":"","dem":"58","timezone":"Europe/Brussels","modification_date":"2012-01-18"},{"geonameid":"2795933","name":"Herselt","asciiname":"Herselt","alternatenames":["Herselt","Hersselt"],"latitude":"51.05159","longitude":"4.88231","feature_class":"P","feature_code":"PPL","country_code":"BE","cc2":"","admin1_code":"VLG","admin2_code":"VAN","admin3_code":"13","admin4_code":"13013","population":"13493","elevation":"","dem":"18","timezone":"Europe/Brussels","modification_date":"2011-02-07"},{"geonameid":"2795956","name":"Herne","asciiname":"Herne","alternatenames":["Herinnes","Herne","Hérinnes"],"latitude":"50.72423","longitude":"4.03481","feature_class":"P","feature_code":"PPL","country_code":"BE","cc2":"","admin1_code":"VLG","admin2_code":"VBR","admin3_code":"23","admin4_code":"23032","population":"6459","elevation":"","dem":"43","timezone":"Europe/Brussels","modification_date":"2011-02-02"},{"geonameid":"2795985","name":"Herk-de-Stad","asciiname":"Herk-de-Stad","alternatenames":["Herck-la-Ville","Herk","Herk-de-Stad"],"latitude":"50.94013","longitude":"5.16636","feature_class":"P","feature_code":"PPL","country_code":"BE","cc2":"","admin1_code":"VLG","admin2_code":"VLI","admin3_code":"71","admin4_code":"71024","population":"11566","elevation":"","dem":"31","timezone":"Europe/Brussels","modification_date":"2012-01-18"},{"geonameid":"2796005","name":"Herenthout","asciiname":"Herenthout","alternatenames":["Herenthout"],"latitude":"51.1401","longitude":"4.75572","feature_class":"P","feature_code":"PPL","country_code":"BE","cc2":"","admin1_code":"VLG","admin2_code":"VAN","admin3_code":"13","admin4_code":"13012","population":"8378","elevation":"","dem":"12","timezone":"Europe/Brussels","modification_date":"2012-01-18"},{"geonameid":"2796009","name":"Herentals","asciiname":"Herentals","alternatenames":["Herentals","Herenthals","Kherentals","Херенталс"],"latitude":"51.17655","longitude":"4.83248","feature_class":"P","feature_code":"PPL","country_code":"BE","cc2":"","admin1_code":"VLG","admin2_code":"VAN","admin3_code":"13","admin4_code":"13011","population":"25912","elevation":"","dem":"16","timezone":"Europe/Brussels","modification_date":"2012-01-18"},{"geonameid":"2796012","name":"Herent","asciiname":"Herent","alternatenames":["Herent"],"latitude":"50.90861","longitude":"4.67056","feature_class":"P","feature_code":"PPL","country_code":"BE","cc2":"","admin1_code":"VLG","admin2_code":"VBR","admin3_code":"24","admin4_code":"24038","population":"19218","elevation":"","dem":"27","timezone":"Europe/Brussels","modification_date":"2011-02-04"},{"geonameid":"2796085","name":"Hemiksem","asciiname":"Hemiksem","alternatenames":["Hemiksem","Hemixem","Hemixeu"],"latitude":"51.14484","longitude":"4.33874","feature_class":"P","feature_code":"PPL","country_code":"BE","cc2":"","admin1_code":"VLG","admin2_code":"VAN","admin3_code":"11","admin4_code":"11018","population":"9504","elevation":"","dem":"18","timezone":"Europe/Brussels","modification_date":"2011-02-10"},{"geonameid":"2796132","name":"Helchteren","asciiname":"Helchteren","alternatenames":["Houthalen-Helchteren (Helchteren)"],"latitude":"51.05591","longitude":"5.38244","feature_class":"P","feature_code":"PPL","country_code":"BE","cc2":"","admin1_code":"VLG","admin2_code":"VLI","admin3_code":"72","admin4_code":"72039","population":"30050","elevation":"","dem":"72","timezone":"Europe/Brussels","modification_date":"2011-02-23"},{"geonameid":"2796153","name":"Heist-op-den-Berg","asciiname":"Heist-op-den-Berg","alternatenames":["Heist-op-den-Berg","Heyst-op-den-Berg"],"latitude":"51.07537","longitude":"4.72827","feature_class":"P","feature_code":"PPLA4","country_code":"BE","cc2":"","admin1_code":"VLG","admin2_code":"VAN","admin3_code":"12","admin4_code":"12014","population":"37873","elevation":"","dem":"36","timezone":"Europe/Brussels","modification_date":"2013-06-07"},{"geonameid":"2796297","name":"Heers","asciiname":"Heers","alternatenames":["Heers","Hier","Hiër"],"latitude":"50.75383","longitude":"5.3021","feature_class":"P","feature_code":"PPL","country_code":"BE","cc2":"","admin1_code":"VLG","admin2_code":"VLI","admin3_code":"73","admin4_code":"73022","population":"6689","elevation":"","dem":"75","timezone":"Europe/Brussels","modification_date":"2011-03-03"},{"geonameid":"2796491","name":"Hasselt","asciiname":"Hasselt","alternatenames":["Asselt","Gasselt","Gorad Khaselt","Haselt","Haseltas","Haselto","Hasselt","Khaselt","Khasselt","QHA","aslt","ha se er te","has sel th","haselteu","hasseruto","Άσσελτ","Гасселт","Горад Хаселт","Хаселт","Хасселт","Հասելտ","اسلت","ฮัสเซลท์","ハッセルト","哈瑟尔特","하셀트"],"latitude":"50.93106","longitude":"5.33781","feature_class":"P","feature_code":"PPL","country_code":"BE","cc2":"","admin1_code":"VLG","admin2_code":"VLI","admin3_code":"71","admin4_code":"71022","population":"69222","elevation":"","dem":"42","timezone":"Europe/Brussels","modification_date":"2011-02-23"},{"geonameid":"2796542","name":"Harelbeke","asciiname":"Harelbeke","alternatenames":["Hailebeke","Harelbeke","Harelbeke vald","Harelbekė","Harlebeke","Kharelbeke","Oarelbeke","ha lei er bei ke","Харелбеке","ارل‌بک","哈勒尔贝克"],"latitude":"50.85343","longitude":"3.30935","feature_class":"P","feature_code":"PPL","country_code":"BE","cc2":"","admin1_code":"VLG","admin2_code":"VWV","admin3_code":"34","admin4_code":"34013","population":"25978","elevation":"","dem":"16","timezone":"Europe/Brussels","modification_date":"2012-01-18"},{"geonameid":"2796637","name":"Hamme","asciiname":"Hamme","alternatenames":["Hamme","Khamme","Хамме"],"latitude":"51.09822","longitude":"4.13705","feature_class":"P","feature_code":"PPL","country_code":"BE","cc2":"","admin1_code":"VLG","admin2_code":"VOV","admin3_code":"42","admin4_code":"42008","population":"22891","elevation":"","dem":"6","timezone":"Europe/Brussels","modification_date":"2012-01-18"},{"geonameid":"2796696","name":"Halle","asciiname":"Halle","alternatenames":["Galle","Hal","Halle","Halle i Belgia","Khale","Khalle","al","ha lai","halh","Галле","Хале","Халле","ال","هاله","哈莱"],"latitude":"50.73385","longitude":"4.23454","feature_class":"P","feature_code":"PPL","country_code":"BE","cc2":"","admin1_code":"VLG","admin2_code":"VBR","admin3_code":"23","admin4_code":"23027","population":"34479","elevation":"","dem":"34","timezone":"Europe/Brussels","modification_date":"2011-02-12"},{"geonameid":"2796715","name":"Halen","asciiname":"Halen","alternatenames":["Haelen","Halen","Hole","Hôle","Khalen","Хален"],"latitude":"50.94837","longitude":"5.11096","feature_class":"P","feature_code":"PPL","country_code":"BE","cc2":"","admin1_code":"VLG","admin2_code":"VLI","admin3_code":"71","admin4_code":"71020","population":"8548","elevation":"","dem":"24","timezone":"Europe/Brussels","modification_date":"2011-02-23"},{"geonameid":"2796833","name":"Haaltert","asciiname":"Haaltert","alternatenames":["Haaltert","Haeltert"],"latitude":"50.90634","longitude":"4.00093","feature_class":"P","feature_code":"PPL","country_code":"BE","cc2":"","admin1_code":"VLG","admin2_code":"VOV","admin3_code":"41","admin4_code":"41024","population":"17129","elevation":"","dem":"43","timezone":"Europe/Brussels","modification_date":"2012-01-18"},{"geonameid":"2796844","name":"Haacht","asciiname":"Haacht","alternatenames":["Haacht","Haecht"],"latitude":"50.97737","longitude":"4.63777","feature_class":"P","feature_code":"PPL","country_code":"BE","cc2":"","admin1_code":"VLG","admin2_code":"VBR","admin3_code":"24","admin4_code":"24033","population":"13541","elevation":"","dem":"10","timezone":"Europe/Brussels","modification_date":"2012-01-18"},{"geonameid":"2797094","name":"Grobbendonk","asciiname":"Grobbendonk","alternatenames":["Grobbendonck","Grobbendonk"],"latitude":"51.19043","longitude":"4.73562","feature_class":"P","feature_code":"PPL","country_code":"BE","cc2":"","admin1_code":"VLG","admin2_code":"VAN","admin3_code":"13","admin4_code":"13010","population":"10724","elevation":"","dem":"10","timezone":"Europe/Brussels","modification_date":"2011-02-08"},{"geonameid":"2797114","name":"Grimbergen","asciiname":"Grimbergen","alternatenames":["Grimbergen","Grimberghen","grymbrzhan","he lin bei heng","Гримберген","گریمبرژان","赫林贝亨"],"latitude":"50.93409","longitude":"4.37213","feature_class":"P","feature_code":"PPL","country_code":"BE","cc2":"","admin1_code":"VLG","admin2_code":"VBR","admin3_code":"23","admin4_code":"23025","population":"33561","elevation":"","dem":"29","timezone":"Europe/Brussels","modification_date":"2011-02-04"},{"geonameid":"2797417","name":"Gooik","asciiname":"Gooik","alternatenames":["Gooik","Goyck"],"latitude":"50.79443","longitude":"4.11378","feature_class":"P","feature_code":"PPL","country_code":"BE","cc2":"","admin1_code":"VLG","admin2_code":"VBR","admin3_code":"23","admin4_code":"23024","population":"8957","elevation":"","dem":"39","timezone":"Europe/Brussels","modification_date":"2011-02-03"},{"geonameid":"2797500","name":"Glabbeek-Zuurbemde","asciiname":"Glabbeek-Zuurbemde","alternatenames":["Glabbeek","Glabbeek-Suerbempde","Glabbeek-Zuurbemde"],"latitude":"50.87348","longitude":"4.94442","feature_class":"P","feature_code":"PPL","country_code":"BE","cc2":"","admin1_code":"VLG","admin2_code":"VBR","admin3_code":"24","admin4_code":"24137","population":"5070","elevation":"","dem":"50","timezone":"Europe/Brussels","modification_date":"2012-01-18"},{"geonameid":"2797517","name":"Gistel","asciiname":"Gistel","alternatenames":["Ghistelles","Gistel","Histel","Гистел"],"latitude":"51.15612","longitude":"2.96387","feature_class":"P","feature_code":"PPL","country_code":"BE","cc2":"","admin1_code":"VLG","admin2_code":"VWV","admin3_code":"35","admin4_code":"35005","population":"11084","elevation":"","dem":"7","timezone":"Europe/Brussels","modification_date":"2012-01-18"},{"geonameid":"2797523","name":"Gingelom","asciiname":"Gingelom","alternatenames":["Gingelom"],"latitude":"50.74792","longitude":"5.13422","feature_class":"P","feature_code":"PPL","country_code":"BE","cc2":"","admin1_code":"VLG","admin2_code":"VLI","admin3_code":"71","admin4_code":"71017","population":"7930","elevation":"","dem":"83","timezone":"Europe/Brussels","modification_date":"2011-03-02"},{"geonameid":"2797638","name":"Geraardsbergen","asciiname":"Geraardsbergen","alternatenames":["Geeraardsbergen","Geraardsbergen","Gerardsbergen","Grammont","he la er ci bei heng","zhrardzbrzhan","Гераардсберген","Герардсберген","ژراردزبرژان","赫拉尔兹贝亨"],"latitude":"50.77343","longitude":"3.88223","feature_class":"P","feature_code":"PPL","country_code":"BE","cc2":"","admin1_code":"VLG","admin2_code":"VOV","admin3_code":"41","admin4_code":"41018","population":"30807","elevation":"","dem":"32","timezone":"Europe/Brussels","modification_date":"2012-01-18"},{"geonameid":"2797656","name":"Gent","asciiname":"Gent","alternatenames":["GNE","Gaent","Gand","Gandavum","Gandawa","Gande","Gant","Gante","Ganti","Gent","Gentas","Gente","Gento","Ghent","Gint","Gorad Gent","Gænt","gen te","genta","ghnt","gnt","henteu","hento","jenta","jnt","ken t","khenta","Γάνδη","Гент","Горад Гент","Գենտ","גנט","جنت","غنت","غینٹ","گنت","खेंट","गेंट","জেন্ট","เกนต์","ဂင့်မြို့","გენტი","ヘント","根特","헨트"],"latitude":"51.05","longitude":"3.71667","feature_class":"P","feature_code":"PPL","country_code":"BE","cc2":"","admin1_code":"VLG","admin2_code":"VOV","admin3_code":"44","admin4_code":"44021","population":"231493","elevation":"","dem":"10","timezone":"Europe/Brussels","modification_date":"2008-06-24"},{"geonameid":"2797670","name":"Genk","asciiname":"Genk","alternatenames":["Genck","Genk","Генк"],"latitude":"50.965","longitude":"5.50082","feature_class":"P","feature_code":"PPL","country_code":"BE","cc2":"","admin1_code":"VLG","admin2_code":"VLI","admin3_code":"71","admin4_code":"71016","population":"63666","elevation":"","dem":"66","timezone":"Europe/Brussels","modification_date":"2012-01-18"},{"geonameid":"2797761","name":"Geetbets","asciiname":"Geetbets","alternatenames":["Geet Betz","Geetbets"],"latitude":"50.89431","longitude":"5.11199","feature_class":"P","feature_code":"PPL","country_code":"BE","cc2":"","admin1_code":"VLG","admin2_code":"VBR","admin3_code":"24","admin4_code":"24028","population":"5813","elevation":"","dem":"30","timezone":"Europe/Brussels","modification_date":"2012-01-18"},{"geonameid":"2797779","name":"Geel","asciiname":"Geel","alternatenames":["Geel","Gel","Gelis","Gheel","he er","heru","zhl","Геел","Гел","ژل","ヘール","赫尔"],"latitude":"51.16557","longitude":"4.98917","feature_class":"P","feature_code":"PPL","country_code":"BE","cc2":"","admin1_code":"VLG","admin2_code":"VAN","admin3_code":"13","admin4_code":"13008","population":"34697","elevation":"","dem":"22","timezone":"Europe/Brussels","modification_date":"2011-02-10"},{"geonameid":"2797798","name":"Gavere","asciiname":"Gavere","alternatenames":["Gavere"],"latitude":"50.92917","longitude":"3.66184","feature_class":"P","feature_code":"PPL","country_code":"BE","cc2":"","admin1_code":"VLG","admin2_code":"VOV","admin3_code":"44","admin4_code":"44020","population":"11888","elevation":"","dem":"25","timezone":"Europe/Brussels","modification_date":"2012-01-18"},{"geonameid":"2797851","name":"Galmaarden","asciiname":"Galmaarden","alternatenames":["Galmaarden","Gammerages"],"latitude":"50.75389","longitude":"3.97121","feature_class":"P","feature_code":"PPL","country_code":"BE","cc2":"","admin1_code":"VLG","admin2_code":"VBR","admin3_code":"23","admin4_code":"23023","population":"7939","elevation":"","dem":"32","timezone":"Europe/Brussels","modification_date":"2011-02-02"},{"geonameid":"2798056","name":"Sint-Pieters-Voeren","asciiname":"Sint-Pieters-Voeren","alternatenames":["Fouron-Saint-Pierre","Fourons (Fouron-Saint-Pierre)","Sint-Pieters-Voeren","Voeren (Sint-Pieters-Voeren)"],"latitude":"50.73863","longitude":"5.82224","feature_class":"P","feature_code":"PPL","country_code":"BE","cc2":"","admin1_code":"VLG","admin2_code":"VLI","admin3_code":"73","admin4_code":"73109","population":"4235","elevation":"","dem":"153","timezone":"Europe/Brussels","modification_date":"2011-03-02"},{"geonameid":"2798551","name":"Evergem","asciiname":"Evergem","alternatenames":["Ehvergem","Evergem","Everghem Rabot","Эвергем"],"latitude":"51.10529","longitude":"3.704","feature_class":"P","feature_code":"PPL","country_code":"BE","cc2":"","admin1_code":"VLG","admin2_code":"VOV","admin3_code":"44","admin4_code":"44019","population":"31615","elevation":"","dem":"7","timezone":"Europe/Brussels","modification_date":"2012-01-18"},{"geonameid":"2798615","name":"Essen","asciiname":"Essen","alternatenames":["Esschen"],"latitude":"51.46791","longitude":"4.46901","feature_class":"P","feature_code":"PPL","country_code":"BE","cc2":"","admin1_code":"VLG","admin2_code":"VAN","admin3_code":"11","admin4_code":"11016","population":"16754","elevation":"","dem":"13","timezone":"Europe/Brussels","modification_date":"2014-12-23"},