{"region_data":{"adminCode1":"12","lng":"47.66667","geonameId":146879,"toponymName":"Beylagan Rayon","countryId":"587116","fcl":"A","population":81700,"countryCode":"AZ","name":"Beylagan Rayon","fclName":"country, state, region,...","countryName":"Azerbaijan","fcodeName":"first-order administrative division","adminName1":"Beyləqan","lat":"39.75","fcode":"ADM1"},"country_data":{"ISO":"AZ","ISO3":"AZE","ISO_Numeric":"031","fips":"AJ","country":"Azerbaijan","capital":"Baku","area":"86600","Population":"8303512","Continent":"AS","tld":".az","CurrencyCode":"AZN","CurrencyName":"Manat","Phone":"994","Postal_Code_Format":"AZ ####","Postal_Code_Regex":"^(?:AZ)*(\\d{4})$","Languages":"az,ru,hy","geonameid":"587116","neighbours":"GE,IR,AM,TR,RU","EquivalentFipsCode":""},"cities":[{"geonameid":"147364","name":"Orconikidze","asciiname":"Orconikidze","alternatenames":["Orconikidze","Ordzhonikidze"],"latitude":"39.63238","longitude":"47.6898","feature_class":"P","feature_code":"PPL","country_code":"AZ","cc2":"","admin1_code":"12","admin2_code":"","admin3_code":"","admin4_code":"","population":"1557","elevation":"","dem":"98","timezone":"Asia/Baku","modification_date":"2013-04-03"},{"geonameid":"148177","name":"Dünyamalılar","asciiname":"Dunyamalilar","alternatenames":["Dun'yamalylar","Dunyamalilar","Dunyamallar","Dun’yamalylar","Dünyamallar","Dünyamalılar"],"latitude":"39.77278","longitude":"47.75889","feature_class":"P","feature_code":"PPL","country_code":"AZ","cc2":"AZ","admin1_code":"12","admin2_code":"","admin3_code":"","admin4_code":"","population":"5968","elevation":"","dem":"27","timezone":"Asia/Baku","modification_date":"2013-05-05"},{"geonameid":"148354","name":"Beylagan","asciiname":"Beylagan","alternatenames":["Beylagan","Beylaqan","Beyləqan","Jdanov","Zhdanov","Zhdanovsk"],"latitude":"39.77556","longitude":"47.61861","feature_class":"P","feature_code":"PPLA","country_code":"AZ","cc2":"","admin1_code":"12","admin2_code":"","admin3_code":"","admin4_code":"","population":"15599","elevation":"","dem":"58","timezone":"Asia/Baku","modification_date":"2014-09-16"},{"geonameid":"393942","name":"Birinci Aşıqlı","asciiname":"Birinci Asiqli","alternatenames":["Ashykhly Pervoye","Birinci Asiqli","Birinci Aşıqlı"],"latitude":"39.81917","longitude":"47.67944","feature_class":"P","feature_code":"PPL","country_code":"AZ","cc2":"AZ","admin1_code":"12","admin2_code":"","admin3_code":"","admin4_code":"","population":"1981","elevation":"","dem":"26","timezone":"Asia/Baku","modification_date":"2013-05-05"},{"geonameid":"393954","name":"Yuxarı Aran","asciiname":"Yuxari Aran","alternatenames":["Yuxari Aran","Yuxarı Aran"],"latitude":"39.73361","longitude":"47.655","feature_class":"P","feature_code":"PPL","country_code":"AZ","cc2":"","admin1_code":"12","admin2_code":"","admin3_code":"","admin4_code":"","population":"1623","elevation":"","dem":"60","timezone":"Asia/Baku","modification_date":"2013-05-05"}]}