{"region_data":{"adminCode1":"70","lng":"46.66667","geonameId":584604,"toponymName":"Zaqatala Rayon","countryId":"587116","fcl":"A","population":111419,"countryCode":"AZ","name":"Zaqatala Rayon","fclName":"country, state, region,...","countryName":"Azerbaijan","fcodeName":"first-order administrative division","adminName1":"Zaqatala","lat":"41.58333","fcode":"ADM1"},"country_data":{"ISO":"AZ","ISO3":"AZE","ISO_Numeric":"031","fips":"AJ","country":"Azerbaijan","capital":"Baku","area":"86600","Population":"8303512","Continent":"AS","tld":".az","CurrencyCode":"AZN","CurrencyName":"Manat","Phone":"994","Postal_Code_Format":"AZ ####","Postal_Code_Regex":"^(?:AZ)*(\\d{4})$","Languages":"az,ru,hy","geonameid":"587116","neighbours":"GE,IR,AM,TR,RU","EquivalentFipsCode":""},"cities":[{"geonameid":"584596","name":"Zaqatala","asciiname":"Zaqatala","alternatenames":["Sakataly","ZTU","Zakatali","Zakatalsk","Zakataly","Zaqatala","Закаталы"],"latitude":"41.6316","longitude":"46.64479","feature_class":"P","feature_code":"PPLA","country_code":"AZ","cc2":"","admin1_code":"70","admin2_code":"","admin3_code":"","admin4_code":"","population":"18277","elevation":"","dem":"503","timezone":"Asia/Baku","modification_date":"2014-08-19"},{"geonameid":"585583","name":"Mamrux","asciiname":"Mamrux","alternatenames":["Mamrukh","Mamrux"],"latitude":"41.54243","longitude":"46.767","feature_class":"P","feature_code":"PPL","country_code":"AZ","cc2":"","admin1_code":"70","admin2_code":"","admin3_code":"","admin4_code":"","population":"2150","elevation":"","dem":"519","timezone":"Asia/Baku","modification_date":"2014-01-09"},{"geonameid":"586255","name":"Qandax","asciiname":"Qandax","alternatenames":["Kandak","Kandakh","Qandax"],"latitude":"41.47546","longitude":"46.54128","feature_class":"P","feature_code":"PPL","country_code":"AZ","cc2":"","admin1_code":"70","admin2_code":"","admin3_code":"","admin4_code":"","population":"1654","elevation":"","dem":"219","timezone":"Asia/Baku","modification_date":"2014-01-09"},{"geonameid":"586586","name":"Faldarlı","asciiname":"Faldarli","alternatenames":["Faldar","Faldarli","Faldarly","Faldarlı"],"latitude":"41.46868","longitude":"46.51579","feature_class":"P","feature_code":"PPL","country_code":"AZ","cc2":"","admin1_code":"70","admin2_code":"","admin3_code":"","admin4_code":"","population":"1767","elevation":"","dem":"209","timezone":"Asia/Baku","modification_date":"2014-01-09"},{"geonameid":"587319","name":"Aliabad","asciiname":"Aliabad","alternatenames":["Aliabad","Əliabad","Алиабад"],"latitude":"41.4829","longitude":"46.63483","feature_class":"P","feature_code":"PPL","country_code":"AZ","cc2":"","admin1_code":"70","admin2_code":"","admin3_code":"","admin4_code":"","population":"9103","elevation":"","dem":"262","timezone":"Asia/Baku","modification_date":"2014-01-09"}]}