{"region_data":{"countryId":"798549","adminCode1":"08","countryName":"Romania","fclName":"country, state, region,...","countryCode":"RO","lng":"27.66667","fcodeName":"first-order administrative division","toponymName":"Judeţul Brăila","fcl":"A","numberOfChildren":44,"name":"Judeţul Brăila","fcode":"ADM1","geonameId":683901,"lat":"45.08333","adminName1":"Brăila","population":367830},"country_data":{"ISO":"RO","ISO3":"ROU","ISO_Numeric":"642","fips":"RO","country":"Romania","capital":"Bucharest","area":"237500","Population":"21959278","Continent":"EU","tld":".ro","CurrencyCode":"RON","CurrencyName":"Leu","Phone":"40","Postal_Code_Format":"######","Postal_Code_Regex":"^(\\d{6})$","Languages":"ro,hu,rom","geonameid":"798549","neighbours":"MD,HU,UA,BG,RS","EquivalentFipsCode":""},"cities":[{"geonameid":"662259","name":"Zăvoaia","asciiname":"Zavoaia","alternatenames":["Slujitorii-Albesti","Slujitorii-Albeşti","Zavoaia","Zăvoaia"],"latitude":"44.95","longitude":"27.48333","feature_class":"P","feature_code":"PPLA2","country_code":"RO","cc2":"","admin1_code":"08","admin2_code":"44532","admin3_code":"","admin4_code":"","population":"3482","elevation":"","dem":"35","timezone":"Europe/Bucharest","modification_date":"2012-06-12"},{"geonameid":"662651","name":"Viziru","asciiname":"Viziru","alternatenames":["Viziru","Vizirul"],"latitude":"45.01667","longitude":"27.7","feature_class":"P","feature_code":"PPLA2","country_code":"RO","cc2":"","admin1_code":"08","admin2_code":"44505","admin3_code":"","admin4_code":"","population":"6305","elevation":"","dem":"15","timezone":"Europe/Bucharest","modification_date":"2012-06-12"},{"geonameid":"662709","name":"Vişani","asciiname":"Visani","alternatenames":[""],"latitude":"45.15","longitude":"27.28333","feature_class":"P","feature_code":"PPLA2","country_code":"RO","cc2":"","admin1_code":"08","admin2_code":"44462","admin3_code":"","admin4_code":"","population":"2819","elevation":"","dem":"37","timezone":"Europe/Bucharest","modification_date":"2012-06-12"},{"geonameid":"662988","name":"Victoria","asciiname":"Victoria","alternatenames":[""],"latitude":"44.81667","longitude":"27.61667","feature_class":"P","feature_code":"PPLA2","country_code":"RO","cc2":"","admin1_code":"08","admin2_code":"44435","admin3_code":"","admin4_code":"","population":"3942","elevation":"","dem":"23","timezone":"Europe/Bucharest","modification_date":"2012-06-12"},{"geonameid":"664020","name":"Vădeni","asciiname":"Vadeni","alternatenames":["Vadeni","Vădeni"],"latitude":"45.36667","longitude":"27.93333","feature_class":"P","feature_code":"PPLA2","country_code":"RO","cc2":"","admin1_code":"08","admin2_code":"44391","admin3_code":"","admin4_code":"","population":"4173","elevation":"","dem":"4","timezone":"Europe/Bucharest","modification_date":"2012-06-12"},{"geonameid":"664145","name":"Urleasca","asciiname":"Urleasca","alternatenames":[""],"latitude":"45.13697","longitude":"27.64736","feature_class":"P","feature_code":"PPL","country_code":"RO","cc2":"","admin1_code":"08","admin2_code":"44202","admin3_code":"","admin4_code":"","population":"1502","elevation":"","dem":"16","timezone":"Europe/Bucharest","modification_date":"2013-04-20"},{"geonameid":"664203","name":"Unirea","asciiname":"Unirea","alternatenames":["Osmanu","Osmanul","Unirea"],"latitude":"45.11667","longitude":"27.81667","feature_class":"P","feature_code":"PPLA2","country_code":"RO","cc2":"","admin1_code":"08","admin2_code":"44355","admin3_code":"","admin4_code":"","population":"2550","elevation":"","dem":"10","timezone":"Europe/Bucharest","modification_date":"2012-06-12"},{"geonameid":"664286","name":"Ulmu","asciiname":"Ulmu","alternatenames":["General Poetas","General Poetaş","Poetas","Poetaş","Ulmu"],"latitude":"44.95","longitude":"27.31667","feature_class":"P","feature_code":"PPLA2","country_code":"RO","cc2":"","admin1_code":"08","admin2_code":"44328","admin3_code":"","admin4_code":"","population":"4397","elevation":"","dem":"43","timezone":"Europe/Bucharest","modification_date":"2012-06-12"},{"geonameid":"664539","name":"Tufeşti","asciiname":"Tufesti","alternatenames":[""],"latitude":"45.05","longitude":"27.81667","feature_class":"P","feature_code":"PPLA2","country_code":"RO","cc2":"","admin1_code":"08","admin2_code":"44300","admin3_code":"","admin4_code":"","population":"5784","elevation":"","dem":"12","timezone":"Europe/Bucharest","modification_date":"2012-06-12"},{"geonameid":"664566","name":"Tudor Vladimirescu","asciiname":"Tudor Vladimirescu","alternatenames":[""],"latitude":"45.21667","longitude":"27.8","feature_class":"P","feature_code":"PPLA2","country_code":"RO","cc2":"","admin1_code":"08","admin2_code":"44257","admin3_code":"","admin4_code":"","population":"5327","elevation":"","dem":"12","timezone":"Europe/Bucharest","modification_date":"2012-06-12"},{"geonameid":"664680","name":"Traian","asciiname":"Traian","alternatenames":[""],"latitude":"45.18333","longitude":"27.73333","feature_class":"P","feature_code":"PPLA2","country_code":"RO","cc2":"","admin1_code":"08","admin2_code":"44202","admin3_code":"","admin4_code":"","population":"3684","elevation":"","dem":"10","timezone":"Europe/Bucharest","modification_date":"2012-06-12"},{"geonameid":"665176","name":"Tichileşti","asciiname":"Tichilesti","alternatenames":[""],"latitude":"45.11667","longitude":"27.9","feature_class":"P","feature_code":"PPLA2","country_code":"RO","cc2":"","admin1_code":"08","admin2_code":"44177","admin3_code":"","admin4_code":"","population":"4270","elevation":"","dem":"16","timezone":"Europe/Bucharest","modification_date":"2012-06-12"},{"geonameid":"665435","name":"Tătaru","asciiname":"Tataru","alternatenames":["Tataru","Tatarul","Tătaru","Tătarul"],"latitude":"44.84482","longitude":"27.43376","feature_class":"P","feature_code":"PPL","country_code":"RO","cc2":"RO","admin1_code":"08","admin2_code":"43073","admin3_code":"","admin4_code":"","population":"2178","elevation":"","dem":"41","timezone":"Europe/Bucharest","modification_date":"2013-04-21"},{"geonameid":"665664","name":"Şuţeşti","asciiname":"Sutesti","alternatenames":["Sutesti","Şuţeşti"],"latitude":"45.21667","longitude":"27.43333","feature_class":"P","feature_code":"PPLA2","country_code":"RO","cc2":"","admin1_code":"08","admin2_code":"44140","admin3_code":"","admin4_code":"","population":"4740","elevation":"","dem":"35","timezone":"Europe/Bucharest","modification_date":"2012-06-12"},{"geonameid":"665736","name":"Surdila-Greci","asciiname":"Surdila-Greci","alternatenames":["Greci","Surdila-Greci"],"latitude":"45.06667","longitude":"27.26667","feature_class":"P","feature_code":"PPLA2","country_code":"RO","cc2":"","admin1_code":"08","admin2_code":"42771","admin3_code":"","admin4_code":"","population":"1635","elevation":"","dem":"39","timezone":"Europe/Bucharest","modification_date":"2012-06-12"},{"geonameid":"665738","name":"Surdila-Găiseanca","asciiname":"Surdila-Gaiseanca","alternatenames":["Surdila-Gaiseanca","Surdila-Găiseanca"],"latitude":"45.06667","longitude":"27.33333","feature_class":"P","feature_code":"PPLA2","country_code":"RO","cc2":"","admin1_code":"08","admin2_code":"44113","admin3_code":"","admin4_code":"","population":"2726","elevation":"","dem":"37","timezone":"Europe/Bucharest","modification_date":"2012-06-12"},{"geonameid":"666309","name":"Stăncuţa","asciiname":"Stancuta","alternatenames":["Stancuta","Stăncuţa"],"latitude":"44.9","longitude":"27.83333","feature_class":"P","feature_code":"PPLA2","country_code":"RO","cc2":"","admin1_code":"08","admin2_code":"44060","admin3_code":"","admin4_code":"","population":"3852","elevation":"","dem":"6","timezone":"Europe/Bucharest","modification_date":"2012-06-12"},{"geonameid":"666340","name":"Spiru Haret","asciiname":"Spiru Haret","alternatenames":["Geormaneasa","Geormăneasa","Spiru Haret"],"latitude":"44.86715","longitude":"27.74463","feature_class":"P","feature_code":"PPL","country_code":"RO","cc2":"RO","admin1_code":"08","admin2_code":"42842","admin3_code":"","admin4_code":"","population":"1606","elevation":"","dem":"15","timezone":"Europe/Bucharest","modification_date":"2013-04-21"},{"geonameid":"667188","name":"Siliştea","asciiname":"Silistea","alternatenames":["Nazaru","Nazarul","Naziru","Nazâru","Nazârul","Nazîru","Silistea","Siliştea"],"latitude":"45.3","longitude":"27.85","feature_class":"P","feature_code":"PPLA2","country_code":"RO","cc2":"","admin1_code":"08","admin2_code":"43992","admin3_code":"","admin4_code":"","population":"1855","elevation":"","dem":"10","timezone":"Europe/Bucharest","modification_date":"2012-06-12"},{"geonameid":"667588","name":"Scorțaru Vechi","asciiname":"Scortaru Vechi","alternatenames":["Scortaru","Scortaru Vechi","Scortaru Vechiu","Scortarul Vechi","Scorţaru","Scorţaru Vechi","Scorţaru Vechiu","Scorţarul Vechi"],"latitude":"45.21886","longitude":"27.75489","feature_class":"P","feature_code":"PPL","country_code":"RO","cc2":"RO","admin1_code":"08","admin2_code":"44257","admin3_code":"","admin4_code":"","population":"1121","elevation":"","dem":"15","timezone":"Europe/Bucharest","modification_date":"2013-04-21"},{"geonameid":"667590","name":"Scorţaru Nou","asciiname":"Scortaru Nou","alternatenames":["Scortaru Nou","Scortarul Nou","Scorţaru Nou","Scorţarul Nou"],"latitude":"45.31667","longitude":"27.6","feature_class":"P","feature_code":"PPLA2","country_code":"RO","cc2":"","admin1_code":"08","admin2_code":"43929","admin3_code":"","admin4_code":"","population":"1483","elevation":"","dem":"15","timezone":"Europe/Bucharest","modification_date":"2012-06-12"},{"geonameid":"668198","name":"Salcia Tudor","asciiname":"Salcia Tudor","alternatenames":["Domnita Ileana","Domniţa Ileana","Salcia Tudor","Tudor Vladimirescu"],"latitude":"45.36667","longitude":"27.51667","feature_class":"P","feature_code":"PPLA2","country_code":"RO","cc2":"","admin1_code":"08","admin2_code":"43867","admin3_code":"","admin4_code":"","population":"3017","elevation":"","dem":"18","timezone":"Europe/Bucharest","modification_date":"2012-06-12"},{"geonameid":"668620","name":"Roşiori","asciiname":"Rosiori","alternatenames":[""],"latitude":"44.8","longitude":"27.38333","feature_class":"P","feature_code":"PPLA2","country_code":"RO","cc2":"","admin1_code":"08","admin2_code":"43812","admin3_code":"","admin4_code":"","population":"3083","elevation":"","dem":"40","timezone":"Europe/Bucharest","modification_date":"2012-06-12"},{"geonameid":"668723","name":"Romanu","asciiname":"Romanu","alternatenames":["Romanu","Romanul"],"latitude":"45.28333","longitude":"27.73333","feature_class":"P","feature_code":"PPLA2","country_code":"RO","cc2":"","admin1_code":"08","admin2_code":"43787","admin3_code":"","admin4_code":"","population":"1913","elevation":"","dem":"8","timezone":"Europe/Bucharest","modification_date":"2012-06-12"},{"geonameid":"675590","name":"Însurăţei","asciiname":"Insuratei","alternatenames":["Insuratei","Însurăţei"],"latitude":"44.91667","longitude":"27.6","feature_class":"P","feature_code":"PPLA2","country_code":"RO","cc2":"","admin1_code":"08","admin2_code":"43411","admin3_code":"","admin4_code":"","population":"7309","elevation":"","dem":"25","timezone":"Europe/Bucharest","modification_date":"2012-06-12"},{"geonameid":"675840","name":"Ianca","asciiname":"Ianca","alternatenames":["Ianca"],"latitude":"45.13333","longitude":"27.45","feature_class":"P","feature_code":"PPLA2","country_code":"RO","cc2":"","admin1_code":"08","admin2_code":"43331","admin3_code":"","admin4_code":"","population":"11209","elevation":"","dem":"31","timezone":"Europe/Bucharest","modification_date":"2012-06-12"},{"geonameid":"682020","name":"Chiscani","asciiname":"Chiscani","alternatenames":["Chiscani"],"latitude":"45.18333","longitude":"27.93333","feature_class":"P","feature_code":"PPLA2","country_code":"RO","cc2":"","admin1_code":"08","admin2_code":"42708","admin3_code":"","admin4_code":"","population":"5294","elevation":"","dem":"10","timezone":"Europe/Bucharest","modification_date":"2012-06-12"},{"geonameid":"683902","name":"Brăila","asciiname":"Braila","alternatenames":["Braila","Brailov","Braiła","Brăila","Ibrail","Браила","בראילה"],"latitude":"45.26667","longitude":"27.98333","feature_class":"P","feature_code":"PPLA","country_code":"RO","cc2":"","admin1_code":"08","admin2_code":"42682","admin3_code":"","admin4_code":"","population":"213569","elevation":"","dem":"3","timezone":"Europe/Bucharest","modification_date":"2012-12-18"}]}