{"region_data":{"countryId":"203312","adminCode1":"02","countryName":"Democratic Republic of the Congo","fclName":"country, state, region,...","countryCode":"CD","lng":"20.5","fcodeName":"first-order administrative division","toponymName":"Province de l’Équateur","fcl":"A","numberOfChildren":6,"name":"Province de l’Équateur","fcode":"ADM1","geonameId":216661,"lat":"1","adminName1":"Équateur","population":7500000},"country_data":{"ISO":"CD","ISO3":"COD","ISO_Numeric":"180","fips":"CG","country":"Democratic Republic of the Congo","capital":"Kinshasa","area":"2345410","Population":"70916439","Continent":"AF","tld":".cd","CurrencyCode":"CDF","CurrencyName":"Franc","Phone":"243","Postal_Code_Format":"","Postal_Code_Regex":"","Languages":"fr-CD,ln,kg","geonameid":"203312","neighbours":"TZ,CF,SS,RW,ZM,BI,UG,CG,AO","EquivalentFipsCode":""},"cities":[{"geonameid":"211734","name":"Lisala","asciiname":"Lisala","alternatenames":["LIQ","Lisala","Lisale","Lizala","Лисале"],"latitude":"2.15127","longitude":"21.51672","feature_class":"P","feature_code":"PPL","country_code":"CD","cc2":"","admin1_code":"02","admin2_code":"","admin3_code":"","admin4_code":"","population":"70087","elevation":"","dem":"418","timezone":"Africa/Kinshasa","modification_date":"2012-05-31"},{"geonameid":"216404","name":"Gbadolite","asciiname":"Gbadolite","alternatenames":["BDT","Bado","Badolite","Gbadolite","Гбадолите"],"latitude":"4.279","longitude":"21.00284","feature_class":"P","feature_code":"PPL","country_code":"CD","cc2":"","admin1_code":"02","admin2_code":"","admin3_code":"","admin4_code":"","population":"50493","elevation":"","dem":"416","timezone":"Africa/Kinshasa","modification_date":"2012-04-05"},{"geonameid":"217637","name":"Businga","asciiname":"Businga","alternatenames":["Businga"],"latitude":"3.33863","longitude":"20.88577","feature_class":"P","feature_code":"PPL","country_code":"CD","cc2":"","admin1_code":"02","admin2_code":"","admin3_code":"","admin4_code":"","population":"28919","elevation":"","dem":"362","timezone":"Africa/Kinshasa","modification_date":"2012-04-05"},{"geonameid":"217745","name":"Bumba","asciiname":"Bumba","alternatenames":["BMB","Bumba","Бумба"],"latitude":"2.18771","longitude":"22.46827","feature_class":"P","feature_code":"PPL","country_code":"CD","cc2":"","admin1_code":"02","admin2_code":"","admin3_code":"","admin4_code":"","population":"95520","elevation":"","dem":"362","timezone":"Africa/Kinshasa","modification_date":"2012-05-05"},{"geonameid":"218229","name":"Bongandanga","asciiname":"Bongandanga","alternatenames":["Bongandanga"],"latitude":"1.50695","longitude":"21.0726","feature_class":"P","feature_code":"PPL","country_code":"CD","cc2":"","admin1_code":"02","admin2_code":"","admin3_code":"","admin4_code":"","population":"4105","elevation":"","dem":"389","timezone":"Africa/Kinshasa","modification_date":"2012-04-05"},{"geonameid":"218680","name":"Boende","asciiname":"Boende","alternatenames":["BNB","Boende"],"latitude":"-0.28163","longitude":"20.88053","feature_class":"P","feature_code":"PPL","country_code":"CD","cc2":"","admin1_code":"02","admin2_code":"","admin3_code":"","admin4_code":"","population":"32091","elevation":"","dem":"349","timezone":"Africa/Kinshasa","modification_date":"2013-04-21"},{"geonameid":"2312895","name":"Mbandaka","asciiname":"Mbandaka","alternatenames":["Bandaka","Cocquilhatville","Coquilhalville","Coquilhatstad","Coquilhatville","MDK","Mbandaka","Mbándáká","Wangata","eumbandaka","mu ban da ka","mubandaka","Мбандака","ムバンダカ","姆班达卡","음반다카"],"latitude":"0.04865","longitude":"18.26034","feature_class":"P","feature_code":"PPLA","country_code":"CD","cc2":"","admin1_code":"02","admin2_code":"","admin3_code":"","admin4_code":"","population":"184185","elevation":"","dem":"315","timezone":"Africa/Kinshasa","modification_date":"2015-05-31"},{"geonameid":"2313371","name":"Lukolela","asciiname":"Lukolela","alternatenames":[""],"latitude":"-1.06046","longitude":"17.1821","feature_class":"P","feature_code":"PPL","country_code":"CD","cc2":"","admin1_code":"02","admin2_code":"","admin3_code":"","admin4_code":"","population":"15000","elevation":"","dem":"316","timezone":"Africa/Kinshasa","modification_date":"2013-06-07"},{"geonameid":"2313762","name":"Libenge","asciiname":"Libenge","alternatenames":["LIE","Libenge"],"latitude":"3.65332","longitude":"18.63566","feature_class":"P","feature_code":"PPL","country_code":"CD","cc2":"","admin1_code":"02","admin2_code":"","admin3_code":"","admin4_code":"","population":"27053","elevation":"","dem":"358","timezone":"Africa/Kinshasa","modification_date":"2012-05-05"},{"geonameid":"2315728","name":"Gemena","asciiname":"Gemena","alternatenames":["GMA","Gemena","Gemene","Гемене"],"latitude":"3.25651","longitude":"19.77234","feature_class":"P","feature_code":"PPL","country_code":"CD","cc2":"","admin1_code":"02","admin2_code":"","admin3_code":"","admin4_code":"","population":"117639","elevation":"","dem":"420","timezone":"Africa/Kinshasa","modification_date":"2012-04-05"},{"geonameid":"2316473","name":"Bosobolo","asciiname":"Bosobolo","alternatenames":["Bosobolo"],"latitude":"4.1898","longitude":"19.8833","feature_class":"P","feature_code":"PPL","country_code":"CD","cc2":"","admin1_code":"02","admin2_code":"","admin3_code":"","admin4_code":"","population":"14553","elevation":"","dem":"442","timezone":"Africa/Kinshasa","modification_date":"2012-04-05"}]}