{"region_data":{"countryId":"1861060","adminCode1":"06","countryName":"Japan","fclName":"country, state, region,...","countryCode":"JP","lng":"136.22517","fcodeName":"first-order administrative division","toponymName":"Fukui-ken","fcl":"A","numberOfChildren":16,"name":"Fukui","fcode":"ADM1","geonameId":1863983,"lat":"35.8501","adminName1":"Fukui","population":0},"country_data":{"ISO":"JP","ISO3":"JPN","ISO_Numeric":"392","fips":"JA","country":"Japan","capital":"Tokyo","area":"377835","Population":"127288000","Continent":"AS","tld":".jp","CurrencyCode":"JPY","CurrencyName":"Yen","Phone":"81","Postal_Code_Format":"###-####","Postal_Code_Regex":"^(\\d{7})$","Languages":"ja","geonameid":"1861060","neighbours":"","EquivalentFipsCode":""},"cities":[{"geonameid":"1849592","name":"Tsuruga","asciiname":"Tsuruga","alternatenames":["Curuga","Tsuruga","Turuga","dun he shi","sseuluga si","Цуруга","敦賀市","쓰루가 시"],"latitude":"35.64547","longitude":"136.0558","feature_class":"P","feature_code":"PPL","country_code":"JP","cc2":"","admin1_code":"06","admin2_code":"","admin3_code":"","admin4_code":"","population":"68482","elevation":"","dem":"6","timezone":"Asia/Tokyo","modification_date":"2008-10-25"},{"geonameid":"1850872","name":"Takefu","asciiname":"Takefu","alternatenames":["Takebo","Takebu","Takefu","Takehu","wu sheng shi","武生市"],"latitude":"35.90393","longitude":"136.16687","feature_class":"P","feature_code":"PPL","country_code":"JP","cc2":"","admin1_code":"06","admin2_code":"","admin3_code":"","admin4_code":"","population":"75753","elevation":"","dem":"34","timezone":"Asia/Tokyo","modification_date":"2008-10-25"},{"geonameid":"1853338","name":"Sabae","asciiname":"Sabae","alternatenames":["Sabae","qing jiang shi","鯖江市"],"latitude":"35.94647","longitude":"136.18498","feature_class":"P","feature_code":"PPL","country_code":"JP","cc2":"","admin1_code":"06","admin2_code":"","admin3_code":"","admin4_code":"","population":"66291","elevation":"","dem":"27","timezone":"Asia/Tokyo","modification_date":"2008-10-24"},{"geonameid":"1854022","name":"Ono","asciiname":"Ono","alternatenames":["Ono","Оно"],"latitude":"35.98106","longitude":"136.48727","feature_class":"P","feature_code":"PPL","country_code":"JP","cc2":"","admin1_code":"06","admin2_code":"","admin3_code":"","admin4_code":"","population":"37469","elevation":"","dem":"175","timezone":"Asia/Tokyo","modification_date":"2010-01-29"},{"geonameid":"1854849","name":"Obama","asciiname":"Obama","alternatenames":["Obama","Ohama","xiao bang","Обама","小浜"],"latitude":"35.49576","longitude":"135.74604","feature_class":"P","feature_code":"PPL","country_code":"JP","cc2":"","admin1_code":"06","admin2_code":"","admin3_code":"","admin4_code":"","population":"32896","elevation":"","dem":"3","timezone":"Asia/Tokyo","modification_date":"2012-11-04"},{"geonameid":"1857260","name":"Mikuni","asciiname":"Mikuni","alternatenames":[""],"latitude":"36.21706","longitude":"136.15185","feature_class":"P","feature_code":"PPL","country_code":"JP","cc2":"","admin1_code":"06","admin2_code":"","admin3_code":"","admin4_code":"","population":"23480","elevation":"","dem":"10","timezone":"Asia/Tokyo","modification_date":"2008-11-24"},{"geonameid":"1857651","name":"Maruoka","asciiname":"Maruoka","alternatenames":[""],"latitude":"36.1534","longitude":"136.27029","feature_class":"P","feature_code":"PPL","country_code":"JP","cc2":"","admin1_code":"06","admin2_code":"","admin3_code":"","admin4_code":"","population":"33563","elevation":"","dem":"13","timezone":"Asia/Tokyo","modification_date":"2008-10-25"},{"geonameid":"1859765","name":"Katsuyama","asciiname":"Katsuyama","alternatenames":[""],"latitude":"36.06173","longitude":"136.50101","feature_class":"P","feature_code":"PPL","country_code":"JP","cc2":"","admin1_code":"06","admin2_code":"","admin3_code":"","admin4_code":"","population":"27088","elevation":"","dem":"130","timezone":"Asia/Tokyo","modification_date":"2008-10-25"},{"geonameid":"1863985","name":"Fukui-shi","asciiname":"Fukui-shi","alternatenames":["Fukuj","fu jing shi","fukuishi","Фукуй","ふくいし","福井市"],"latitude":"36.06443","longitude":"136.22257","feature_class":"P","feature_code":"PPLA","country_code":"JP","cc2":"","admin1_code":"06","admin2_code":"","admin3_code":"","admin4_code":"","population":"248707","elevation":"","dem":"15","timezone":"Asia/Tokyo","modification_date":"2014-02-27"}]}