{"region_data":{"countryId":"1861060","adminCode1":"15","countryName":"Japan","fclName":"country, state, region,...","countryCode":"JP","lng":"136.7705","fcodeName":"first-order administrative division","toponymName":"Ishikawa-ken","fcl":"A","numberOfChildren":16,"name":"Ishikawa","fcode":"ADM1","geonameId":1861387,"lat":"36.77145","adminName1":"Ishikawa","population":0},"country_data":{"ISO":"JP","ISO3":"JPN","ISO_Numeric":"392","fips":"JA","country":"Japan","capital":"Tokyo","area":"377835","Population":"127288000","Continent":"AS","tld":".jp","CurrencyCode":"JPY","CurrencyName":"Yen","Phone":"81","Postal_Code_Format":"###-####","Postal_Code_Regex":"^(\\d{7})$","Languages":"ja","geonameid":"1861060","neighbours":"","EquivalentFipsCode":""},"cities":[{"geonameid":"1849584","name":"Tsurugi-asahimachi","asciiname":"Tsurugi-asahimachi","alternatenames":["Tsurugi","Tsurugi-asahimachi","he lai chao ri ding","鶴来朝日町"],"latitude":"36.45","longitude":"136.63333","feature_class":"P","feature_code":"PPL","country_code":"JP","cc2":"","admin1_code":"15","admin2_code":"","admin3_code":"","admin4_code":"","population":"22042","elevation":"","dem":"159","timezone":"Asia/Tokyo","modification_date":"2014-01-13"},{"geonameid":"1849782","name":"Tsubata","asciiname":"Tsubata","alternatenames":["Tsubata","jin fan","津幡"],"latitude":"36.67012","longitude":"136.7403","feature_class":"P","feature_code":"PPL","country_code":"JP","cc2":"","admin1_code":"15","admin2_code":"","admin3_code":"","admin4_code":"","population":"38644","elevation":"","dem":"10","timezone":"Asia/Tokyo","modification_date":"2014-01-13"},{"geonameid":"1854979","name":"Nonoichi","asciiname":"Nonoichi","alternatenames":["Nonoichi","Ноноичи"],"latitude":"36.53333","longitude":"136.61667","feature_class":"P","feature_code":"PPL","country_code":"JP","cc2":"","admin1_code":"15","admin2_code":"","admin3_code":"","admin4_code":"","population":"48354","elevation":"","dem":"20","timezone":"Asia/Tokyo","modification_date":"2012-01-19"},{"geonameid":"1855670","name":"Nanao","asciiname":"Nanao","alternatenames":["Nanao","Нанао"],"latitude":"37.05","longitude":"136.96667","feature_class":"P","feature_code":"PPL","country_code":"JP","cc2":"","admin1_code":"15","admin2_code":"","admin3_code":"","admin4_code":"","population":"45309","elevation":"","dem":"1","timezone":"Asia/Tokyo","modification_date":"2012-01-19"},{"geonameid":"1857470","name":"Matsutō","asciiname":"Matsuto","alternatenames":["Matsuto","Matsutō","Matto","Mattō"],"latitude":"36.51667","longitude":"136.56667","feature_class":"P","feature_code":"PPL","country_code":"JP","cc2":"","admin1_code":"15","admin2_code":"","admin3_code":"","admin4_code":"","population":"68159","elevation":"","dem":"27","timezone":"Asia/Tokyo","modification_date":"2012-01-19"},{"geonameid":"1858910","name":"Komatsu","asciiname":"Komatsu","alternatenames":["KMQ"],"latitude":"36.40263","longitude":"136.45088","feature_class":"P","feature_code":"PPL","country_code":"JP","cc2":"","admin1_code":"15","admin2_code":"","admin3_code":"","admin4_code":"","population":"109045","elevation":"","dem":"7","timezone":"Asia/Tokyo","modification_date":"2013-03-25"},{"geonameid":"1860243","name":"Kanazawa-shi","asciiname":"Kanazawa-shi","alternatenames":["Canasava","Kanadzava","Kanazaua","Kanazawa","Kanazawa-shi","Kanazawa-si","Kanazaŭa","ganajawa si","jin ze shi","kanazawashi","Канадзава","かなざわし","金沢市","金澤市","가나자와 시"],"latitude":"36.59445","longitude":"136.62556","feature_class":"P","feature_code":"PPLA","country_code":"JP","cc2":"","admin1_code":"15","admin2_code":"","admin3_code":"","admin4_code":"","population":"458937","elevation":"","dem":"5","timezone":"Asia/Tokyo","modification_date":"2012-01-19"},{"geonameid":"1863341","name":"Hakui","asciiname":"Hakui","alternatenames":["Hagui","Hakui"],"latitude":"36.88333","longitude":"136.78333","feature_class":"P","feature_code":"PPL","country_code":"JP","cc2":"","admin1_code":"15","admin2_code":"","admin3_code":"","admin4_code":"","population":"24529","elevation":"","dem":"6","timezone":"Asia/Tokyo","modification_date":"2012-01-19"}]}