{"region_data":{"countryId":"1861060","adminCode1":"16","countryName":"Japan","fclName":"country, state, region,...","countryCode":"JP","lng":"141.35971","fcodeName":"first-order administrative division","toponymName":"Iwate-ken","fcl":"A","numberOfChildren":23,"name":"Iwate","fcode":"ADM1","geonameId":2112518,"lat":"39.59601","adminName1":"Iwate","population":0},"country_data":{"ISO":"JP","ISO3":"JPN","ISO_Numeric":"392","fips":"JA","country":"Japan","capital":"Tokyo","area":"377835","Population":"127288000","Continent":"AS","tld":".jp","CurrencyCode":"JPY","CurrencyName":"Yen","Phone":"81","Postal_Code_Format":"###-####","Postal_Code_Regex":"^(\\d{7})$","Languages":"ja","geonameid":"1861060","neighbours":"","EquivalentFipsCode":""},"cities":[{"geonameid":"2110560","name":"Yamada","asciiname":"Yamada","alternatenames":["Jamada","Yamada","Yamatamachi","Ямада"],"latitude":"39.46667","longitude":"141.95","feature_class":"P","feature_code":"PPL","country_code":"JP","cc2":"","admin1_code":"16","admin2_code":"","admin3_code":"","admin4_code":"","population":"20144","elevation":"","dem":"4","timezone":"Asia/Tokyo","modification_date":"2012-01-19"},{"geonameid":"2110735","name":"Tōno","asciiname":"Tono","alternatenames":["Nambu","Tona","Tono","Tōno","Тона"],"latitude":"39.31667","longitude":"141.53333","feature_class":"P","feature_code":"PPL","country_code":"JP","cc2":"","admin1_code":"16","admin2_code":"","admin3_code":"","admin4_code":"","population":"26781","elevation":"","dem":"328","timezone":"Asia/Tokyo","modification_date":"2012-01-19"},{"geonameid":"2110994","name":"Shizukuishi","asciiname":"Shizukuishi","alternatenames":["Shizukuishi","na shi","雫石"],"latitude":"39.69414","longitude":"140.98442","feature_class":"P","feature_code":"PPL","country_code":"JP","cc2":"","admin1_code":"16","admin2_code":"","admin3_code":"","admin4_code":"","population":"19866","elevation":"","dem":"192","timezone":"Asia/Tokyo","modification_date":"2013-07-06"},{"geonameid":"2111310","name":"Ōtsuchi","asciiname":"Otsuchi","alternatenames":["Otsuchi","Ozuchi","Ozuti","Ōtsuchi"],"latitude":"39.36667","longitude":"141.9","feature_class":"P","feature_code":"PPL","country_code":"JP","cc2":"","admin1_code":"16","admin2_code":"","admin3_code":"","admin4_code":"","population":"16497","elevation":"","dem":"5","timezone":"Asia/Tokyo","modification_date":"2012-01-19"},{"geonameid":"2111530","name":"Ōfunato","asciiname":"Ofunato","alternatenames":["Ofunato","da chuan du","Ōfunato","大船渡"],"latitude":"39.07167","longitude":"141.71667","feature_class":"P","feature_code":"PPL","country_code":"JP","cc2":"","admin1_code":"16","admin2_code":"","admin3_code":"","admin4_code":"","population":"35418","elevation":"","dem":"7","timezone":"Asia/Tokyo","modification_date":"2012-01-19"},{"geonameid":"2111834","name":"Morioka-shi","asciiname":"Morioka-shi","alternatenames":["Morioka","Morioka-shi","molioka si","moriokashi","sheng gang shi","Мориока","もりおかし","盛岡市","모리오카 시"],"latitude":"39.70361","longitude":"141.1525","feature_class":"P","feature_code":"PPLA","country_code":"JP","cc2":"","admin1_code":"16","admin2_code":"","admin3_code":"","admin4_code":"","population":"295172","elevation":"","dem":"141","timezone":"Asia/Tokyo","modification_date":"2012-01-19"},{"geonameid":"2111859","name":"Mizusawa","asciiname":"Mizusawa","alternatenames":["Midzusava","Mizusawa","Mizuzawa","Мидзусава"],"latitude":"39.13333","longitude":"141.13333","feature_class":"P","feature_code":"PPL","country_code":"JP","cc2":"","admin1_code":"16","admin2_code":"","admin3_code":"","admin4_code":"","population":"61281","elevation":"","dem":"64","timezone":"Asia/Tokyo","modification_date":"2012-01-19"},{"geonameid":"2111884","name":"Miyako","asciiname":"Miyako","alternatenames":["Mijakas","Mijako","Miyako","Miyako-chhi","Miyako-chhī","gong gu shi","maykw  aywath","miyako si","myakw  aywath","Мияко","Міяко","مايكو، إيواته","میاکو، ایواته","宮古市","미야코 시"],"latitude":"39.64691","longitude":"141.94057","feature_class":"P","feature_code":"PPL","country_code":"JP","cc2":"","admin1_code":"16","admin2_code":"","admin3_code":"","admin4_code":"","population":"51721","elevation":"","dem":"10","timezone":"Asia/Tokyo","modification_date":"2014-04-06"},{"geonameid":"2112227","name":"Kitakami","asciiname":"Kitakami","alternatenames":["Kitakami","bei shang shi","Китаками","北上市"],"latitude":"39.28333","longitude":"141.11667","feature_class":"P","feature_code":"PPL","country_code":"JP","cc2":"","admin1_code":"16","admin2_code":"","admin3_code":"","admin4_code":"","population":"93854","elevation":"","dem":"63","timezone":"Asia/Tokyo","modification_date":"2012-01-19"},{"geonameid":"2112444","name":"Kamaishi","asciiname":"Kamaishi","alternatenames":["Kamaischi","Kamaishi","Kamaisi","Kamaisi-chhi","Kamaisi-chhī","Kamaisis","Kamaisyi","Kamaiši","Kamaišis","fu shi","fu shi shi","gamaisi si","kamaayshy  aywath","kamayshy  aywath","Камаиси","Камаиши","Камаїсі","كامايشي، إيواته","کاماایشی، ایواته","釜石","釜石市","가마이시 시"],"latitude":"39.27694","longitude":"141.86801","feature_class":"P","feature_code":"PPL","country_code":"JP","cc2":"","admin1_code":"16","admin2_code":"","admin3_code":"","admin4_code":"","population":"43107","elevation":"","dem":"25","timezone":"Asia/Tokyo","modification_date":"2014-04-06"},{"geonameid":"2112656","name":"Ichinoseki","asciiname":"Ichinoseki","alternatenames":["Ichinoseki","Itinoseki","Itschinoseki"],"latitude":"38.91667","longitude":"141.13333","feature_class":"P","feature_code":"PPL","country_code":"JP","cc2":"","admin1_code":"16","admin2_code":"","admin3_code":"","admin4_code":"","population":"62970","elevation":"","dem":"30","timezone":"Asia/Tokyo","modification_date":"2012-01-19"},{"geonameid":"2112823","name":"Hanamaki","asciiname":"Hanamaki","alternatenames":["HNA","Hanamaki","hua juan shi","花巻市"],"latitude":"39.38333","longitude":"141.11667","feature_class":"P","feature_code":"PPL","country_code":"JP","cc2":"","admin1_code":"16","admin2_code":"","admin3_code":"","admin4_code":"","population":"73115","elevation":"","dem":"77","timezone":"Asia/Tokyo","modification_date":"2012-01-19"},{"geonameid":"2129961","name":"Ichinohe","asciiname":"Ichinohe","alternatenames":["Ehinohe","Ichinobe","Ichinohe","Itinohe","Itschinohe","ichinohe","yi hu","いちのへ","イチノヘ","一戸"],"latitude":"40.21965","longitude":"141.28986","feature_class":"P","feature_code":"PPL","country_code":"JP","cc2":"","admin1_code":"16","admin2_code":"","admin3_code":"","admin4_code":"","population":"15825","elevation":"","dem":"243","timezone":"Asia/Tokyo","modification_date":"2013-05-09"}]}