{"region_data":{"countryId":"1861060","adminCode1":"36","countryName":"Japan","fclName":"country, state, region,...","countryCode":"JP","lng":"132.56111","fcodeName":"first-order administrative division","toponymName":"Shimane-ken","fcl":"A","numberOfChildren":13,"name":"Shimane","fcode":"ADM1","geonameId":1852442,"lat":"35.07693","adminName1":"Shimane","population":712336},"country_data":{"ISO":"JP","ISO3":"JPN","ISO_Numeric":"392","fips":"JA","country":"Japan","capital":"Tokyo","area":"377835","Population":"127288000","Continent":"AS","tld":".jp","CurrencyCode":"JPY","CurrencyName":"Yen","Phone":"81","Postal_Code_Format":"###-####","Postal_Code_Regex":"^(\\d{7})$","Languages":"ja","geonameid":"1861060","neighbours":"","EquivalentFipsCode":""},"cities":[{"geonameid":"1848482","name":"Yasugichō","asciiname":"Yasugicho","alternatenames":["Yasugi","Yasugicho","Yasugichō","an lai ding","安来町"],"latitude":"35.42146","longitude":"133.24224","feature_class":"P","feature_code":"PPL","country_code":"JP","cc2":"","admin1_code":"36","admin2_code":"","admin3_code":"","admin4_code":"","population":"29368","elevation":"","dem":"2","timezone":"Asia/Tokyo","modification_date":"2013-10-07"},{"geonameid":"1853174","name":"Sakaiminato","asciiname":"Sakaiminato","alternatenames":["Sakae","Sakai","Sakaiminato"],"latitude":"35.55","longitude":"133.23333","feature_class":"P","feature_code":"PPL","country_code":"JP","cc2":"","admin1_code":"36","admin2_code":"","admin3_code":"","admin4_code":"","population":"36324","elevation":"","dem":"0","timezone":"Asia/Tokyo","modification_date":"2014-04-30"},{"geonameid":"1854774","name":"Ōdachō-ōda","asciiname":"Odacho-oda","alternatenames":["Oda","Odacho-oda","Ota","da tian ding da tian","da tian shi","Ōda","Ōdachō-ōda","Ōta","Ода","大田市","大田町大田"],"latitude":"35.19025","longitude":"132.50846","feature_class":"P","feature_code":"PPL","country_code":"JP","cc2":"","admin1_code":"36","admin2_code":"","admin3_code":"","admin4_code":"","population":"31867","elevation":"","dem":"27","timezone":"Asia/Tokyo","modification_date":"2013-10-07"},{"geonameid":"1857550","name":"Matsue-shi","asciiname":"Matsue-shi","alternatenames":["Macueh","Matsu","Matsue-shi","Matue","matsueshi","song jiang shi","Мацуэ","まつえし","松江市"],"latitude":"35.47222","longitude":"133.05056","feature_class":"P","feature_code":"PPLA","country_code":"JP","cc2":"","admin1_code":"36","admin2_code":"","admin3_code":"","admin4_code":"","population":"156811","elevation":"","dem":"6","timezone":"Asia/Tokyo","modification_date":"2012-01-19"},{"geonameid":"1857594","name":"Masuda","asciiname":"Masuda","alternatenames":["IWJ","Masud","Masuda","Масуд"],"latitude":"34.66667","longitude":"131.85","feature_class":"P","feature_code":"PPL","country_code":"JP","cc2":"","admin1_code":"36","admin2_code":"","admin3_code":"","admin4_code":"","population":"48576","elevation":"","dem":"14","timezone":"Asia/Tokyo","modification_date":"2013-03-31"},{"geonameid":"1861084","name":"Izumo","asciiname":"Izumo","alternatenames":["IZO","Idzumo","Itsumo","Izumo","Идзумо"],"latitude":"35.36667","longitude":"132.76667","feature_class":"P","feature_code":"PPL","country_code":"JP","cc2":"","admin1_code":"36","admin2_code":"","admin3_code":"","admin4_code":"","population":"89286","elevation":"","dem":"6","timezone":"Asia/Tokyo","modification_date":"2012-01-19"},{"geonameid":"1862471","name":"Hiratachō","asciiname":"Hiratacho","alternatenames":["Hirata","Hiratacho","Hiratachō","ping tian ding","平田町"],"latitude":"35.43333","longitude":"132.81667","feature_class":"P","feature_code":"PPL","country_code":"JP","cc2":"","admin1_code":"36","admin2_code":"","admin3_code":"","admin4_code":"","population":"28154","elevation":"","dem":"-1","timezone":"Asia/Tokyo","modification_date":"2013-10-07"},{"geonameid":"1863310","name":"Hamada","asciiname":"Hamada","alternatenames":["Hamada","Khamada","Хамада"],"latitude":"34.88333","longitude":"132.08333","feature_class":"P","feature_code":"PPL","country_code":"JP","cc2":"","admin1_code":"36","admin2_code":"","admin3_code":"","admin4_code":"","population":"45750","elevation":"","dem":"142","timezone":"Asia/Tokyo","modification_date":"2012-01-19"},{"geonameid":"1863521","name":"Gōtsuchō","asciiname":"Gotsucho","alternatenames":["Gatsu","Gotsu","Gotsucho","Gotu","Gozu","Gōtsu","Gōtsuchō","Gōtu","Gōzu","jiang jin ding","江津町"],"latitude":"35.00856","longitude":"132.2257","feature_class":"P","feature_code":"PPL","country_code":"JP","cc2":"","admin1_code":"36","admin2_code":"","admin3_code":"","admin4_code":"","population":"24597","elevation":"","dem":"31","timezone":"Asia/Tokyo","modification_date":"2013-10-07"}]}