{"country_data":{"ISO":"AM","ISO3":"ARM","ISO_Numeric":"051","fips":"AM","country":"Armenia","capital":"Yerevan","area":"29800","Population":"2968000","Continent":"AS","tld":".am","CurrencyCode":"AMD","CurrencyName":"Dram","Phone":"374","Postal_Code_Format":"######","Postal_Code_Regex":"^(\\d{6})$","Languages":"hy","geonameid":"174982","neighbours":"GE,IR,AZ,TR","EquivalentFipsCode":""},"regions":[{"adminCode1":"01","lng":"44.16667","geonameId":828259,"toponymName":"Aragatsotni Marz","countryId":"174982","fcl":"A","population":132925,"numberOfChildren":1,"countryCode":"AM","name":"Aragatsotni Marz","fclName":"country, state, region,...","countryName":"Armenia","fcodeName":"first-order administrative division","adminName1":"Aragatsotn","lat":"40.41667","fcode":"ADM1"},{"adminCode1":"02","lng":"44.83333","geonameId":409313,"toponymName":"Ararati Marz","countryId":"174982","fcl":"A","population":260367,"countryCode":"AM","name":"Ararati Marz","fclName":"country, state, region,...","countryName":"Armenia","fcodeName":"first-order administrative division","adminName1":"Ararat","lat":"39.91667","fcode":"ADM1"},{"adminCode1":"03","lng":"44","geonameId":828260,"toponymName":"Armaviri Marz","countryId":"174982","fcl":"A","population":265770,"countryCode":"AM","name":"Armaviri Marz","fclName":"country, state, region,...","countryName":"Armenia","fcodeName":"first-order administrative division","adminName1":"Armavir","lat":"40.11667","fcode":"ADM1"},{"adminCode1":"04","lng":"45.41667","geonameId":828261,"toponymName":"Geghark’unik’i Marz","countryId":"174982","fcl":"A","population":235075,"numberOfChildren":1,"countryCode":"AM","name":"Geghark’unik’i Marz","fclName":"country, state, region,...","countryName":"Armenia","fcodeName":"first-order administrative division","adminName1":"Gegharkʼunikʼ","lat":"40.25","fcode":"ADM1"},{"adminCode1":"05","lng":"44.75","geonameId":828262,"toponymName":"Kotayk’i Marz","countryId":"174982","fcl":"A","population":254397,"countryCode":"AM","name":"Kotayk’i Marz","fclName":"country, state, region,...","countryName":"Armenia","fcodeName":"first-order administrative division","adminName1":"Kotaykʼ","lat":"40.41667","fcode":"ADM1"},{"adminCode1":"06","lng":"44.5","geonameId":828263,"toponymName":"Lorru Marz","countryId":"174982","fcl":"A","population":235537,"countryCode":"AM","name":"Lorru Marz","fclName":"country, state, region,...","countryName":"Armenia","fcodeName":"first-order administrative division","adminName1":"Lorri","lat":"41","fcode":"ADM1"},{"adminCode1":"07","lng":"43.83333","geonameId":828264,"toponymName":"Shiraki Marz","countryId":"174982","fcl":"A","population":251941,"countryCode":"AM","name":"Shiraki Marz","fclName":"country, state, region,...","countryName":"Armenia","fcodeName":"first-order administrative division","adminName1":"Shirak","lat":"40.75","fcode":"ADM1"},{"adminCode1":"08","lng":"46.25","geonameId":409314,"toponymName":"Syunik’i Marz","countryId":"174982","fcl":"A","population":141771,"numberOfChildren":1,"countryCode":"AM","name":"Syunik’i Marz","fclName":"country, state, region,...","countryName":"Armenia","fcodeName":"first-order administrative division","adminName1":"Syunikʼ","lat":"39.33333","fcode":"ADM1"},{"adminCode1":"09","lng":"45.16667","geonameId":828265,"toponymName":"Tavushi Marz","countryId":"174982","fcl":"A","population":128609,"countryCode":"AM","name":"Tavushi Marz","fclName":"country, state, region,...","countryName":"Armenia","fcodeName":"first-order administrative division","adminName1":"Tavush","lat":"40.91667","fcode":"ADM1"},{"adminCode1":"10","lng":"45.41667","geonameId":409315,"toponymName":"Vayots’ Dzori Marz","countryId":"174982","fcl":"A","population":52846,"numberOfChildren":1,"countryCode":"AM","name":"Vayots’ Dzori Marz","fclName":"country, state, region,...","countryName":"Armenia","fcodeName":"first-order administrative division","adminName1":"Vayotsʼ Dzor","lat":"39.75","fcode":"ADM1"},{"adminCode1":"11","lng":"44.5","geonameId":616051,"toponymName":"Yerevan","countryId":"174982","fcl":"A","population":1060138,"numberOfChildren":6,"countryCode":"AM","name":"Yerevan","fclName":"country, state, region,...","countryName":"Armenia","fcodeName":"first-order administrative division","adminName1":"Yerevan","lat":"40.18333","fcode":"ADM1"}]}