{"country_data":{"ISO":"BG","ISO3":"BGR","ISO_Numeric":"100","fips":"BU","country":"Bulgaria","capital":"Sofia","area":"110910","Population":"7148785","Continent":"EU","tld":".bg","CurrencyCode":"BGN","CurrencyName":"Lev","Phone":"359","Postal_Code_Format":"####","Postal_Code_Regex":"^(\\d{4})$","Languages":"bg,tr-BG,rom","geonameid":"732800","neighbours":"MK,GR,RO,TR,RS","EquivalentFipsCode":""},"regions":[{"countryId":"732800","adminCode1":"38","countryName":"Bulgaria","fclName":"country, state, region,...","countryCode":"BG","lng":"23.51667","fcodeName":"first-order administrative division","toponymName":"Blagoevgrad","fcl":"A","numberOfChildren":14,"name":"Blagoevgrad","fcode":"ADM1","geonameId":733192,"lat":"41.76667","adminName1":"Blagoevgrad","population":0},{"countryId":"732800","adminCode1":"39","countryName":"Bulgaria","fclName":"country, state, region,...","countryCode":"BG","lng":"27.3","fcodeName":"first-order administrative division","toponymName":"Burgas","fcl":"A","numberOfChildren":13,"name":"Burgas","fcode":"ADM1","geonameId":732771,"lat":"42.6","adminName1":"Burgas","population":0},{"countryId":"732800","adminCode1":"41","countryName":"Bulgaria","fclName":"country, state, region,...","countryCode":"BG","lng":"25.26667","fcodeName":"first-order administrative division","toponymName":"Gabrovo","fcl":"A","numberOfChildren":4,"name":"Gabrovo","fcode":"ADM1","geonameId":864552,"lat":"43","adminName1":"Gabrovo","population":122702},{"countryId":"732800","adminCode1":"46","countryName":"Bulgaria","fclName":"country, state, region,...","countryCode":"BG","lng":"24.58333","fcodeName":"first-order administrative division","toponymName":"Lovech","fcl":"A","numberOfChildren":8,"name":"Lovech","fcode":"ADM1","geonameId":729560,"lat":"43.06667","adminName1":"Lovech","population":0},{"countryId":"732800","adminCode1":"40","countryName":"Bulgaria","fclName":"country, state, region,...","countryCode":"BG","lng":"27.9","fcodeName":"first-order administrative division","toponymName":"Oblast Dobrich","fcl":"A","numberOfChildren":8,"name":"Oblast Dobrich","fcode":"ADM1","geonameId":726419,"lat":"43.68333","adminName1":"Dobrich","population":0},{"countryId":"732800","adminCode1":"43","countryName":"Bulgaria","fclName":"country, state, region,...","countryCode":"BG","lng":"25.93333","fcodeName":"first-order administrative division","toponymName":"Oblast Khaskovo","fcl":"A","numberOfChildren":11,"name":"Oblast Khaskovo","fcode":"ADM1","geonameId":730436,"lat":"41.76667","adminName1":"Khaskovo","population":0},{"countryId":"732800","adminCode1":"45","countryName":"Bulgaria","fclName":"country, state, region,...","countryCode":"BG","lng":"22.96667","fcodeName":"first-order administrative division","toponymName":"Oblast Kyustendil","fcl":"A","numberOfChildren":9,"name":"Oblast Kyustendil","fcode":"ADM1","geonameId":864554,"lat":"42.38333","adminName1":"Kyustendil","population":0},{"countryId":"732800","adminCode1":"44","countryName":"Bulgaria","fclName":"country, state, region,...","countryCode":"BG","lng":"25.46667","fcodeName":"first-order administrative division","toponymName":"Oblast Kŭrdzhali","fcl":"A","numberOfChildren":7,"name":"Oblast Kŭrdzhali","fcode":"ADM1","geonameId":864553,"lat":"41.58333","adminName1":"Kŭrdzhali","population":0},{"countryId":"732800","adminCode1":"47","countryName":"Bulgaria","fclName":"country, state, region,...","countryCode":"BG","lng":"23.18333","fcodeName":"first-order administrative division","toponymName":"Oblast Montana","fcl":"A","numberOfChildren":11,"name":"Oblast Montana","fcode":"ADM1","geonameId":453753,"lat":"43.5","adminName1":"Montana","population":0},{"countryId":"732800","adminCode1":"50","countryName":"Bulgaria","fclName":"country, state, region,...","countryCode":"BG","lng":"24.63333","fcodeName":"first-order administrative division","toponymName":"Oblast Pleven","fcl":"A","numberOfChildren":11,"name":"Oblast Pleven","fcode":"ADM1","geonameId":728204,"lat":"43.5","adminName1":"Pleven","population":0},{"countryId":"732800","adminCode1":"52","countryName":"Bulgaria","fclName":"country, state, region,...","countryCode":"BG","lng":"26.51667","fcodeName":"first-order administrative division","toponymName":"Oblast Razgrad","fcl":"A","numberOfChildren":7,"name":"Oblast Razgrad","fcode":"ADM1","geonameId":453751,"lat":"43.63333","adminName1":"Razgrad","population":0},{"countryId":"732800","adminCode1":"53","countryName":"Bulgaria","fclName":"country, state, region,...","countryCode":"BG","lng":"26","fcodeName":"first-order administrative division","toponymName":"Oblast Ruse","fcl":"A","numberOfChildren":8,"name":"Oblast Ruse","fcode":"ADM1","geonameId":727524,"lat":"43.7","adminName1":"Ruse","population":0},{"countryId":"732800","adminCode1":"54","countryName":"Bulgaria","fclName":"country, state, region,...","countryCode":"BG","lng":"27","fcodeName":"first-order administrative division","toponymName":"Oblast Shumen","fcl":"A","numberOfChildren":10,"name":"Oblast Shumen","fcode":"ADM1","geonameId":864555,"lat":"43.33333","adminName1":"Shumen","population":0},{"countryId":"732800","adminCode1":"55","countryName":"Bulgaria","fclName":"country, state, region,...","countryCode":"BG","lng":"27.05","fcodeName":"first-order administrative division","toponymName":"Oblast Silistra","fcl":"A","numberOfChildren":7,"name":"Oblast Silistra","fcode":"ADM1","geonameId":864556,"lat":"43.93333","adminName1":"Silistra","population":0},{"countryId":"732800","adminCode1":"56","countryName":"Bulgaria","fclName":"country, state, region,...","countryCode":"BG","lng":"26.28333","fcodeName":"first-order administrative division","toponymName":"Oblast Sliven","fcl":"A","numberOfChildren":4,"name":"Oblast Sliven","fcode":"ADM1","geonameId":864557,"lat":"42.66667","adminName1":"Sliven","population":0},{"countryId":"732800","adminCode1":"57","countryName":"Bulgaria","fclName":"country, state, region,...","countryCode":"BG","lng":"24.65","fcodeName":"first-order administrative division","toponymName":"Oblast Smolyan","fcl":"A","numberOfChildren":10,"name":"Oblast Smolyan","fcode":"ADM1","geonameId":864558,"lat":"41.61667","adminName1":"Smolyan","population":0},{"countryId":"732800","adminCode1":"59","countryName":"Bulgaria","fclName":"country, state, region,...","countryCode":"BG","lng":"25.6","fcodeName":"first-order administrative division","toponymName":"Oblast Stara Zagora","fcl":"A","numberOfChildren":11,"name":"Oblast Stara Zagora","fcode":"ADM1","geonameId":864559,"lat":"42.48333","adminName1":"Stara Zagora","population":0},{"countryId":"732800","adminCode1":"60","countryName":"Bulgaria","fclName":"country, state, region,...","countryCode":"BG","lng":"26.38333","fcodeName":"first-order administrative division","toponymName":"Oblast Tŭrgovishte","fcl":"A","numberOfChildren":5,"name":"Oblast Tŭrgovishte","fcode":"ADM1","geonameId":864560,"lat":"43.26667","adminName1":"Tŭrgovishte","population":0},{"countryId":"732800","adminCode1":"62","countryName":"Bulgaria","fclName":"country, state, region,...","countryCode":"BG","lng":"25.65","fcodeName":"first-order administrative division","toponymName":"Oblast Veliko Tŭrnovo","fcl":"A","numberOfChildren":10,"name":"Oblast Veliko Tŭrnovo","fcode":"ADM1","geonameId":864561,"lat":"43.23333","adminName1":"Veliko Tŭrnovo","population":0},{"countryId":"732800","adminCode1":"63","countryName":"Bulgaria","fclName":"country, state, region,...","countryCode":"BG","lng":"22.71667","fcodeName":"first-order administrative division","toponymName":"Oblast Vidin","fcl":"A","numberOfChildren":11,"name":"Oblast Vidin","fcode":"ADM1","geonameId":864562,"lat":"43.81667","adminName1":"Vidin","population":0},{"countryId":"732800","adminCode1":"64","countryName":"Bulgaria","fclName":"country, state, region,...","countryCode":"BG","lng":"23.81667","fcodeName":"first-order administrative division","toponymName":"Oblast Vratsa","fcl":"A","numberOfChildren":10,"name":"Oblast Vratsa","fcode":"ADM1","geonameId":725713,"lat":"43.41667","adminName1":"Vratsa","population":0},{"countryId":"732800","adminCode1":"65","countryName":"Bulgaria","fclName":"country, state, region,...","countryCode":"BG","lng":"26.63333","fcodeName":"first-order administrative division","toponymName":"Oblast Yambol","fcl":"A","numberOfChildren":5,"name":"Oblast Yambol","fcode":"ADM1","geonameId":864563,"lat":"42.33333","adminName1":"Yambol","population":0},{"countryId":"732800","adminCode1":"48","countryName":"Bulgaria","fclName":"country, state, region,...","countryCode":"BG","lng":"24.16667","fcodeName":"first-order administrative division","toponymName":"Pazardzhik","fcl":"A","numberOfChildren":11,"name":"Pazardzhik","fcode":"ADM1","geonameId":728379,"lat":"42.08333","adminName1":"Pazardzhik","population":0},{"countryId":"732800","adminCode1":"49","countryName":"Bulgaria","fclName":"country, state, region,...","countryCode":"BG","lng":"22.88333","fcodeName":"first-order administrative division","toponymName":"Pernik","fcl":"A","numberOfChildren":6,"name":"Pernik","fcode":"ADM1","geonameId":728331,"lat":"42.63333","adminName1":"Pernik","population":0},{"countryId":"732800","adminCode1":"51","countryName":"Bulgaria","fclName":"country, state, region,...","countryCode":"BG","lng":"24.83333","fcodeName":"first-order administrative division","toponymName":"Plovdiv","fcl":"A","numberOfChildren":18,"name":"Plovdiv","fcode":"ADM1","geonameId":728194,"lat":"42.26667","adminName1":"Plovdiv","population":0},{"countryId":"732800","adminCode1":"42","countryName":"Bulgaria","fclName":"country, state, region,...","countryCode":"BG","lng":"23.36","fcodeName":"first-order administrative division","toponymName":"Sofiya-Grad","fcl":"A","numberOfChildren":1,"name":"Sofia-Capital","fcode":"ADM1","geonameId":731061,"lat":"42.66","adminName1":"Sofia-Capital","population":0},{"countryId":"732800","adminCode1":"58","countryName":"Bulgaria","fclName":"country, state, region,...","countryCode":"BG","lng":"23.63333","fcodeName":"first-order administrative division","toponymName":"Sofiya","fcl":"A","numberOfChildren":22,"name":"Sofiya","fcode":"ADM1","geonameId":727012,"lat":"42.65","adminName1":"Sofiya","population":1241396},{"countryId":"732800","adminCode1":"61","countryName":"Bulgaria","fclName":"country, state, region,...","countryCode":"BG","lng":"27.6","fcodeName":"first-order administrative division","toponymName":"Varna","fcl":"A","numberOfChildren":12,"name":"Varna","fcode":"ADM1","geonameId":726051,"lat":"43.21667","adminName1":"Varna","population":0}]}