{"country_data":{"ISO":"HK","ISO3":"HKG","ISO_Numeric":"344","fips":"HK","country":"Hong Kong","capital":"Hong Kong","area":"1092","Population":"6898686","Continent":"AS","tld":".hk","CurrencyCode":"HKD","CurrencyName":"Dollar","Phone":"852","Postal_Code_Format":"","Postal_Code_Regex":"","Languages":"zh-HK,yue,zh,en","geonameid":"1819730","neighbours":"","EquivalentFipsCode":""},"regions":[{"countryId":"1819730","adminCode1":"HCW","countryName":"Hong Kong","fclName":"country, state, region,...","countryCode":"HK","lng":"114.14486","fcodeName":"first-order administrative division","toponymName":"Central and Western District","fcl":"A","name":"Central and Western District","fcode":"ADM1","geonameId":7533598,"lat":"22.28219","adminName1":"Central and Western","population":251519},{"countryId":"1819730","adminCode1":"HEA","countryName":"Hong Kong","fclName":"country, state, region,...","countryCode":"HK","lng":"114.22519","fcodeName":"first-order administrative division","toponymName":"Eastern","fcl":"A","name":"Eastern","fcode":"ADM1","geonameId":7533608,"lat":"22.27722","adminName1":"Eastern","population":587690},{"countryId":"1819730","adminCode1":"NIS","countryName":"Hong Kong","fclName":"country, state, region,...","countryCode":"HK","lng":"113.96038","fcodeName":"first-order administrative division","toponymName":"Islands District","fcl":"A","name":"Islands District","fcode":"ADM1","geonameId":1819708,"lat":"22.26382","adminName1":"Islands","population":140188},{"countryId":"1819730","adminCode1":"KKC","countryName":"Hong Kong","fclName":"country, state, region,...","countryCode":"HK","lng":"114.19121","fcodeName":"first-order administrative division","toponymName":"Kowloon City","fcl":"A","name":"Kowloon City","fcode":"ADM1","geonameId":7533612,"lat":"22.32866","adminName1":"Kowloon City","population":362501},{"countryId":"1819730","adminCode1":"NKT","countryName":"Hong Kong","fclName":"country, state, region,...","countryCode":"HK","lng":"114.10004","fcodeName":"first-order administrative division","toponymName":"Kwai Tsing","fcl":"A","name":"Kwai Tsing","fcode":"ADM1","geonameId":7533615,"lat":"22.35288","adminName1":"Kwai Tsing","population":523300},{"countryId":"1819730","adminCode1":"KKT","countryName":"Hong Kong","fclName":"country, state, region,...","countryCode":"HK","lng":"114.22581","fcodeName":"first-order administrative division","toponymName":"Kwon Tong","fcl":"A","name":"Kwon Tong","fcode":"ADM1","geonameId":7533614,"lat":"22.31326","adminName1":"Kwon Tong","population":587423},{"countryId":"1819730","adminCode1":"NNO","countryName":"Hong Kong","fclName":"country, state, region,...","countryCode":"HK","lng":"114.13812","fcodeName":"first-order administrative division","toponymName":"North","fcl":"A","name":"North","fcode":"ADM1","geonameId":7533617,"lat":"22.49471","adminName1":"North","population":280730},{"countryId":"1819730","adminCode1":"NSK","countryName":"Hong Kong","fclName":"country, state, region,...","countryCode":"HK","lng":"114.27017","fcodeName":"first-order administrative division","toponymName":"Sai Kung District","fcl":"A","name":"Sai Kung District","fcode":"ADM1","geonameId":1819049,"lat":"22.38198","adminName1":"Sai Kung","population":406442},{"countryId":"1819730","adminCode1":"NST","countryName":"Hong Kong","fclName":"country, state, region,...","countryCode":"HK","lng":"114.19534","fcodeName":"first-order administrative division","toponymName":"Sha Tin","fcl":"A","name":"Sha Tin","fcode":"ADM1","geonameId":7533618,"lat":"22.38715","adminName1":"Sha Tin","population":630273},{"countryId":"1819730","adminCode1":"KSS","countryName":"Hong Kong","fclName":"country, state, region,...","countryCode":"HK","lng":"114.1625","fcodeName":"first-order administrative division","toponymName":"Sham Shui Po","fcl":"A","name":"Sham Shui Po","fcode":"ADM1","geonameId":7533611,"lat":"22.32989","adminName1":"Sham Shui Po","population":365540},{"countryId":"1819730","adminCode1":"HSO","countryName":"Hong Kong","fclName":"country, state, region,...","countryCode":"HK","lng":"114.15308","fcodeName":"first-order administrative division","toponymName":"Southern","fcl":"A","name":"Southern","fcode":"ADM1","geonameId":7533609,"lat":"22.25801","adminName1":"Southern","population":275162},{"countryId":"1819730","adminCode1":"NTP","countryName":"Hong Kong","fclName":"country, state, region,...","countryCode":"HK","lng":"114.1654","fcodeName":"first-order administrative division","toponymName":"Tai Po District","fcl":"A","name":"Tai Po District","fcode":"ADM1","geonameId":1818672,"lat":"22.43995","adminName1":"Tai Po","population":293542},{"countryId":"1819730","adminCode1":"NTW","countryName":"Hong Kong","fclName":"country, state, region,...","countryCode":"HK","lng":"114.10598","fcodeName":"first-order administrative division","toponymName":"Tsuen Wan District","fcl":"A","name":"Tsuen Wan District","fcode":"ADM1","geonameId":1818458,"lat":"22.37908","adminName1":"Tsuen Wan","population":288728},{"countryId":"1819730","adminCode1":"NTM","countryName":"Hong Kong","fclName":"country, state, region,...","countryCode":"HK","lng":"113.96792","fcodeName":"first-order administrative division","toponymName":"Tuen Mun","fcl":"A","name":"Tuen Mun","fcode":"ADM1","geonameId":7533616,"lat":"22.39161","adminName1":"Tuen Mun","population":502035},{"countryId":"1819730","adminCode1":"HWC","countryName":"Hong Kong","fclName":"country, state, region,...","countryCode":"HK","lng":"114.17232","fcodeName":"first-order administrative division","toponymName":"Wan Chai","fcl":"A","name":"Wanchai","fcode":"ADM1","geonameId":7533607,"lat":"22.27702","adminName1":"Wanchai","population":155196},{"countryId":"1819730","adminCode1":"KWT","countryName":"Hong Kong","fclName":"country, state, region,...","countryCode":"HK","lng":"114.19302","fcodeName":"first-order administrative division","toponymName":"Wong Tai Sin","fcl":"A","name":"Wong Tai Sin","fcode":"ADM1","geonameId":7533613,"lat":"22.343","adminName1":"Wong Tai Sin","population":423521},{"countryId":"1819730","adminCode1":"KYT","countryName":"Hong Kong","fclName":"country, state, region,...","countryCode":"HK","lng":"114.17261","fcodeName":"first-order administrative division","toponymName":"Yau Tsim Mong","fcl":"A","name":"Yau Tsim Mong","fcode":"ADM1","geonameId":7533610,"lat":"22.32105","adminName1":"Yau Tsim Mong","population":280548},{"countryId":"1819730","adminCode1":"NYL","countryName":"Hong Kong","fclName":"country, state, region,...","countryCode":"HK","lng":"114.05","fcodeName":"first-order administrative division","toponymName":"Yuen Long District","fcl":"A","name":"Yuen Long District","fcode":"ADM1","geonameId":1818224,"lat":"22.41667","adminName1":"Yuen Long","population":534192}]}