{"country_data":{"ISO":"XK","ISO3":"XKX","ISO_Numeric":"0","fips":"KV","country":"Kosovo","capital":"Pristina","area":"10908","Population":"1800000","Continent":"EU","tld":"","CurrencyCode":"EUR","CurrencyName":"Euro","Phone":"","Postal_Code_Format":"","Postal_Code_Regex":"","Languages":"sq,sr","geonameid":"831053","neighbours":"RS,AL,MK,ME","EquivalentFipsCode":""},"regions":[{"countryId":"831053","adminCode1":"32","countryName":"Kosovo","fclName":"country, state, region,...","countryCode":"XK","lng":"21.26571","fcodeName":"first-order administrative division","toponymName":"Hani i Elezit","fcl":"A","name":"Hani i Elezit","fcode":"ADM1","geonameId":8299769,"lat":"42.13886","adminName1":"Hani i Elezit","population":0},{"countryId":"831053","adminCode1":"10","countryName":"Kosovo","fclName":"country, state, region,...","countryCode":"XK","lng":"21.61667","fcodeName":"first-order administrative division","toponymName":"Kamenica","fcl":"A","name":"Kamenica","fcode":"ADM1","geonameId":789226,"lat":"42.6","adminName1":"Kamenica","population":0},{"countryId":"831053","adminCode1":"01","countryName":"Kosovo","fclName":"country, state, region,...","countryCode":"XK","lng":"20.28816","fcodeName":"first-order administrative division","toponymName":"Komuna e Deçanit","fcl":"A","name":"Komuna e Deçanit","fcode":"ADM1","geonameId":791579,"lat":"42.5391","adminName1":"Komuna e Deçanit","population":50500},{"countryId":"831053","adminCode1":"02","countryName":"Kosovo","fclName":"country, state, region,...","countryCode":"XK","lng":"20.65","fcodeName":"first-order administrative division","toponymName":"Komuna e Dragashit","fcl":"A","name":"Komuna e Dragashit","fcode":"ADM1","geonameId":791121,"lat":"42","adminName1":"Komuna e Dragashit","population":0},{"countryId":"831053","adminCode1":"07","countryName":"Kosovo","fclName":"country, state, region,...","countryCode":"XK","lng":"20.86667","fcodeName":"first-order administrative division","toponymName":"Komuna e Drenasit","fcl":"A","name":"Komuna e Drenasit","fcode":"ADM1","geonameId":790697,"lat":"42.6","adminName1":"Komuna e Drenasit","population":0},{"countryId":"831053","adminCode1":"03","countryName":"Kosovo","fclName":"country, state, region,...","countryCode":"XK","lng":"21.13333","fcodeName":"first-order administrative division","toponymName":"Komuna e Ferizajt","fcl":"A","name":"Komuna e Ferizajt","fcode":"ADM1","geonameId":784758,"lat":"42.36667","adminName1":"Komuna e Ferizajt","population":0},{"countryId":"831053","adminCode1":"05","countryName":"Kosovo","fclName":"country, state, region,...","countryCode":"XK","lng":"20.38333","fcodeName":"first-order administrative division","toponymName":"Komuna e Gjakovës","fcl":"A","name":"Komuna e Gjakovës","fcode":"ADM1","geonameId":791645,"lat":"42.38333","adminName1":"Komuna e Gjakovës","population":0},{"countryId":"831053","adminCode1":"06","countryName":"Kosovo","fclName":"country, state, region,...","countryCode":"XK","lng":"21.45","fcodeName":"first-order administrative division","toponymName":"Komuna e Gjilanit","fcl":"A","name":"Komuna e Gjilanit","fcode":"ADM1","geonameId":790673,"lat":"42.46667","adminName1":"Komuna e Gjilanit","population":0},{"countryId":"831053","adminCode1":"31","countryName":"Kosovo","fclName":"country, state, region,...","countryCode":"XK","lng":"21.15167","fcodeName":"first-order administrative division","toponymName":"Komuna e Graçanicës","fcl":"A","name":"Komuna e Graçanicës","fcode":"ADM1","geonameId":8299768,"lat":"42.57389","adminName1":"Komuna e Graçanicës","population":0},{"countryId":"831053","adminCode1":"08","countryName":"Kosovo","fclName":"country, state, region,...","countryCode":"XK","lng":"20.48333","fcodeName":"first-order administrative division","toponymName":"Komuna e Istogut","fcl":"A","name":"Komuna e Istogut","fcode":"ADM1","geonameId":789995,"lat":"42.76667","adminName1":"Komuna e Istogut","population":0},{"countryId":"831053","adminCode1":"33","countryName":"Kosovo","fclName":"country, state, region,...","countryCode":"XK","lng":"20.21261","fcodeName":"first-order administrative division","toponymName":"Komuna e Junikut","fcl":"A","name":"Komuna e Junikut","fcode":"ADM1","geonameId":8299770,"lat":"42.50529","adminName1":"Komuna e Junikut","population":0},{"countryId":"831053","adminCode1":"09","countryName":"Kosovo","fclName":"country, state, region,...","countryCode":"XK","lng":"21.25","fcodeName":"first-order administrative division","toponymName":"Komuna e Kaçanikut","fcl":"A","name":"Komuna e Kaçanikut","fcode":"ADM1","geonameId":789720,"lat":"42.2","adminName1":"Komuna e Kaçanikut","population":0},{"countryId":"831053","adminCode1":"11","countryName":"Kosovo","fclName":"country, state, region,...","countryCode":"XK","lng":"20.6","fcodeName":"first-order administrative division","toponymName":"Komuna e Klines","fcl":"A","name":"Komuna e Klines","fcode":"ADM1","geonameId":789453,"lat":"42.58333","adminName1":"Komuna e Klines","population":0},{"countryId":"831053","adminCode1":"34","countryName":"Kosovo","fclName":"country, state, region,...","countryCode":"XK","lng":"21.39373","fcodeName":"first-order administrative division","toponymName":"Komuna e Kllokotit","fcl":"A","name":"Komuna e Kllokotit","fcode":"ADM1","geonameId":8299771,"lat":"42.3446","adminName1":"Komuna e Kllokotit","population":0},{"countryId":"831053","adminCode1":"12","countryName":"Kosovo","fclName":"country, state, region,...","countryCode":"XK","lng":"20.78333","fcodeName":"first-order administrative division","toponymName":"Komuna e Leposaviqit","fcl":"A","name":"Komuna e Leposaviqit","fcode":"ADM1","geonameId":788730,"lat":"43.11667","adminName1":"Komuna e Leposaviqit","population":0},{"countryId":"831053","adminCode1":"14","countryName":"Kosovo","fclName":"country, state, region,...","countryCode":"XK","lng":"20.74667","fcodeName":"first-order administrative division","toponymName":"Komuna e Malisheves","fcl":"A","name":"Komuna e Malisheves","fcode":"ADM1","geonameId":831104,"lat":"42.48861","adminName1":"Komuna e Malisheves","population":0},{"countryId":"831053","adminCode1":"35","countryName":"Kosovo","fclName":"country, state, region,...","countryCode":"XK","lng":"20.72742","fcodeName":"first-order administrative division","toponymName":"Komuna e Mamushës","fcl":"A","name":"Komuna e Mamushës","fcode":"ADM1","geonameId":8299772,"lat":"42.32611","adminName1":"Komuna e Mamushës","population":0},{"countryId":"831053","adminCode1":"15","countryName":"Kosovo","fclName":"country, state, region,...","countryCode":"XK","lng":"20.88333","fcodeName":"first-order administrative division","toponymName":"Komuna e Mitrovicës","fcl":"A","name":"Komuna e Mitrovicës","fcode":"ADM1","geonameId":785059,"lat":"42.91667","adminName1":"Komuna e Mitrovicës","population":0},{"countryId":"831053","adminCode1":"17","countryName":"Kosovo","fclName":"country, state, region,...","countryCode":"XK","lng":"21.03333","fcodeName":"first-order administrative division","toponymName":"Komuna e Obiliqit","fcl":"A","name":"Komuna e Obiliqit","fcode":"ADM1","geonameId":831103,"lat":"42.68333","adminName1":"Komuna e Obiliqit","population":0},{"countryId":"831053","adminCode1":"36","countryName":"Kosovo","fclName":"country, state, region,...","countryCode":"XK","lng":"21.47737","fcodeName":"first-order administrative division","toponymName":"Komuna e Parteshit","fcl":"A","name":"Komuna e Parteshit","fcode":"ADM1","geonameId":8299773,"lat":"42.40848","adminName1":"Komuna e Parteshit","population":0},{"countryId":"831053","adminCode1":"18","countryName":"Kosovo","fclName":"country, state, region,...","countryCode":"XK","lng":"20.28997","fcodeName":"first-order administrative division","toponymName":"Komuna e Pejës","fcl":"A","name":"Komuna e Pejës","fcode":"ADM1","geonameId":787156,"lat":"42.65968","adminName1":"Komuna e Pejës","population":170000},{"countryId":"831053","adminCode1":"20","countryName":"Kosovo","fclName":"country, state, region,...","countryCode":"XK","lng":"21.28333","fcodeName":"first-order administrative division","toponymName":"Komuna e Prishtinës","fcl":"A","numberOfChildren":1,"name":"Komuna e Prishtinës","fcode":"ADM1","geonameId":786713,"lat":"42.7","adminName1":"Komuna e Prishtinës","population":0},{"countryId":"831053","adminCode1":"37","countryName":"Kosovo","fclName":"country, state, region,...","countryCode":"XK","lng":"21.60231","fcodeName":"first-order administrative division","toponymName":"Komuna e Ranillugut","fcl":"A","name":"Komuna e Ranillugut","fcode":"ADM1","geonameId":8299774,"lat":"42.50741","adminName1":"Komuna e Ranillugut","population":0},{"countryId":"831053","adminCode1":"24","countryName":"Kosovo","fclName":"country, state, region,...","countryCode":"XK","lng":"21.01667","fcodeName":"first-order administrative division","toponymName":"Komuna e Shtimes","fcl":"A","name":"Komuna e Shtimes","fcode":"ADM1","geonameId":831101,"lat":"42.41667","adminName1":"Komuna e Shtimes","population":0},{"countryId":"831053","adminCode1":"25","countryName":"Kosovo","fclName":"country, state, region,...","countryCode":"XK","lng":"20.78333","fcodeName":"first-order administrative division","toponymName":"Komuna e Skenderajt","fcl":"A","name":"Komuna e Skenderajt","fcode":"ADM1","geonameId":785641,"lat":"42.73333","adminName1":"Komuna e Skenderajt","population":0},{"countryId":"831053","adminCode1":"26","countryName":"Kosovo","fclName":"country, state, region,...","countryCode":"XK","lng":"20.85","fcodeName":"first-order administrative division","toponymName":"Komuna e Thërandës","fcl":"A","name":"Komuna e Thërandës","fcode":"ADM1","geonameId":785234,"lat":"42.35","adminName1":"Komuna e Thërandës","population":0},{"countryId":"831053","adminCode1":"27","countryName":"Kosovo","fclName":"country, state, region,...","countryCode":"XK","lng":"21.36667","fcodeName":"first-order administrative division","toponymName":"Komuna e Vitisë","fcl":"A","name":"Komuna e Vitisë","fcode":"ADM1","geonameId":784371,"lat":"42.33333","adminName1":"Komuna e Vitisë","population":0},{"countryId":"831053","adminCode1":"29","countryName":"Kosovo","fclName":"country, state, region,...","countryCode":"XK","lng":"20.63333","fcodeName":"first-order administrative division","toponymName":"Komuna e Zubin Potokut","fcl":"A","name":"Komuna e Zubin Potokut","fcode":"ADM1","geonameId":831105,"lat":"42.91667","adminName1":"Komuna e Zubin Potokut","population":0},{"countryId":"831053","adminCode1":"04","countryName":"Kosovo","fclName":"country, state, region,...","countryCode":"XK","lng":"21.03972","fcodeName":"first-order administrative division","toponymName":"Kosovo Polje","fcl":"A","name":"Kosovo Polje","fcode":"ADM1","geonameId":831099,"lat":"42.62083","adminName1":"Kosovo Polje","population":0},{"countryId":"831053","adminCode1":"13","countryName":"Kosovo","fclName":"country, state, region,...","countryCode":"XK","lng":"21.11667","fcodeName":"first-order administrative division","toponymName":"Lipjan","fcl":"A","name":"Lipjan","fcode":"ADM1","geonameId":788651,"lat":"42.5","adminName1":"Lipjan","population":0},{"countryId":"831053","adminCode1":"16","countryName":"Kosovo","fclName":"country, state, region,...","countryCode":"XK","lng":"21.4","fcodeName":"first-order administrative division","toponymName":"Novo Brdo","fcl":"A","name":"Novo Brdo","fcode":"ADM1","geonameId":831102,"lat":"42.56667","adminName1":"Novo Brdo","population":6720},{"countryId":"831053","adminCode1":"30","countryName":"Kosovo","fclName":"country, state, region,...","countryCode":"XK","lng":"20.77524","fcodeName":"first-order administrative division","toponymName":"Opština Zvečan","fcl":"A","name":"Opština Zvečan","fcode":"ADM1","geonameId":831106,"lat":"42.98271","adminName1":"Opština Zvečan","population":0},{"countryId":"831053","adminCode1":"23","countryName":"Kosovo","fclName":"country, state, region,...","countryCode":"XK","lng":"21","fcodeName":"first-order administrative division","toponymName":"Opština Štrpce","fcl":"A","name":"Opština Štrpce","fcode":"ADM1","geonameId":831100,"lat":"42.23333","adminName1":"Opština Štrpce","population":0},{"countryId":"831053","adminCode1":"22","countryName":"Kosovo","fclName":"country, state, region,...","countryCode":"XK","lng":"20.61667","fcodeName":"first-order administrative division","toponymName":"Orahovac","fcl":"A","name":"Orahovac","fcode":"ADM1","geonameId":787455,"lat":"42.38333","adminName1":"Orahovac","population":0},{"countryId":"831053","adminCode1":"19","countryName":"Kosovo","fclName":"country, state, region,...","countryCode":"XK","lng":"21.2","fcodeName":"first-order administrative division","toponymName":"Podujevo","fcl":"A","name":"Podujevo","fcode":"ADM1","geonameId":786949,"lat":"42.9","adminName1":"Podujevo","population":87933},{"countryId":"831053","adminCode1":"21","countryName":"Kosovo","fclName":"country, state, region,...","countryCode":"XK","lng":"20.73333","fcodeName":"first-order administrative division","toponymName":"Prizren","fcl":"A","numberOfChildren":1,"name":"Prizren","fcode":"ADM1","geonameId":786711,"lat":"42.23333","adminName1":"Prizren","population":0},{"countryId":"831053","adminCode1":"28","countryName":"Kosovo","fclName":"country, state, region,...","countryCode":"XK","lng":"20.98333","fcodeName":"first-order administrative division","toponymName":"Vushtrri","fcl":"A","name":"Vushtrri","fcode":"ADM1","geonameId":784096,"lat":"42.8","adminName1":"Vushtrri","population":0}]}