{"country_data":{"ISO":"BL","ISO3":"BLM","ISO_Numeric":"652","fips":"TB","country":"Saint Barthelemy","capital":"Gustavia","area":"21","Population":"8450","Continent":"NA","tld":".gp","CurrencyCode":"EUR","CurrencyName":"Euro","Phone":"590","Postal_Code_Format":"### ###","Postal_Code_Regex":"","Languages":"fr","geonameid":"3578476","neighbours":"","EquivalentFipsCode":""},"regions":[{"countryId":"3578476","adminCode1":"00","countryName":"Saint Barthélemy","fclName":"city, village,...","countryCode":"BL","lng":"-62.85","fcodeName":"populated locality","toponymName":"Anse des Cayes","fcl":"P","name":"Anse des Cayes","fcode":"PPLL","geonameId":3579787,"lat":"17.91667","adminName1":"","population":0},{"countryId":"3578476","adminCode1":"00","countryName":"Saint Barthélemy","fclName":"city, village,...","countryCode":"BL","lng":"-62.8575","fcodeName":"populated place","toponymName":"Anse des Flamands","fcl":"P","name":"Anse des Flamands","fcode":"PPL","geonameId":3579785,"lat":"17.91774","adminName1":"","population":0},{"countryId":"3578476","adminCode1":"00","countryName":"Saint Barthélemy","fclName":"city, village,...","countryCode":"BL","lng":"-62.85","fcodeName":"populated place","toponymName":"Colombier","fcl":"P","name":"Colombier","fcode":"PPL","geonameId":3579485,"lat":"17.91667","adminName1":"","population":0},{"countryId":"3578476","adminCode1":"00","countryName":"Saint Barthélemy","fclName":"city, village,...","countryCode":"BL","lng":"-62.85","fcodeName":"populated place","toponymName":"Corossol","fcl":"P","name":"Corossol","fcode":"PPL","geonameId":3579470,"lat":"17.9","adminName1":"","population":0},{"countryId":"3578476","adminCode1":"00","countryName":"Saint Barthélemy","fclName":"city, village,...","countryCode":"BL","lng":"-62.80427","fcodeName":"populated place","toponymName":"Grand Cul-de-Sac","fcl":"P","name":"Grand Cul-de-Sac","fcode":"PPL","geonameId":3579243,"lat":"17.90962","adminName1":"","population":0},{"countryId":"3578476","adminCode1":"00","countryName":"Saint Barthélemy","fclName":"city, village,...","countryCode":"BL","lng":"-62.8","fcodeName":"populated place","toponymName":"Grand Fond","fcl":"P","name":"Grand Fond","fcode":"PPL","geonameId":3579199,"lat":"17.88333","adminName1":"","population":0},{"countryId":"3578476","adminCode1":"00","countryName":"Saint Barthélemy","fclName":"city, village,...","countryCode":"BL","lng":"-62.84978","fcodeName":"capital of a political entity","toponymName":"Gustavia","fcl":"P","name":"Gustavia","fcode":"PPLC","geonameId":3579132,"lat":"17.89618","adminName1":"","population":5988},{"countryId":"3578476","adminCode1":"00","countryName":"Saint Barthélemy","fclName":"city, village,...","countryCode":"BL","lng":"-62.81667","fcodeName":"populated place","toponymName":"La Saline","fcl":"P","name":"La Saline","fcode":"PPL","geonameId":3579000,"lat":"17.88333","adminName1":"","population":0},{"countryId":"3578476","adminCode1":"00","countryName":"Saint Barthélemy","fclName":"city, village,...","countryCode":"BL","lng":"-62.83333","fcodeName":"populated place","toponymName":"Le Gouverneur","fcl":"P","name":"Le Gouverneur","fcode":"PPL","geonameId":3578974,"lat":"17.86667","adminName1":"","population":0},{"countryId":"3578476","adminCode1":"00","countryName":"Saint Barthélemy","fclName":"city, village,...","countryCode":"BL","lng":"-62.83333","fcodeName":"populated locality","toponymName":"Lurin","fcl":"P","name":"Lurin","fcode":"PPLL","geonameId":3578903,"lat":"17.88333","adminName1":"","population":0},{"countryId":"3578476","adminCode1":"00","countryName":"Saint Barthélemy","fclName":"city, village,...","countryCode":"BL","lng":"-62.81667","fcodeName":"populated place","toponymName":"Marigot","fcl":"P","name":"Marigot","fcode":"PPL","geonameId":3578852,"lat":"17.91667","adminName1":"","population":0},{"countryId":"3578476","adminCode1":"00","countryName":"Saint Barthélemy","fclName":"city, village,...","countryCode":"BL","lng":"-62.78333","fcodeName":"populated locality","toponymName":"Petit Cul de Sac","fcl":"P","name":"Petit Cul de Sac","fcode":"PPLL","geonameId":3578678,"lat":"17.9","adminName1":"","population":0},{"countryId":"3578476","adminCode1":"00","countryName":"Saint Barthélemy","fclName":"city, village,...","countryCode":"BL","lng":"-62.85","fcodeName":"populated place","toponymName":"Public","fcl":"P","name":"Public","fcode":"PPL","geonameId":3578562,"lat":"17.9","adminName1":"","population":0},{"countryId":"3578476","adminCode1":"00","countryName":"Saint Barthélemy","fclName":"city, village,...","countryCode":"BL","lng":"-62.82257","fcodeName":"populated place","toponymName":"Quartier de Lorient","fcl":"P","name":"Quartier de Lorient","fcode":"PPL","geonameId":3578558,"lat":"17.90516","adminName1":"","population":0},{"countryId":"3578476","adminCode1":"00","countryName":"Saint Barthélemy","fclName":"city, village,...","countryCode":"BL","lng":"-62.85","fcodeName":"populated place","toponymName":"Quartier du Roi","fcl":"P","name":"Quartier du Roi","fcode":"PPL","geonameId":3578555,"lat":"17.9","adminName1":"","population":0},{"countryId":"3578476","adminCode1":"00","countryName":"Saint Barthélemy","fclName":"city, village,...","countryCode":"BL","lng":"-62.83699","fcodeName":"populated place","toponymName":"Saint-Jean","fcl":"P","name":"Saint-Jean","fcode":"PPL","geonameId":3578433,"lat":"17.89871","adminName1":"","population":0},{"countryId":"3578476","adminCode1":"00","countryName":"Saint Barthélemy","fclName":"city, village,...","countryCode":"BL","lng":"-62.8","fcodeName":"populated place","toponymName":"Toiny","fcl":"P","name":"Toiny","fcode":"PPL","geonameId":3578337,"lat":"17.9","adminName1":"","population":0}]}