{"country_data":{"ISO":"GB","ISO3":"GBR","ISO_Numeric":"826","fips":"UK","country":"United Kingdom","capital":"London","area":"244820","Population":"62348447","Continent":"EU","tld":".uk","CurrencyCode":"GBP","CurrencyName":"Pound","Phone":"44","Postal_Code_Format":"@# #@@|@## #@@|@@# #@@|@@## #@@|@#@ #@@|@@#@ #@@|GIR0AA","Postal_Code_Regex":"^(([A-Z]\\d{2}[A-Z]{2})|([A-Z]\\d{3}[A-Z]{2})|([A-Z]{2}\\d{2}[A-Z]{2})|([A-Z]{2}\\d{3}[A-Z]{2})|([A-Z]\\d[A-Z]\\d[A-Z]{2})|([A-Z]{2}\\d[A-Z]\\d[A-Z]{2})|(GIR0AA))$","Languages":"en-GB,cy-GB,gd","geonameid":"2635167","neighbours":"IE","EquivalentFipsCode":""},"regions":[{"adminCode1":"8989934","lng":"-2.19851","geonameId":8989934,"toponymName":"Alderney","countryId":"3042362","fcl":"A","population":1903,"countryCode":"GG","name":"Alderney","fclName":"country, state, region,...","countryName":"Guernsey","fcodeName":"first-order administrative division","adminName1":"Alderney","lat":"49.71677","fcode":"ADM1"},{"adminCode1":"9782164","lng":"-4.44251","geonameId":9782164,"toponymName":"Andreas","countryId":"3042225","fcl":"A","population":1381,"countryCode":"IM","name":"Andreas","fclName":"country, state, region,...","countryName":"Isle of Man","fcodeName":"first-order administrative division","adminName1":"Andreas","lat":"54.36742","fcode":"ADM1"},{"adminCode1":"9782165","lng":"-4.67743","geonameId":9782165,"toponymName":"Arbory","countryId":"3042225","fcl":"A","population":1747,"countryCode":"IM","name":"Arbory","fclName":"country, state, region,...","countryName":"Isle of Man","fcodeName":"first-order administrative division","adminName1":"Arbory","lat":"54.1009","fcode":"ADM1"},{"adminCode1":"9782166","lng":"-4.54225","geonameId":9782166,"toponymName":"Ballaugh","countryId":"3042225","fcl":"A","population":0,"countryCode":"IM","name":"Ballaugh","fclName":"country, state, region,...","countryName":"Isle of Man","fcodeName":"first-order administrative division","adminName1":"Ballaugh","lat":"54.31278","fcode":"ADM1"},{"adminCode1":"9782167","lng":"-4.5062","geonameId":9782167,"toponymName":"Braddan","countryId":"3042225","fcl":"A","population":0,"countryCode":"IM","name":"Braddan","fclName":"country, state, region,...","countryName":"Isle of Man","fcodeName":"first-order administrative division","adminName1":"Braddan","lat":"54.16319","fcode":"ADM1"},{"adminCode1":"9782168","lng":"-4.39088","geonameId":9782168,"toponymName":"Bride","countryId":"3042225","fcl":"A","population":418,"countryCode":"IM","name":"Bride","fclName":"country, state, region,...","countryName":"Isle of Man","fcodeName":"first-order administrative division","adminName1":"Bride","lat":"54.38311","fcode":"ADM1"},{"adminCode1":"6417229","lng":"-2.59361","geonameId":6417229,"toponymName":"Castel","countryId":"3042362","fcl":"A","population":8975,"countryCode":"GG","name":"Castel","fclName":"country, state, region,...","countryName":"Guernsey","fcodeName":"first-order administrative division","adminName1":"Castel","lat":"49.465","fcode":"ADM1"},{"adminCode1":"9782169","lng":"-4.6582","geonameId":9782169,"toponymName":"Castletown","countryId":"3042225","fcl":"A","population":3097,"countryCode":"IM","name":"Castletown","fclName":"country, state, region,...","countryName":"Isle of Man","fcodeName":"first-order administrative division","adminName1":"Castletown","lat":"54.07463","fcode":"ADM1"},{"adminCode1":"9782170","lng":"-4.48452","geonameId":9782170,"toponymName":"Douglas","countryId":"3042225","fcl":"A","population":28939,"countryCode":"IM","name":"Douglas","fclName":"country, state, region,...","countryName":"Isle of Man","fcodeName":"first-order administrative division","adminName1":"Douglas","lat":"54.15442","fcode":"ADM1"},{"adminCode1":"ENG","lng":"-0.70312","geonameId":6269131,"toponymName":"England","countryId":"2635167","fcl":"A","population":50000000,"numberOfChildren":120,"countryCode":"GB","name":"England","fclName":"country, state, region,...","countryName":"United Kingdom","fcodeName":"first-order administrative division","adminName1":"England","lat":"52.16045","fcode":"ADM1"},{"adminCode1":"6417223","lng":"-2.59194","geonameId":6417223,"toponymName":"Forest","countryId":"3042362","fcl":"A","population":1549,"countryCode":"GG","name":"Forest","fclName":"country, state, region,...","countryName":"Guernsey","fcodeName":"first-order administrative division","adminName1":"Forest","lat":"49.42583","fcode":"ADM1"},{"adminCode1":"9782171","lng":"-4.69464","geonameId":9782171,"toponymName":"German","countryId":"3042225","fcl":"A","population":0,"countryCode":"IM","name":"German","fclName":"country, state, region,...","countryName":"Isle of Man","fcodeName":"first-order administrative division","adminName1":"German","lat":"54.22197","fcode":"ADM1"},{"adminCode1":"3237203","lng":"-2.04917","geonameId":3237203,"toponymName":"Grouville","countryId":"3042142","fcl":"A","population":4866,"countryCode":"JE","name":"Grouville","fclName":"country, state, region,...","countryName":"Jersey","fcodeName":"first-order administrative division","adminName1":"Grouville","lat":"49.18472","fcode":"ADM1"},{"adminCode1":"9782172","lng":"-4.51838","geonameId":9782172,"toponymName":"Jurby","countryId":"3042225","fcl":"A","population":659,"countryCode":"IM","name":"Jurby","fclName":"country, state, region,...","countryName":"Isle of Man","fcodeName":"first-order administrative division","adminName1":"Jurby","lat":"54.36276","fcode":"ADM1"},{"adminCode1":"9782173","lng":"-4.40402","geonameId":9782173,"toponymName":"Laxey","countryId":"3042225","fcl":"A","population":1768,"countryCode":"IM","name":"Laxey","fclName":"country, state, region,...","countryName":"Isle of Man","fcodeName":"first-order administrative division","adminName1":"Laxey","lat":"54.2312","fcode":"ADM1"},{"adminCode1":"9782176","lng":"-4.41985","geonameId":9782176,"toponymName":"Lezayre","countryId":"3042225","fcl":"A","population":1237,"countryCode":"IM","name":"Lezayre","fclName":"country, state, region,...","countryName":"Isle of Man","fcodeName":"first-order administrative division","adminName1":"Lezayre","lat":"54.31734","fcode":"ADM1"},{"adminCode1":"9782180","lng":"-4.43264","geonameId":9782180,"toponymName":"Lonan","countryId":"3042225","fcl":"A","population":0,"countryCode":"IM","name":"Lonan","fclName":"country, state, region,...","countryName":"Isle of Man","fcodeName":"first-order administrative division","adminName1":"Lonan","lat":"54.21491","fcode":"ADM1"},{"adminCode1":"9782182","lng":"-4.63125","geonameId":9782182,"toponymName":"Malew","countryId":"3042225","fcl":"A","population":2262,"countryCode":"IM","name":"Malew","fclName":"country, state, region,...","countryName":"Isle of Man","fcodeName":"first-order administrative division","adminName1":"Malew","lat":"54.10563","fcode":"ADM1"},{"adminCode1":"9782183","lng":"-4.57392","geonameId":9782183,"toponymName":"Marown","countryId":"3042225","fcl":"A","population":2086,"countryCode":"IM","name":"Marown","fclName":"country, state, region,...","countryName":"Isle of Man","fcodeName":"first-order administrative division","adminName1":"Marown","lat":"54.1739","fcode":"ADM1"},{"adminCode1":"9782184","lng":"-4.31986","geonameId":9782184,"toponymName":"Maughold","countryId":"3042225","fcl":"A","population":0,"countryCode":"IM","name":"Maughold","fclName":"country, state, region,...","countryName":"Isle of Man","fcodeName":"first-order administrative division","adminName1":"Maughold","lat":"54.29762","fcode":"ADM1"},{"adminCode1":"9782185","lng":"-4.60791","geonameId":9782185,"toponymName":"Michael","countryId":"3042225","fcl":"A","population":1640,"countryCode":"IM","name":"Michael","fclName":"country, state, region,...","countryName":"Isle of Man","fcodeName":"first-order administrative division","adminName1":"Michael","lat":"54.249","fcode":"ADM1"},{"adminCode1":"NIR","lng":"-6.5","geonameId":2641364,"toponymName":"Northern Ireland","countryId":"2635167","fcl":"A","population":1829700,"numberOfChildren":26,"countryCode":"GB","name":"Northern Ireland","fclName":"country, state, region,...","countryName":"United Kingdom","fcodeName":"first-order administrative division","adminName1":"Northern Ireland","lat":"54.5","fcode":"ADM1"},{"adminCode1":"9782186","lng":"-4.45521","geonameId":9782186,"toponymName":"Onchan","countryId":"3042225","fcl":"A","population":0,"countryCode":"IM","name":"Onchan","fclName":"country, state, region,...","countryName":"Isle of Man","fcodeName":"first-order administrative division","adminName1":"Onchan","lat":"54.17478","fcode":"ADM1"},{"adminCode1":"9782187","lng":"-4.69314","geonameId":9782187,"toponymName":"Patrick","countryId":"3042225","fcl":"A","population":1294,"countryCode":"IM","name":"Patrick","fclName":"country, state, region,...","countryName":"Isle of Man","fcodeName":"first-order administrative division","adminName1":"Patrick","lat":"54.20486","fcode":"ADM1"},{"adminCode1":"9782188","lng":"-4.68794","geonameId":9782188,"toponymName":"Peel","countryId":"3042225","fcl":"A","population":5093,"countryCode":"IM","name":"Peel","fclName":"country, state, region,...","countryName":"Isle of Man","fcodeName":"first-order administrative division","adminName1":"Peel","lat":"54.22175","fcode":"ADM1"},{"adminCode1":"9782189","lng":"-4.74987","geonameId":9782189,"toponymName":"Port Erin","countryId":"3042225","fcl":"A","population":3530,"countryCode":"IM","name":"Port Erin","fclName":"country, state, region,...","countryName":"Isle of Man","fcodeName":"first-order administrative division","adminName1":"Port Erin","lat":"54.08523","fcode":"ADM1"},{"adminCode1":"9782190","lng":"-4.7397","geonameId":9782190,"toponymName":"Port St Mary","countryId":"3042225","fcl":"A","population":1953,"countryCode":"IM","name":"Port St Mary","fclName":"country, state, region,...","countryName":"Isle of Man","fcodeName":"first-order administrative division","adminName1":"Port St Mary","lat":"54.07589","fcode":"ADM1"},{"adminCode1":"9782191","lng":"-4.38878","geonameId":9782191,"toponymName":"Ramsey","countryId":"3042225","fcl":"A","population":7309,"countryCode":"IM","name":"Ramsey","fclName":"country, state, region,...","countryName":"Isle of Man","fcodeName":"first-order administrative division","adminName1":"Ramsey","lat":"54.32179","fcode":"ADM1"},{"adminCode1":"9782192","lng":"-4.77974","geonameId":9782192,"toponymName":"Rushen","countryId":"3042225","fcl":"A","population":1591,"countryCode":"IM","name":"Rushen","fclName":"country, state, region,...","countryName":"Isle of Man","fcodeName":"first-order administrative division","adminName1":"Rushen","lat":"54.06223","fcode":"ADM1"},{"adminCode1":"6417226","lng":"-2.57361","geonameId":6417226,"toponymName":"Saint Andrew","countryId":"3042362","fcl":"A","population":2409,"countryCode":"GG","name":"Saint Andrew","fclName":"country, state, region,...","countryName":"Guernsey","fcodeName":"first-order administrative division","adminName1":"Saint Andrew","lat":"49.44778","fcode":"ADM1"},{"adminCode1":"6417215","lng":"-2.62389","geonameId":6417215,"toponymName":"Saint Saviour","countryId":"3042362","fcl":"A","population":2696,"countryCode":"GG","name":"Saint Saviour","fclName":"country, state, region,...","countryName":"Guernsey","fcodeName":"first-order administrative division","adminName1":"Saint Saviour","lat":"49.44972","fcode":"ADM1"},{"adminCode1":"9782193","lng":"-4.55701","geonameId":9782193,"toponymName":"Santon","countryId":"3042225","fcl":"A","population":0,"countryCode":"IM","name":"Santon","fclName":"country, state, region,...","countryName":"Isle of Man","fcodeName":"first-order administrative division","adminName1":"Santon","lat":"54.10567","fcode":"ADM1"},{"adminCode1":"SCT","lng":"-4","geonameId":2638360,"toponymName":"Scotland","countryId":"2635167","fcl":"A","population":5000000,"numberOfChildren":32,"countryCode":"GB","name":"Scotland","fclName":"country, state, region,...","countryName":"United Kingdom","fcodeName":"first-order administrative division","adminName1":"Scotland","lat":"56","fcode":"ADM1"},{"adminCode1":"3237072","lng":"-2.07659","geonameId":3237072,"toponymName":"Saint Clement","countryId":"3042142","fcl":"A","population":9221,"countryCode":"JE","name":"St Clement","fclName":"country, state, region,...","countryName":"Jersey","fcodeName":"first-order administrative division","adminName1":"St Clement","lat":"49.16565","fcode":"ADM1"},{"adminCode1":"3237864","lng":"-2.1","geonameId":3237864,"toponymName":"Saint Helier","countryId":"3042142","fcl":"A","population":33522,"countryCode":"JE","name":"St Helier","fclName":"country, state, region,...","countryName":"Jersey","fcodeName":"first-order administrative division","adminName1":"St Helier","lat":"49.18333","fcode":"ADM1"},{"adminCode1":"3237497","lng":"-2.1375","geonameId":3237497,"toponymName":"Saint John","countryId":"3042142","fcl":"A","population":2911,"countryCode":"JE","name":"St John","fclName":"country, state, region,...","countryName":"Jersey","fcodeName":"first-order administrative division","adminName1":"St John","lat":"49.24694","fcode":"ADM1"},{"adminCode1":"3237214","lng":"-2.14","geonameId":3237214,"toponymName":"Saint Lawrence","countryId":"3042142","fcl":"A","population":5418,"countryCode":"JE","name":"St Lawrence","fclName":"country, state, region,...","countryName":"Jersey","fcodeName":"first-order administrative division","adminName1":"St Lawrence","lat":"49.21528","fcode":"ADM1"},{"adminCode1":"6417224","lng":"-2.55722","geonameId":6417224,"toponymName":"Saint Martin","countryId":"3042362","fcl":"A","population":6267,"countryCode":"GG","name":"St Martin","fclName":"country, state, region,...","countryName":"Guernsey","fcodeName":"first-order administrative division","adminName1":"St Martin","lat":"49.43333","fcode":"ADM1"},{"adminCode1":"3237716","lng":"-2.04972","geonameId":3237716,"toponymName":"Saint Martin","countryId":"3042142","fcl":"A","population":3763,"countryCode":"JE","name":"St Martîn","fclName":"country, state, region,...","countryName":"Jersey","fcodeName":"first-order administrative division","adminName1":"St Martîn","lat":"49.21944","fcode":"ADM1"},{"adminCode1":"3237212","lng":"-2.17222","geonameId":3237212,"toponymName":"Saint Mary","countryId":"3042142","fcl":"A","population":1752,"countryCode":"JE","name":"St Mary","fclName":"country, state, region,...","countryName":"Jersey","fcodeName":"first-order administrative division","adminName1":"St Mary","lat":"49.23583","fcode":"ADM1"},{"adminCode1":"3237229","lng":"-2.20556","geonameId":3237229,"toponymName":"Saint Ouen","countryId":"3042142","fcl":"A","population":4097,"countryCode":"JE","name":"St Ouen","fclName":"country, state, region,...","countryName":"Jersey","fcodeName":"first-order administrative division","adminName1":"St Ouen","lat":"49.22667","fcode":"ADM1"},{"adminCode1":"3237221","lng":"-2.18194","geonameId":3237221,"toponymName":"Saint Peter","countryId":"3042142","fcl":"A","population":5003,"countryCode":"JE","name":"St Peter","fclName":"country, state, region,...","countryName":"Jersey","fcodeName":"first-order administrative division","adminName1":"St Peter","lat":"49.21333","fcode":"ADM1"},{"adminCode1":"6417228","lng":"-2.55194","geonameId":6417228,"toponymName":"Saint Peter Port","countryId":"3042362","fcl":"A","population":16488,"countryCode":"GG","name":"St Peter Port","fclName":"country, state, region,...","countryName":"Guernsey","fcodeName":"first-order administrative division","adminName1":"St Peter Port","lat":"49.46","fcode":"ADM1"},{"adminCode1":"6417213","lng":"-2.64361","geonameId":6417213,"toponymName":"Saint Pierre du Bois","countryId":"3042362","fcl":"A","population":2188,"countryCode":"GG","name":"St Pierre du Bois","fclName":"country, state, region,...","countryName":"Guernsey","fcodeName":"first-order administrative division","adminName1":"St Pierre du Bois","lat":"49.44556","fcode":"ADM1"},{"adminCode1":"6417233","lng":"-2.53722","geonameId":6417233,"toponymName":"Saint Sampson","countryId":"3042362","fcl":"A","population":8592,"countryCode":"GG","name":"St Sampson","fclName":"country, state, region,...","countryName":"Guernsey","fcodeName":"first-order administrative division","adminName1":"St Sampson","lat":"49.48194","fcode":"ADM1"},{"adminCode1":"3237073","lng":"-2.09238","geonameId":3237073,"toponymName":"Saint Saviour","countryId":"3042142","fcl":"A","population":13580,"countryCode":"JE","name":"St Saviour","fclName":"country, state, region,...","countryName":"Jersey","fcodeName":"first-order administrative division","adminName1":"St Saviour","lat":"49.19517","fcode":"ADM1"},{"adminCode1":"3237200","lng":"-2.20056","geonameId":3237200,"toponymName":"Saint Brelade","countryId":"3042142","fcl":"A","population":10568,"countryCode":"JE","name":"St. Brelade","fclName":"country, state, region,...","countryName":"Jersey","fcodeName":"first-order administrative division","adminName1":"St. Brelade","lat":"49.19056","fcode":"ADM1"},{"adminCode1":"6417214","lng":"-2.64889","geonameId":6417214,"toponymName":"Torteval","countryId":"3042362","fcl":"A","population":973,"countryCode":"GG","name":"Torteval","fclName":"country, state, region,...","countryName":"Guernsey","fcodeName":"first-order administrative division","adminName1":"Torteval","lat":"49.43","fcode":"ADM1"},{"adminCode1":"3237530","lng":"-2.09","geonameId":3237530,"toponymName":"Trinity","countryId":"3042142","fcl":"A","population":3156,"countryCode":"JE","name":"Trinity","fclName":"country, state, region,...","countryName":"Jersey","fcodeName":"first-order administrative division","adminName1":"Trinity","lat":"49.23472","fcode":"ADM1"},{"adminCode1":"6417230","lng":"-2.52833","geonameId":6417230,"toponymName":"Vale","countryId":"3042362","fcl":"A","population":9573,"countryCode":"GG","name":"Vale","fclName":"country, state, region,...","countryName":"Guernsey","fcodeName":"first-order administrative division","adminName1":"Vale","lat":"49.49361","fcode":"ADM1"},{"adminCode1":"WLS","lng":"-3.5","geonameId":2634895,"toponymName":"Wales","countryId":"2635167","fcl":"A","population":3000000,"numberOfChildren":22,"countryCode":"GB","name":"Wales","fclName":"country, state, region,...","countryName":"United Kingdom","fcodeName":"first-order administrative division","adminName1":"Wales","lat":"52.5","fcode":"ADM1"}]}