{"region_data":{"countryId":"1733045","adminCode1":"16","countryName":"Malaysia","fclName":"country, state, region,...","countryCode":"MY","lng":"117","fcodeName":"first-order administrative division","toponymName":"Sabah","fcl":"A","numberOfChildren":6,"name":"Sabah","fcode":"ADM1","geonameId":1733039,"lat":"5.5","adminName1":"Sabah","population":0},"country_data":{"ISO":"MY","ISO3":"MYS","ISO_Numeric":"458","fips":"MY","country":"Malaysia","capital":"Kuala Lumpur","area":"329750","Population":"28274729","Continent":"AS","tld":".my","CurrencyCode":"MYR","CurrencyName":"Ringgit","Phone":"60","Postal_Code_Format":"#####","Postal_Code_Regex":"^(\\d{5})$","Languages":"ms-MY,en,zh,ta,te,ml,pa,th","geonameid":"1733045","neighbours":"BN,TH,ID","EquivalentFipsCode":""},"cities":[{"geonameid":"1733353","name":"Papar","asciiname":"Papar","alternatenames":["Papar"],"latitude":"5.73333","longitude":"115.93333","feature_class":"P","feature_code":"PPL","country_code":"MY","cc2":"","admin1_code":"16","admin2_code":"","admin3_code":"","admin4_code":"","population":"19278","elevation":"","dem":"6","timezone":"Asia/Kuching","modification_date":"2012-01-17"},{"geonameid":"1733432","name":"Kota Kinabalu","asciiname":"Kota Kinabalu","alternatenames":["BKI","Jesselton","Kinabalu","Kota Kinabalu","Kota-Kinabalu","kotakinabaru","kwta kynabalw","ya bi","Кота-Кинабалу","کوتا کینابالو","コタキナバル","亞庇"],"latitude":"5.9749","longitude":"116.0724","feature_class":"P","feature_code":"PPLA","country_code":"MY","cc2":"","admin1_code":"16","admin2_code":"","admin3_code":"","admin4_code":"","population":"457326","elevation":"","dem":"5","timezone":"Asia/Kuching","modification_date":"2014-08-18"},{"geonameid":"1733438","name":"Donggongon","asciiname":"Donggongon","alternatenames":[""],"latitude":"5.90702","longitude":"116.10146","feature_class":"P","feature_code":"PPL","country_code":"MY","cc2":"","admin1_code":"16","admin2_code":"","admin3_code":"","admin4_code":"","population":"71585","elevation":"","dem":"13","timezone":"Asia/Kuching","modification_date":"2010-06-16"},{"geonameid":"1733440","name":"Putatan","asciiname":"Putatan","alternatenames":["Kampong Putatan","Putatan Station"],"latitude":"5.9258","longitude":"116.06094","feature_class":"P","feature_code":"PPL","country_code":"MY","cc2":"","admin1_code":"16","admin2_code":"","admin3_code":"","admin4_code":"","population":"78340","elevation":"","dem":"6","timezone":"Asia/Kuching","modification_date":"2010-06-16"},{"geonameid":"1733449","name":"Kinarut","asciiname":"Kinarut","alternatenames":["Kinarut","Kinarut Station"],"latitude":"5.8231","longitude":"116.0466","feature_class":"P","feature_code":"PPL","country_code":"MY","cc2":"","admin1_code":"16","admin2_code":"","admin3_code":"","admin4_code":"","population":"15716","elevation":"","dem":"9","timezone":"Asia/Kuching","modification_date":"2012-01-17"},{"geonameid":"1733502","name":"Ranau","asciiname":"Ranau","alternatenames":["Ranau"],"latitude":"5.9538","longitude":"116.6641","feature_class":"P","feature_code":"PPL","country_code":"MY","cc2":"","admin1_code":"16","admin2_code":"","admin3_code":"","admin4_code":"","population":"19294","elevation":"","dem":"570","timezone":"Asia/Kuching","modification_date":"2015-04-14"},{"geonameid":"1733697","name":"Semporna","asciiname":"Semporna","alternatenames":["SMM","Semporna","Semporna Settlement","Sempurna","Simporan","Simporna","Семпорна"],"latitude":"4.48178","longitude":"118.61119","feature_class":"P","feature_code":"PPL","country_code":"MY","cc2":"","admin1_code":"16","admin2_code":"","admin3_code":"","admin4_code":"","population":"62641","elevation":"","dem":"7","timezone":"Asia/Kuching","modification_date":"2012-12-17"},{"geonameid":"1733874","name":"Beaufort","asciiname":"Beaufort","alternatenames":["Beaufort"],"latitude":"5.3473","longitude":"115.7455","feature_class":"P","feature_code":"PPL","country_code":"MY","cc2":"","admin1_code":"16","admin2_code":"","admin3_code":"","admin4_code":"","population":"15855","elevation":"","dem":"18","timezone":"Asia/Kuching","modification_date":"2012-01-17"},{"geonameid":"1733953","name":"Lahad Datu","asciiname":"Lahad Datu","alternatenames":["LDU","Lahad Datu","Lahad Datu Town"],"latitude":"5.0268","longitude":"118.327","feature_class":"P","feature_code":"PPL","country_code":"MY","cc2":"","admin1_code":"16","admin2_code":"","admin3_code":"","admin4_code":"","population":"105622","elevation":"","dem":"23","timezone":"Asia/Kuching","modification_date":"2012-01-17"},{"geonameid":"1734052","name":"Sandakan","asciiname":"Sandakan","alternatenames":["Elopura","SDK","Samdakan","San-ta-kin","Sandakan","Sandakan Town","Sân-tá-kîn","cantakkan","san da kan","sandakan","shan da gen","sndakan","Сандакан","سانداکان","سنداکان","சண்டாக்கான்","ซันดากัน","サンダカン","山打根","산다칸"],"latitude":"5.8402","longitude":"118.1179","feature_class":"P","feature_code":"PPL","country_code":"MY","cc2":"","admin1_code":"16","admin2_code":"","admin3_code":"","admin4_code":"","population":"392288","elevation":"","dem":"10","timezone":"Asia/Kuching","modification_date":"2012-01-17"},{"geonameid":"1734098","name":"Keningau","asciiname":"Keningau","alternatenames":["KGU","Kaningow","Kengingan","Keningau"],"latitude":"5.3378","longitude":"116.1602","feature_class":"P","feature_code":"PPL","country_code":"MY","cc2":"","admin1_code":"16","admin2_code":"","admin3_code":"","admin4_code":"","population":"77650","elevation":"","dem":"277","timezone":"Asia/Kuching","modification_date":"2012-01-17"},{"geonameid":"1734199","name":"Tawau","asciiname":"Tawau","alternatenames":["TWU","Tavau","Tawao","Tawau","dou hu","tavav","tawau","Тавау","தாவாவ்","タワウ","斗湖","타와우"],"latitude":"4.24482","longitude":"117.89115","feature_class":"P","feature_code":"PPL","country_code":"MY","cc2":"","admin1_code":"16","admin2_code":"1733595","admin3_code":"","admin4_code":"","population":"306462","elevation":"0","dem":"12","timezone":"Asia/Kuching","modification_date":"2014-09-01"},{"geonameid":"1736458","name":"Kudat","asciiname":"Kudat","alternatenames":["KUD","Kudat"],"latitude":"6.8837","longitude":"116.8477","feature_class":"P","feature_code":"PPL","country_code":"MY","cc2":"","admin1_code":"16","admin2_code":"","admin3_code":"","admin4_code":"","population":"32393","elevation":"","dem":"13","timezone":"Asia/Kuching","modification_date":"2012-01-17"},{"geonameid":"1736660","name":"Kota Belud","asciiname":"Kota Belud","alternatenames":["Khota Balud","Kota Belud"],"latitude":"6.351","longitude":"116.4305","feature_class":"P","feature_code":"PPL","country_code":"MY","cc2":"","admin1_code":"16","admin2_code":"","admin3_code":"","admin4_code":"","population":"12825","elevation":"","dem":"31","timezone":"Asia/Kuching","modification_date":"2012-01-17"},{"geonameid":"7302815","name":"Bandar Labuan","asciiname":"Bandar Labuan","alternatenames":[""],"latitude":"5.28883","longitude":"115.26924","feature_class":"P","feature_code":"PPL","country_code":"MY","cc2":"","admin1_code":"16","admin2_code":"","admin3_code":"","admin4_code":"","population":"54752","elevation":"","dem":"12","timezone":"Asia/Kuching","modification_date":"2010-06-17"},{"geonameid":"8714611","name":"Taman Rajawali","asciiname":"Taman Rajawali","alternatenames":[""],"latitude":"5.89477","longitude":"118.04576","feature_class":"P","feature_code":"PPL","country_code":"MY","cc2":"","admin1_code":"16","admin2_code":"","admin3_code":"","admin4_code":"","population":"10000","elevation":"","dem":"4","timezone":"Asia/Kuala_Lumpur","modification_date":"2014-03-05"}]}