{"region_data":{"countryId":"798544","adminCode1":"75","countryName":"Poland","fclName":"country, state, region,...","countryCode":"PL","lng":"22.9","fcodeName":"first-order administrative division","toponymName":"Województwo Lubelskie","fcl":"A","numberOfChildren":24,"name":"Lublin Voivodeship","fcode":"ADM1","geonameId":858785,"lat":"51.23333","adminName1":"Lublin Voivodeship","population":2157202},"country_data":{"ISO":"PL","ISO3":"POL","ISO_Numeric":"616","fips":"PL","country":"Poland","capital":"Warsaw","area":"312685","Population":"38500000","Continent":"EU","tld":".pl","CurrencyCode":"PLN","CurrencyName":"Zloty","Phone":"48","Postal_Code_Format":"##-###","Postal_Code_Regex":"^(\\d{5})$","Languages":"pl","geonameid":"798544","neighbours":"DE,LT,SK,CZ,BY,UA,RU","EquivalentFipsCode":""},"cities":[{"geonameid":"752963","name":"Żyrzyn","asciiname":"Zyrzyn","alternatenames":["Zyrzyn","Zytzyn","Żyrzyn","Żytzyn"],"latitude":"51.49918","longitude":"22.0917","feature_class":"P","feature_code":"PPLA3","country_code":"PL","cc2":"PL","admin1_code":"75","admin2_code":"0614","admin3_code":"061411","admin4_code":"","population":"1400","elevation":"","dem":"153","timezone":"Europe/Warsaw","modification_date":"2010-10-16"},{"geonameid":"753020","name":"Zwierzyniec","asciiname":"Zwierzyniec","alternatenames":["Zvezhinec","Zvezhinec'","Zvezineca","Zvežiņeca","Zwierzyniec","zi wei ri nie ci","Звежинец","Звежинець","茲維日涅茨"],"latitude":"50.614","longitude":"22.97512","feature_class":"P","feature_code":"PPLA3","country_code":"PL","cc2":"","admin1_code":"75","admin2_code":"0620","admin3_code":"062015","admin4_code":"","population":"3297","elevation":"","dem":"225","timezone":"Europe/Warsaw","modification_date":"2010-10-14"},{"geonameid":"753140","name":"Żółkiewka","asciiname":"Zolkiewka","alternatenames":["Zolkiewka","Zolkiewka-Osada","Żółkiewka","Żółkiewka-Osada"],"latitude":"50.90991","longitude":"22.83465","feature_class":"P","feature_code":"PPLA3","country_code":"PL","cc2":"PL","admin1_code":"75","admin2_code":"0606","admin3_code":"060611","admin4_code":"","population":"790","elevation":"","dem":"225","timezone":"Europe/Warsaw","modification_date":"2010-10-16"},{"geonameid":"753866","name":"Zamość","asciiname":"Zamosc","alternatenames":["Gorad Zamasc'","Zamosc","Zamosc'","Zamosca","Zamoscia","Zamose","Zamoshch","Zamost'ye","Zamoste","Zamostja","Zamosts","Zamostė","Zamost’ye","Zamość","jamosichi","sa mxchch","zamoshichi","zamostsi","zha mo xi qi","zmwsz","Ζάμοστς","Горад Замасць","Замостя","Замосць","Замошч","זמושץ","ซามอชช์","ზამოსცი","ザモシチ","扎莫希奇","자모시치"],"latitude":"50.72314","longitude":"23.25196","feature_class":"P","feature_code":"PPLA2","country_code":"PL","cc2":"","admin1_code":"75","admin2_code":"0664","admin3_code":"066401","admin4_code":"","population":"66034","elevation":"","dem":"213","timezone":"Europe/Warsaw","modification_date":"2010-10-09"},{"geonameid":"753885","name":"Zamch","asciiname":"Zamch","alternatenames":["Zamch","Zamek"],"latitude":"50.31713","longitude":"23.02786","feature_class":"P","feature_code":"PPL","country_code":"PL","cc2":"PL","admin1_code":"75","admin2_code":"0602","admin3_code":"060210","admin4_code":"","population":"1500","elevation":"","dem":"203","timezone":"Europe/Warsaw","modification_date":"2010-10-23"},{"geonameid":"753982","name":"Zalesie","asciiname":"Zalesie","alternatenames":["Zalesie"],"latitude":"52.03743","longitude":"23.3636","feature_class":"P","feature_code":"PPLA3","country_code":"PL","cc2":"","admin1_code":"75","admin2_code":"0601","admin3_code":"060119","admin4_code":"","population":"0","elevation":"","dem":"141","timezone":"Europe/Warsaw","modification_date":"2011-07-31"},{"geonameid":"754027","name":"Zakrzówek","asciiname":"Zakrzowek","alternatenames":[""],"latitude":"50.95124","longitude":"22.38138","feature_class":"P","feature_code":"PPLA3","country_code":"PL","cc2":"","admin1_code":"75","admin2_code":"0607","admin3_code":"060710","admin4_code":"","population":"1400","elevation":"","dem":"214","timezone":"Europe/Warsaw","modification_date":"2010-10-09"},{"geonameid":"754066","name":"Zakrzew","asciiname":"Zakrzew","alternatenames":["Zakrzew","Zakrzow"],"latitude":"50.89004","longitude":"22.59115","feature_class":"P","feature_code":"PPLA3","country_code":"PL","cc2":"PL","admin1_code":"75","admin2_code":"0609","admin3_code":"060916","admin4_code":"","population":"630","elevation":"","dem":"219","timezone":"Europe/Warsaw","modification_date":"2010-10-09"},{"geonameid":"754493","name":"Wysokie","asciiname":"Wysokie","alternatenames":[""],"latitude":"50.91093","longitude":"22.666","feature_class":"P","feature_code":"PPLA3","country_code":"PL","cc2":"","admin1_code":"75","admin2_code":"0609","admin3_code":"060915","admin4_code":"","population":"602","elevation":"","dem":"241","timezone":"Europe/Warsaw","modification_date":"2010-10-09"},{"geonameid":"755118","name":"Wola Uhruska","asciiname":"Wola Uhruska","alternatenames":[""],"latitude":"51.32139","longitude":"23.62627","feature_class":"P","feature_code":"PPLA3","country_code":"PL","cc2":"","admin1_code":"75","admin2_code":"0619","admin3_code":"061907","admin4_code":"","population":"1639","elevation":"","dem":"174","timezone":"Europe/Warsaw","modification_date":"2010-11-04"},{"geonameid":"755143","name":"Wola Sernicka","asciiname":"Wola Sernicka","alternatenames":["Wola Sernicka","Wola Syrnicka"],"latitude":"51.44978","longitude":"22.68351","feature_class":"P","feature_code":"PPL","country_code":"PL","cc2":"PL","admin1_code":"75","admin2_code":"0608","admin3_code":"060812","admin4_code":"","population":"1118","elevation":"","dem":"156","timezone":"Europe/Warsaw","modification_date":"2010-10-16"},{"geonameid":"755369","name":"Wojsławice","asciiname":"Wojslawice","alternatenames":[""],"latitude":"50.91916","longitude":"23.54602","feature_class":"P","feature_code":"PPL","country_code":"PL","cc2":"","admin1_code":"75","admin2_code":"0603","admin3_code":"060313","admin4_code":"","population":"1600","elevation":"","dem":"218","timezone":"Europe/Warsaw","modification_date":"2010-09-09"},{"geonameid":"755412","name":"Wojcieszków","asciiname":"Wojcieszkow","alternatenames":[""],"latitude":"51.76922","longitude":"22.31589","feature_class":"P","feature_code":"PPL","country_code":"PL","cc2":"","admin1_code":"75","admin2_code":"0611","admin3_code":"061110","admin4_code":"","population":"1100","elevation":"","dem":"152","timezone":"Europe/Warsaw","modification_date":"2010-09-04"},{"geonameid":"755427","name":"Wojciechów","asciiname":"Wojciechow","alternatenames":["Wojciechow","Wojciechow Lubelski","Wojciechów","Wojciechów Lubelski"],"latitude":"51.23543","longitude":"22.24551","feature_class":"P","feature_code":"PPLA3","country_code":"PL","cc2":"PL","admin1_code":"75","admin2_code":"0609","admin3_code":"060913","admin4_code":"","population":"920","elevation":"","dem":"194","timezone":"Europe/Warsaw","modification_date":"2010-10-11"},{"geonameid":"755438","name":"Wohyń","asciiname":"Wohyn","alternatenames":[""],"latitude":"51.75642","longitude":"22.78582","feature_class":"P","feature_code":"PPL","country_code":"PL","cc2":"","admin1_code":"75","admin2_code":"0615","admin3_code":"061508","admin4_code":"","population":"2000","elevation":"","dem":"154","timezone":"Europe/Warsaw","modification_date":"2010-09-04"},{"geonameid":"755474","name":"Włodawa","asciiname":"Wlodawa","alternatenames":["Gorad Uladava","Vlodava","Volodava","Wlodawa","Włodawa","fu wo da wa","wlwdbh","Влодава","Володава","Горад Уладава","ולודבה","弗沃達瓦"],"latitude":"51.55","longitude":"23.55","feature_class":"P","feature_code":"PPLA3","country_code":"PL","cc2":"","admin1_code":"75","admin2_code":"0619","admin3_code":"061901","admin4_code":"","population":"13142","elevation":"","dem":"173","timezone":"Europe/Warsaw","modification_date":"2011-07-31"},{"geonameid":"755551","name":"Wisznice","asciiname":"Wisznice","alternatenames":[""],"latitude":"51.78924","longitude":"23.20836","feature_class":"P","feature_code":"PPL","country_code":"PL","cc2":"","admin1_code":"75","admin2_code":"0601","admin3_code":"060118","admin4_code":"","population":"1559","elevation":"","dem":"152","timezone":"Europe/Warsaw","modification_date":"2010-09-04"},{"geonameid":"755670","name":"Wilków","asciiname":"Wilkow","alternatenames":[""],"latitude":"51.26224","longitude":"21.87756","feature_class":"P","feature_code":"PPLA3","country_code":"PL","cc2":"","admin1_code":"75","admin2_code":"0612","admin3_code":"061207","admin4_code":"","population":"208","elevation":"","dem":"122","timezone":"Europe/Warsaw","modification_date":"2010-10-16"},{"geonameid":"755675","name":"Wilkołaz","asciiname":"Wilkolaz","alternatenames":["Wilkolaz Pierwszy (do 1999)","Wilkołaz Pierwszy (do 1999)"],"latitude":"51.01473","longitude":"22.35014","feature_class":"P","feature_code":"PPLA3","country_code":"PL","cc2":"","admin1_code":"75","admin2_code":"0607","admin3_code":"060709","admin4_code":"","population":"2493","elevation":"","dem":"225","timezone":"Europe/Warsaw","modification_date":"2010-10-10"},{"geonameid":"756028","name":"Werbkowice","asciiname":"Werbkowice","alternatenames":[""],"latitude":"50.75373","longitude":"23.76411","feature_class":"P","feature_code":"PPL","country_code":"PL","cc2":"","admin1_code":"75","admin2_code":"0604","admin3_code":"060408","admin4_code":"","population":"3030","elevation":"","dem":"193","timezone":"Europe/Warsaw","modification_date":"2010-09-09"},{"geonameid":"756091","name":"Wąwolnica","asciiname":"Wawolnica","alternatenames":[""],"latitude":"51.29467","longitude":"22.14681","feature_class":"P","feature_code":"PPLA3","country_code":"PL","cc2":"","admin1_code":"75","admin2_code":"0614","admin3_code":"061410","admin4_code":"","population":"1041","elevation":"","dem":"159","timezone":"Europe/Warsaw","modification_date":"2010-10-12"},{"geonameid":"756295","name":"Uścimów Stary","asciiname":"Uscimow Stary","alternatenames":[""],"latitude":"51.46962","longitude":"22.95516","feature_class":"P","feature_code":"PPLA3","country_code":"PL","cc2":"","admin1_code":"75","admin2_code":"0608","admin3_code":"060813","admin4_code":"","population":"346","elevation":"","dem":"160","timezone":"Europe/Warsaw","modification_date":"2010-10-16"},{"geonameid":"756315","name":"Urzędów","asciiname":"Urzedow","alternatenames":[""],"latitude":"50.99323","longitude":"22.1426","feature_class":"P","feature_code":"PPLA3","country_code":"PL","cc2":"","admin1_code":"75","admin2_code":"0607","admin3_code":"060708","admin4_code":"","population":"898","elevation":"","dem":"184","timezone":"Europe/Warsaw","modification_date":"2010-10-10"},{"geonameid":"756316","name":"Urszulin","asciiname":"Urszulin","alternatenames":["Urszula","Urszulin"],"latitude":"51.3939","longitude":"23.1948","feature_class":"P","feature_code":"PPL","country_code":"PL","cc2":"PL","admin1_code":"75","admin2_code":"0619","admin3_code":"061905","admin4_code":"","population":"1003","elevation":"","dem":"171","timezone":"Europe/Warsaw","modification_date":"2010-09-04"},{"geonameid":"756351","name":"Ulhówek","asciiname":"Ulhowek","alternatenames":[""],"latitude":"50.44969","longitude":"23.79956","feature_class":"P","feature_code":"PPLA3","country_code":"PL","cc2":"","admin1_code":"75","admin2_code":"0618","admin3_code":"061813","admin4_code":"","population":"1262","elevation":"","dem":"219","timezone":"Europe/Warsaw","modification_date":"2010-10-14"},{"geonameid":"756354","name":"Ułęż","asciiname":"Ulez","alternatenames":[""],"latitude":"51.59195","longitude":"22.10741","feature_class":"P","feature_code":"PPLA3","country_code":"PL","cc2":"","admin1_code":"75","admin2_code":"0616","admin3_code":"061606","admin4_code":"","population":"1677","elevation":"","dem":"143","timezone":"Europe/Warsaw","modification_date":"2010-09-27"},{"geonameid":"756438","name":"Tyszowce","asciiname":"Tyszowce","alternatenames":["Tishovce","Tisovce","Tišovce","Typzowce","Tyshovce","Tyszowce","di shao fu cai","Тишовце","Тышовце","蒂紹夫采"],"latitude":"50.61699","longitude":"23.69927","feature_class":"P","feature_code":"PPLA3","country_code":"PL","cc2":"PL","admin1_code":"75","admin2_code":"0618","admin3_code":"061812","admin4_code":"","population":"2137","elevation":"","dem":"198","timezone":"Europe/Warsaw","modification_date":"2010-10-14"},{"geonameid":"756577","name":"Turobin","asciiname":"Turobin","alternatenames":[""],"latitude":"50.82367","longitude":"22.74273","feature_class":"P","feature_code":"PPLA3","country_code":"PL","cc2":"","admin1_code":"75","admin2_code":"0602","admin3_code":"060214","admin4_code":"","population":"1036","elevation":"","dem":"215","timezone":"Europe/Warsaw","modification_date":"2010-10-14"},{"geonameid":"756627","name":"Tuczna","asciiname":"Tuczna","alternatenames":[""],"latitude":"51.88029","longitude":"23.4252","feature_class":"P","feature_code":"PPLA3","country_code":"PL","cc2":"","admin1_code":"75","admin2_code":"0601","admin3_code":"060117","admin4_code":"","population":"0","elevation":"","dem":"153","timezone":"Europe/Warsaw","modification_date":"2011-07-31"},{"geonameid":"756648","name":"Trzydnik Duży","asciiname":"Trzydnik Duzy","alternatenames":[""],"latitude":"50.84887","longitude":"22.13359","feature_class":"P","feature_code":"PPLA3","country_code":"PL","cc2":"","admin1_code":"75","admin2_code":"0607","admin3_code":"060707","admin4_code":"","population":"394","elevation":"","dem":"210","timezone":"Europe/Warsaw","modification_date":"2010-10-10"},{"geonameid":"756692","name":"Trzebieszów","asciiname":"Trzebieszow","alternatenames":[""],"latitude":"51.99006","longitude":"22.55502","feature_class":"P","feature_code":"PPL","country_code":"PL","cc2":"","admin1_code":"75","admin2_code":"0611","admin3_code":"061109","admin4_code":"","population":"1651","elevation":"","dem":"152","timezone":"Europe/Warsaw","modification_date":"2010-09-04"},{"geonameid":"756819","name":"Trawniki","asciiname":"Trawniki","alternatenames":["Trawniki"],"latitude":"51.13633","longitude":"22.99816","feature_class":"P","feature_code":"PPLA3","country_code":"PL","cc2":"","admin1_code":"75","admin2_code":"0617","admin3_code":"061705","admin4_code":"","population":"2893","elevation":"","dem":"175","timezone":"Europe/Warsaw","modification_date":"2010-10-16"},{"geonameid":"756868","name":"Tomaszów Lubelski","asciiname":"Tomaszow Lubelski","alternatenames":["Liublino Tomasuvas","Liublino Tomašuvas","Tomashev","Tomashiv","Tomashov Ljublinski","Tomashuv","Tomashuv-Ljubel'ski","Tomashuv-Ljubel'skij","Tomasova Lubelska","Tomaszow","Tomaszów","Tomašova Lubelska","Tomoshuv Lyubel'ski","lu bu lin de qu tuo ma shu fu","twmswb lwblsqy","Томашов Люблински","Томашув-Любельски","Томашув-Любельский","Томашів","טאמאשאוו","טומשוב לובלסקי","トマシュフ・ルベルスキ","盧布林地區托馬舒夫"],"latitude":"50.44767","longitude":"23.41616","feature_class":"P","feature_code":"PPLA2","country_code":"PL","cc2":"","admin1_code":"75","admin2_code":"0618","admin3_code":"061801","admin4_code":"","population":"20261","elevation":"275","dem":"274","timezone":"Europe/Warsaw","modification_date":"2010-10-14"},{"geonameid":"756933","name":"Tereszpol","asciiname":"Tereszpol","alternatenames":["Tereszpol Zaorenda"],"latitude":"50.58373","longitude":"22.8798","feature_class":"P","feature_code":"PPLA3","country_code":"PL","cc2":"","admin1_code":"75","admin2_code":"0602","admin3_code":"060213","admin4_code":"","population":"1157","elevation":"","dem":"255","timezone":"Europe/Warsaw","modification_date":"2013-12-04"},{"geonameid":"756938","name":"Terespol","asciiname":"Terespol","alternatenames":["Gorad Cjarehspal'","Terespil'","Terespol'","Terespole","Terespolis","tai lei si bo er","teresuporu","Горад Цярэспаль","Тересполь","Тереспіль","テレスポル","泰雷斯波爾"],"latitude":"52.0755","longitude":"23.61614","feature_class":"P","feature_code":"PPLA3","country_code":"PL","cc2":"","admin1_code":"75","admin2_code":"0601","admin3_code":"060116","admin4_code":"","population":"6000","elevation":"","dem":"131","timezone":"Europe/Warsaw","modification_date":"2011-07-31"},{"geonameid":"756980","name":"Telatyn","asciiname":"Telatyn","alternatenames":[""],"latitude":"50.52712","longitude":"23.83956","feature_class":"P","feature_code":"PPLA3","country_code":"PL","cc2":"","admin1_code":"75","admin2_code":"0618","admin3_code":"061810","admin4_code":"","population":"603","elevation":"","dem":"216","timezone":"Europe/Warsaw","modification_date":"2010-10-14"},{"geonameid":"757029","name":"Tarnogród","asciiname":"Tarnogrod","alternatenames":["Tarnogrod","Tarnogroda","Tarnogrud","Tarnogrudas","Tarnogród","Ternogorod","ta er nuo ge lu de","Тарногруд","Терногород","塔爾諾格魯德"],"latitude":"50.3609","longitude":"22.74174","feature_class":"P","feature_code":"PPLA3","country_code":"PL","cc2":"","admin1_code":"75","admin2_code":"0602","admin3_code":"060212","admin4_code":"","population":"3396","elevation":"","dem":"229","timezone":"Europe/Warsaw","modification_date":"2010-10-13"},{"geonameid":"757044","name":"Tarnawatka","asciiname":"Tarnawatka","alternatenames":[""],"latitude":"50.53154","longitude":"23.3959","feature_class":"P","feature_code":"PPLA3","country_code":"PL","cc2":"","admin1_code":"75","admin2_code":"0618","admin3_code":"061809","admin4_code":"","population":"1000","elevation":"","dem":"278","timezone":"Europe/Warsaw","modification_date":"2010-10-14"},{"geonameid":"757452","name":"Szczebrzeszyn","asciiname":"Szczebrzeszyn","alternatenames":["Scebzesina","Shhebreshin","Shhebzheshin","Szczebrzeszyn","shen qie bu re shen","Ščebžešina","Щебжешин","Щебрешин","什切布熱申"],"latitude":"50.69499","longitude":"22.97954","feature_class":"P","feature_code":"PPLA3","country_code":"PL","cc2":"","admin1_code":"75","admin2_code":"0620","admin3_code":"062013","admin4_code":"","population":"5255","elevation":"","dem":"214","timezone":"Europe/Warsaw","modification_date":"2010-10-07"},{"geonameid":"757472","name":"Szastarka","asciiname":"Szastarka","alternatenames":[""],"latitude":"50.85494","longitude":"22.3346","feature_class":"P","feature_code":"PPLA3","country_code":"PL","cc2":"","admin1_code":"75","admin2_code":"0607","admin3_code":"060706","admin4_code":"","population":"983","elevation":"","dem":"287","timezone":"Europe/Warsaw","modification_date":"2010-10-10"},{"geonameid":"757692","name":"Świdnik","asciiname":"Swidnik","alternatenames":["Swidnik","Swidnik Duzy","Świdnik","Świdnik Duży"],"latitude":"51.21898","longitude":"22.69621","feature_class":"P","feature_code":"PPL","country_code":"PL","cc2":"PL","admin1_code":"75","admin2_code":"0617","admin3_code":"061701","admin4_code":"","population":"40050","elevation":"","dem":"203","timezone":"Europe/Warsaw","modification_date":"2010-09-09"},{"geonameid":"757735","name":"Susiec","asciiname":"Susiec","alternatenames":["Skwarki","Susiec"],"latitude":"50.41973","longitude":"23.19626","feature_class":"P","feature_code":"PPLA3","country_code":"PL","cc2":"PL","admin1_code":"75","admin2_code":"0618","admin3_code":"061808","admin4_code":"","population":"1300","elevation":"","dem":"263","timezone":"Europe/Warsaw","modification_date":"2010-10-14"},{"geonameid":"757773","name":"Sułów","asciiname":"Sulow","alternatenames":[""],"latitude":"50.90661","longitude":"22.36061","feature_class":"P","feature_code":"PPL","country_code":"PL","cc2":"","admin1_code":"75","admin2_code":"0607","admin3_code":"060710","admin4_code":"","population":"1115","elevation":"","dem":"235","timezone":"Europe/Warsaw","modification_date":"2010-10-16"},{"geonameid":"757953","name":"Strzyżowice","asciiname":"Strzyzowice","alternatenames":[""],"latitude":"51.0483","longitude":"22.44018","feature_class":"P","feature_code":"PPLA3","country_code":"PL","cc2":"","admin1_code":"75","admin2_code":"0609","admin3_code":"060912","admin4_code":"","population":"648","elevation":"","dem":"199","timezone":"Europe/Warsaw","modification_date":"2010-10-09"},{"geonameid":"758157","name":"Stoczek Łukowski","asciiname":"Stoczek Lukowski","alternatenames":["Stoceka Lukovska","Stochek-Lukovs'kij","Stochek-Lukovskij","Stoczek","Stoczek Lukovski","Stoczek Lukowski","Stoczek Łukowski","Stočeka Lukovska","wu ku fu de qu si tuo qie ke","Сточек-Луковский","Сточек-Луковський","武庫夫地區斯托切克"],"latitude":"51.96135","longitude":"21.97137","feature_class":"P","feature_code":"PPLA3","country_code":"PL","cc2":"","admin1_code":"75","admin2_code":"0611","admin3_code":"061108","admin4_code":"","population":"2718","elevation":"","dem":"162","timezone":"Europe/Warsaw","modification_date":"2011-07-31"},{"geonameid":"758175","name":"Stężyca","asciiname":"Stezyca","alternatenames":[""],"latitude":"51.58187","longitude":"21.77087","feature_class":"P","feature_code":"PPLA3","country_code":"PL","cc2":"","admin1_code":"75","admin2_code":"0616","admin3_code":"061605","admin4_code":"","population":"1900","elevation":"","dem":"113","timezone":"Europe/Warsaw","modification_date":"2010-09-27"},{"geonameid":"758276","name":"Stary Zamość","asciiname":"Stary Zamosc","alternatenames":[""],"latitude":"50.82004","longitude":"23.17154","feature_class":"P","feature_code":"PPLA3","country_code":"PL","cc2":"","admin1_code":"75","admin2_code":"0620","admin3_code":"062011","admin4_code":"","population":"637","elevation":"","dem":"204","timezone":"Europe/Warsaw","modification_date":"2010-10-16"},{"geonameid":"758517","name":"Spiczyn","asciiname":"Spiczyn","alternatenames":[""],"latitude":"51.34128","longitude":"22.75354","feature_class":"P","feature_code":"PPLA3","country_code":"PL","cc2":"","admin1_code":"75","admin2_code":"0610","admin3_code":"061006","admin4_code":"","population":"697","elevation":"","dem":"166","timezone":"Europe/Warsaw","modification_date":"2010-10-16"},{"geonameid":"758539","name":"Sosnówka","asciiname":"Sosnowka","alternatenames":["Sosnowka","Sosnówka"],"latitude":"51.75084","longitude":"23.33814","feature_class":"P","feature_code":"PPLA3","country_code":"PL","cc2":"","admin1_code":"75","admin2_code":"0601","admin3_code":"060115","admin4_code":"","population":"520","elevation":"","dem":"158","timezone":"Europe/Warsaw","modification_date":"2011-07-31"},{"geonameid":"758548","name":"Sosnowica","asciiname":"Sosnowica","alternatenames":[""],"latitude":"51.52065","longitude":"23.09215","feature_class":"P","feature_code":"PPLA3","country_code":"PL","cc2":"","admin1_code":"75","admin2_code":"0613","admin3_code":"061307","admin4_code":"","population":"678","elevation":"","dem":"165","timezone":"Europe/Warsaw","modification_date":"2010-10-16"},{"geonameid":"758973","name":"Sławatycze","asciiname":"Slawatycze","alternatenames":["Slavatiche","Slavatyche","Slawatycze","Stavapycze","Sławatycze"],"latitude":"51.76338","longitude":"23.5546","feature_class":"P","feature_code":"PPLA3","country_code":"PL","cc2":"PL","admin1_code":"75","admin2_code":"0601","admin3_code":"060114","admin4_code":"","population":"2647","elevation":"","dem":"154","timezone":"Europe/Warsaw","modification_date":"2011-07-31"},{"geonameid":"759127","name":"Skierbieszów","asciiname":"Skierbieszow","alternatenames":["Skierbieszow","Skierbieszów"],"latitude":"50.85158","longitude":"23.35917","feature_class":"P","feature_code":"PPLA3","country_code":"PL","cc2":"","admin1_code":"75","admin2_code":"0620","admin3_code":"062010","admin4_code":"","population":"1315","elevation":"","dem":"201","timezone":"Europe/Warsaw","modification_date":"2010-10-16"},{"geonameid":"759190","name":"Sitno","asciiname":"Sitno","alternatenames":[""],"latitude":"50.74944","longitude":"23.3626","feature_class":"P","feature_code":"PPLA3","country_code":"PL","cc2":"","admin1_code":"75","admin2_code":"0620","admin3_code":"062009","admin4_code":"","population":"703","elevation":"","dem":"213","timezone":"Europe/Warsaw","modification_date":"2010-10-14"},{"geonameid":"759316","name":"Siemień","asciiname":"Siemien","alternatenames":[""],"latitude":"51.62883","longitude":"22.77243","feature_class":"P","feature_code":"PPLA3","country_code":"PL","cc2":"","admin1_code":"75","admin2_code":"0613","admin3_code":"061306","admin4_code":"","population":"581","elevation":"","dem":"142","timezone":"Europe/Warsaw","modification_date":"2010-10-16"},{"geonameid":"759466","name":"Serokomla","asciiname":"Serokomla","alternatenames":[""],"latitude":"51.7007","longitude":"22.33237","feature_class":"P","feature_code":"PPL","country_code":"PL","cc2":"","admin1_code":"75","admin2_code":"0611","admin3_code":"061106","admin4_code":"","population":"1060","elevation":"","dem":"151","timezone":"Europe/Warsaw","modification_date":"2010-09-09"},{"geonameid":"759472","name":"Serniki","asciiname":"Serniki","alternatenames":["Serniki","Syrniki"],"latitude":"51.43716","longitude":"22.65853","feature_class":"P","feature_code":"PPLA3","country_code":"PL","cc2":"PL","admin1_code":"75","admin2_code":"0608","admin3_code":"060812","admin4_code":"","population":"382","elevation":"","dem":"150","timezone":"Europe/Warsaw","modification_date":"2010-10-16"},{"geonameid":"759534","name":"Sawin","asciiname":"Sawin","alternatenames":["Comuna de Sawin","Gmina Savin","Gmina Sawin","Savin","Савин","Ґміна Савін"],"latitude":"51.27443","longitude":"23.43375","feature_class":"P","feature_code":"PPL","country_code":"PL","cc2":"","admin1_code":"75","admin2_code":"0603","admin3_code":"060310","admin4_code":"","population":"2181","elevation":"","dem":"179","timezone":"Europe/Warsaw","modification_date":"2010-09-09"},{"geonameid":"759778","name":"Rzeczyca","asciiname":"Rzeczyca","alternatenames":[""],"latitude":"51.96225","longitude":"22.74942","feature_class":"P","feature_code":"PPL","country_code":"PL","cc2":"","admin1_code":"75","admin2_code":"0601","admin3_code":"060110","admin4_code":"","population":"1500","elevation":"","dem":"148","timezone":"Europe/Warsaw","modification_date":"2010-10-19"},{"geonameid":"759852","name":"Ryki","asciiname":"Ryki","alternatenames":["Riki","Ryki","lei ji","Рики","Рыки","雷基"],"latitude":"51.62574","longitude":"21.93274","feature_class":"P","feature_code":"PPLA2","country_code":"PL","cc2":"","admin1_code":"75","admin2_code":"0616","admin3_code":"061604","admin4_code":"","population":"9619","elevation":"","dem":"149","timezone":"Europe/Warsaw","modification_date":"2010-09-27"},{"geonameid":"759922","name":"Rybczewice","asciiname":"Rybczewice","alternatenames":[""],"latitude":"51.02876","longitude":"22.85053","feature_class":"P","feature_code":"PPLA3","country_code":"PL","cc2":"","admin1_code":"75","admin2_code":"0617","admin3_code":"061704","admin4_code":"","population":"840","elevation":"","dem":"216","timezone":"Europe/Warsaw","modification_date":"2010-10-16"},{"geonameid":"760054","name":"Rudnik","asciiname":"Rudnik","alternatenames":[""],"latitude":"50.88035","longitude":"22.97293","feature_class":"P","feature_code":"PPLA3","country_code":"PL","cc2":"","admin1_code":"75","admin2_code":"0606","admin3_code":"060609","admin4_code":"","population":"543","elevation":"","dem":"228","timezone":"Europe/Warsaw","modification_date":"2010-10-16"},{"geonameid":"760254","name":"Siennica Różana","asciiname":"Siennica Rozana","alternatenames":["Rozana","Różana","Siennica Rozana","Siennica Różana"],"latitude":"51.00123","longitude":"23.3226","feature_class":"P","feature_code":"PPLA3","country_code":"PL","cc2":"PL","admin1_code":"75","admin2_code":"0606","admin3_code":"060610","admin4_code":"","population":"1000","elevation":"","dem":"194","timezone":"Europe/Warsaw","modification_date":"2010-10-16"},{"geonameid":"760308","name":"Rossosz","asciiname":"Rossosz","alternatenames":[""],"latitude":"51.85836","longitude":"23.1374","feature_class":"P","feature_code":"PPLA3","country_code":"PL","cc2":"","admin1_code":"75","admin2_code":"0601","admin3_code":"060113","admin4_code":"","population":"0","elevation":"","dem":"145","timezone":"Europe/Warsaw","modification_date":"2011-07-31"},{"geonameid":"760395","name":"Rokitno","asciiname":"Rokitno","alternatenames":["Rokitino","Rokitno","Rokitno Podlaskie","Рокитно"],"latitude":"52.12142","longitude":"23.29514","feature_class":"P","feature_code":"PPLA3","country_code":"PL","cc2":"PL","admin1_code":"75","admin2_code":"0601","admin3_code":"060112","admin4_code":"","population":"747","elevation":"","dem":"150","timezone":"Europe/Warsaw","modification_date":"2010-10-16"},{"geonameid":"760414","name":"Rogóźno","asciiname":"Rogozno","alternatenames":["Rogozna","Rogozno","Rogożna","Rogóźno"],"latitude":"50.46417","longitude":"23.39041","feature_class":"P","feature_code":"PPL","country_code":"PL","cc2":"PL","admin1_code":"75","admin2_code":"0618","admin3_code":"061811","admin4_code":"","population":"1153","elevation":"","dem":"273","timezone":"Europe/Warsaw","modification_date":"2010-09-14"},{"geonameid":"760516","name":"Rejowiec Fabryczny","asciiname":"Rejowiec Fabryczny","alternatenames":["Rejowiec Fabryczny"],"latitude":"51.11414","longitude":"23.24724","feature_class":"P","feature_code":"PPLA3","country_code":"PL","cc2":"","admin1_code":"75","admin2_code":"0603","admin3_code":"060301","admin4_code":"","population":"4474","elevation":"","dem":"200","timezone":"Europe/Warsaw","modification_date":"2011-07-31"},{"geonameid":"760518","name":"Rejowiec","asciiname":"Rejowiec","alternatenames":[""],"latitude":"51.09134","longitude":"23.28192","feature_class":"P","feature_code":"PPL","country_code":"PL","cc2":"","admin1_code":"75","admin2_code":"0603","admin3_code":"060315","admin4_code":"","population":"2114","elevation":"","dem":"199","timezone":"Europe/Warsaw","modification_date":"2010-09-09"},{"geonameid":"760680","name":"Radzyń Podlaski","asciiname":"Radzyn Podlaski","alternatenames":["Radin'-Pidljas'kij","Radzin Podljaski","Radzina Podlaska","Radziņa Podlaska","Radzyn","Radzyn Podlaski","Radzyn'-Podljaskij","Radzyń","Radzyń Podlaski","bo de la xie de qu la ceng","Радзин Подляски","Радзынь-Подляский","Радинь-Підляський","波德拉謝地區拉曾"],"latitude":"51.78333","longitude":"22.61667","feature_class":"P","feature_code":"PPLA3","country_code":"PL","cc2":"","admin1_code":"75","admin2_code":"0615","admin3_code":"061501","admin4_code":"","population":"16071","elevation":"","dem":"144","timezone":"Europe/Warsaw","modification_date":"2011-07-31"},{"geonameid":"760806","name":"Radecznica","asciiname":"Radecznica","alternatenames":[""],"latitude":"50.75155","longitude":"22.82976","feature_class":"P","feature_code":"PPLA3","country_code":"PL","cc2":"","admin1_code":"75","admin2_code":"0620","admin3_code":"062008","admin4_code":"","population":"920","elevation":"","dem":"205","timezone":"Europe/Warsaw","modification_date":"2010-10-14"},{"geonameid":"760853","name":"Rachanie","asciiname":"Rachanie","alternatenames":["Comuna de Rachanie","Gmina Rachanie","Gmina Rakhane","Rakhane","Рахане","Ґміна Рахане"],"latitude":"50.53842","longitude":"23.54688","feature_class":"P","feature_code":"PPLA3","country_code":"PL","cc2":"","admin1_code":"75","admin2_code":"0618","admin3_code":"061807","admin4_code":"","population":"990","elevation":"","dem":"226","timezone":"Europe/Warsaw","modification_date":"2010-10-14"},{"geonameid":"760924","name":"Puławy","asciiname":"Pulawy","alternatenames":["Pulavai","Pulavi","Pulavy","Pulawy","Putawy","Puławy","pu wa wei","puwavu~i","Пулави","Пулавы","プワヴィ","普瓦維"],"latitude":"51.41655","longitude":"21.96939","feature_class":"P","feature_code":"PPLA2","country_code":"PL","cc2":"","admin1_code":"75","admin2_code":"0614","admin3_code":"061401","admin4_code":"","population":"49759","elevation":"","dem":"137","timezone":"Europe/Warsaw","modification_date":"2010-10-16"},{"geonameid":"760951","name":"Puchaczów","asciiname":"Puchaczow","alternatenames":["Puchaczow","Puchaczów","Puhaczow","Puhaczów"],"latitude":"51.3105","longitude":"22.9737","feature_class":"P","feature_code":"PPLA3","country_code":"PL","cc2":"PL","admin1_code":"75","admin2_code":"0610","admin3_code":"061005","admin4_code":"","population":"817","elevation":"","dem":"167","timezone":"Europe/Warsaw","modification_date":"2010-10-16"},{"geonameid":"760999","name":"Przytoczno","asciiname":"Przytoczno","alternatenames":[""],"latitude":"51.61951","longitude":"22.27135","feature_class":"P","feature_code":"PPL","country_code":"PL","cc2":"","admin1_code":"75","admin2_code":"0608","admin3_code":"060804","admin4_code":"","population":"1100","elevation":"","dem":"136","timezone":"Europe/Warsaw","modification_date":"2010-10-16"},{"geonameid":"761356","name":"Potok Wielki","asciiname":"Potok Wielki","alternatenames":["Gmina Potok Wielki","Potok","Potok Wielki"],"latitude":"50.7915","longitude":"22.21642","feature_class":"P","feature_code":"PPLA3","country_code":"PL","cc2":"","admin1_code":"75","admin2_code":"0605","admin3_code":"060507","admin4_code":"","population":"502","elevation":"","dem":"207","timezone":"Europe/Warsaw","modification_date":"2013-07-14"},{"geonameid":"761363","name":"Potok Górny","asciiname":"Potok Gorny","alternatenames":[""],"latitude":"50.38477","longitude":"22.56188","feature_class":"P","feature_code":"PPLA3","country_code":"PL","cc2":"","admin1_code":"75","admin2_code":"0602","admin3_code":"060211","admin4_code":"","population":"1341","elevation":"","dem":"211","timezone":"Europe/Warsaw","modification_date":"2010-10-14"},{"geonameid":"761546","name":"Poniatowa","asciiname":"Poniatowa","alternatenames":["Poniatowa","Poniatowo"],"latitude":"51.17983","longitude":"22.13093","feature_class":"P","feature_code":"PPLA3","country_code":"PL","cc2":"","admin1_code":"75","admin2_code":"0612","admin3_code":"061206","admin4_code":"","population":"10056","elevation":"","dem":"206","timezone":"Europe/Warsaw","modification_date":"2010-10-16"},{"geonameid":"761671","name":"Pokrówka","asciiname":"Pokrowka","alternatenames":[""],"latitude":"51.09479","longitude":"23.46345","feature_class":"P","feature_code":"PPL","country_code":"PL","cc2":"","admin1_code":"75","admin2_code":"0603","admin3_code":"060303","admin4_code":"","population":"1594","elevation":"","dem":"198","timezone":"Europe/Warsaw","modification_date":"2010-09-09"},{"geonameid":"761922","name":"Podedwórze","asciiname":"Podedworze","alternatenames":["Opole","Podedworze","Podedwórze"],"latitude":"51.68815","longitude":"23.19961","feature_class":"P","feature_code":"PPLA3","country_code":"PL","cc2":"PL","admin1_code":"75","admin2_code":"0613","admin3_code":"061305","admin4_code":"","population":"493","elevation":"","dem":"156","timezone":"Europe/Warsaw","modification_date":"2010-10-16"},{"geonameid":"762118","name":"Piszczac","asciiname":"Piszczac","alternatenames":[""],"latitude":"51.98118","longitude":"23.37719","feature_class":"P","feature_code":"PPLA3","country_code":"PL","cc2":"","admin1_code":"75","admin2_code":"0601","admin3_code":"060111","admin4_code":"","population":"3087","elevation":"","dem":"141","timezone":"Europe/Warsaw","modification_date":"2011-07-31"},{"geonameid":"762390","name":"Piaski","asciiname":"Piaski","alternatenames":["Piaski","Piaski Luterskie","Piaski Wielkie"],"latitude":"51.13892","longitude":"22.84856","feature_class":"P","feature_code":"PPLA3","country_code":"PL","cc2":"PL","admin1_code":"75","admin2_code":"0617","admin3_code":"061703","admin4_code":"","population":"2634","elevation":"","dem":"189","timezone":"Europe/Warsaw","modification_date":"2010-10-12"},{"geonameid":"762643","name":"Parczew","asciiname":"Parczew","alternatenames":["Parceva","Parchev","Parchiv","Parczew","Parčeva","pa er qie fu","przb","Парчев","Парчів","פרצב","帕爾切夫"],"latitude":"51.64021","longitude":"22.90057","feature_class":"P","feature_code":"PPLA2","country_code":"PL","cc2":"","admin1_code":"75","admin2_code":"0613","admin3_code":"061304","admin4_code":"","population":"10249","elevation":"","dem":"148","timezone":"Europe/Warsaw","modification_date":"2010-10-16"},{"geonameid":"762851","name":"Ostrów Lubelski","asciiname":"Ostrow Lubelski","alternatenames":["Ostrow","Ostrow Lubelski","Ostrow Podlaski","Ostrów","Ostrów Lubelski","Ostrów Podlaski"],"latitude":"51.49416","longitude":"22.85287","feature_class":"P","feature_code":"PPLA3","country_code":"PL","cc2":"PL","admin1_code":"75","admin2_code":"0608","admin3_code":"060810","admin4_code":"","population":"2206","elevation":"","dem":"150","timezone":"Europe/Warsaw","modification_date":"2010-10-16"},{"geonameid":"762878","name":"Ostrówek","asciiname":"Ostrowek","alternatenames":[""],"latitude":"51.5815","longitude":"22.61227","feature_class":"P","feature_code":"PPLA3","country_code":"PL","cc2":"","admin1_code":"75","admin2_code":"0608","admin3_code":"060811","admin4_code":"","population":"276","elevation":"","dem":"143","timezone":"Europe/Warsaw","modification_date":"2010-10-16"},{"geonameid":"763107","name":"Opole Lubelskie","asciiname":"Opole Lubelskie","alternatenames":["Comuna de Opole Lubelskie","Gmina Opole Lubelskie","Gmina Opole-Ljubel's'ke","Opole","Opole Lubelskie","Opole-Ljubel'ske","Ополе-Любельске","Ґміна Ополе-Любельське"],"latitude":"51.14775","longitude":"21.96897","feature_class":"P","feature_code":"PPLA2","country_code":"PL","cc2":"","admin1_code":"75","admin2_code":"0612","admin3_code":"061205","admin4_code":"","population":"8780","elevation":"","dem":"150","timezone":"Europe/Warsaw","modification_date":"2010-10-16"},{"geonameid":"763451","name":"Obsza","asciiname":"Obsza","alternatenames":["Obsza","Zamch-Zamosty Obsza"],"latitude":"50.3152","longitude":"22.95688","feature_class":"P","feature_code":"PPLA3","country_code":"PL","cc2":"PL","admin1_code":"75","admin2_code":"0602","admin3_code":"060210","admin4_code":"","population":"861","elevation":"","dem":"225","timezone":"Europe/Warsaw","modification_date":"2010-10-14"},{"geonameid":"763608","name":"Nowodwór","asciiname":"Nowodwor","alternatenames":[""],"latitude":"51.63901","longitude":"22.10183","feature_class":"P","feature_code":"PPLA3","country_code":"PL","cc2":"","admin1_code":"75","admin2_code":"0616","admin3_code":"061603","admin4_code":"","population":"539","elevation":"","dem":"157","timezone":"Europe/Warsaw","modification_date":"2010-09-27"},{"geonameid":"763945","name":"Niemce","asciiname":"Niemce","alternatenames":["Niemce"],"latitude":"51.36155","longitude":"22.63939","feature_class":"P","feature_code":"PPLA3","country_code":"PL","cc2":"","admin1_code":"75","admin2_code":"0609","admin3_code":"060911","admin4_code":"","population":"3161","elevation":"","dem":"184","timezone":"Europe/Warsaw","modification_date":"2010-10-11"},{"geonameid":"763946","name":"Nielisz","asciiname":"Nielisz","alternatenames":[""],"latitude":"50.80067","longitude":"23.04451","feature_class":"P","feature_code":"PPLA3","country_code":"PL","cc2":"","admin1_code":"75","admin2_code":"0620","admin3_code":"062007","admin4_code":"","population":"920","elevation":"","dem":"207","timezone":"Europe/Warsaw","modification_date":"2010-10-16"},{"geonameid":"763987","name":"Niedźwiada","asciiname":"Niedzwiada","alternatenames":["Niedrzwica","Niedzwiada","Niedźwiada"],"latitude":"51.54409","longitude":"22.6914","feature_class":"P","feature_code":"PPLA3","country_code":"PL","cc2":"PL","admin1_code":"75","admin2_code":"0608","admin3_code":"060809","admin4_code":"","population":"754","elevation":"","dem":"161","timezone":"Europe/Warsaw","modification_date":"2010-10-16"},{"geonameid":"764000","name":"Niedrzwica Duża","asciiname":"Niedrzwica Duza","alternatenames":["Niedrzwica","Niedrzwica Duza","Niedrzwica Duża"],"latitude":"51.11462","longitude":"22.38911","feature_class":"P","feature_code":"PPLA3","country_code":"PL","cc2":"PL","admin1_code":"75","admin2_code":"0609","admin3_code":"060910","admin4_code":"","population":"3900","elevation":"","dem":"194","timezone":"Europe/Warsaw","modification_date":"2010-10-11"},{"geonameid":"764145","name":"Nałęczów","asciiname":"Naleczow","alternatenames":["Nalenchuv","Nalencova","Nalencuvas","Nalenčova","Nalenčuvas","na wen qiu fu","Наленчув","納文丘夫"],"latitude":"51.28581","longitude":"22.21539","feature_class":"P","feature_code":"PPLA3","country_code":"PL","cc2":"","admin1_code":"75","admin2_code":"0614","admin3_code":"061408","admin4_code":"","population":"4200","elevation":"","dem":"179","timezone":"Europe/Warsaw","modification_date":"2010-10-11"},{"geonameid":"764531","name":"Modliborzyce","asciiname":"Modliborzyce","alternatenames":["Comuna de Modliborzyce","Gmina Modliborzyce","Gmina Modlibozhice","Modlibozhice","Модлибожице","Ґміна Модлібожице"],"latitude":"50.75416","longitude":"22.32945","feature_class":"P","feature_code":"PPLA3","country_code":"PL","cc2":"","admin1_code":"75","admin2_code":"0605","admin3_code":"060506","admin4_code":"","population":"1904","elevation":"","dem":"214","timezone":"Europe/Warsaw","modification_date":"2010-10-14"},{"geonameid":"764670","name":"Mircze","asciiname":"Mircze","alternatenames":[""],"latitude":"50.65164","longitude":"23.89604","feature_class":"P","feature_code":"PPL","country_code":"PL","cc2":"","admin1_code":"75","admin2_code":"0604","admin3_code":"060405","admin4_code":"","population":"1480","elevation":"","dem":"209","timezone":"Europe/Warsaw","modification_date":"2010-09-09"},{"geonameid":"764740","name":"Milejów","asciiname":"Milejow","alternatenames":[""],"latitude":"51.23226","longitude":"22.92443","feature_class":"P","feature_code":"PPLA3","country_code":"PL","cc2":"","admin1_code":"75","admin2_code":"0610","admin3_code":"061004","admin4_code":"","population":"2676","elevation":"","dem":"168","timezone":"Europe/Warsaw","modification_date":"2010-10-16"},{"geonameid":"764751","name":"Milanów","asciiname":"Milanow","alternatenames":[""],"latitude":"51.70374","longitude":"22.8883","feature_class":"P","feature_code":"PPLA3","country_code":"PL","cc2":"","admin1_code":"75","admin2_code":"0613","admin3_code":"061303","admin4_code":"","population":"1105","elevation":"","dem":"156","timezone":"Europe/Warsaw","modification_date":"2010-10-16"},{"geonameid":"764862","name":"Międzyrzec Podlaski","asciiname":"Miedzyrzec Podlaski","alternatenames":["Gorad Mendzhynec-Padljaski","Mendzijets-Podlyaski","Mendzizeca Podlaska","Mendzizhec Podljaski","Mendzyzhec-Podljaskij","Mendzıjets-Podlyaski","Meserici","Mezhirech'ye","Mezhirech’ye","Mezhirichchja","Meņdzižeca Podlaska","Miedzyrzec","Miedzyrzec Podlaski","Mientzirzets Pontlaski","Międzyrzec","Międzyrzec Podlaski","Mjendzizhec Podlaski","Palenkes Mendzizecas","Palenkės Mendzižecas","Polenkes Miendziziecos","Polėnkės Miendzīžiečos","mian ji re ci","miengjijecheupodeullaseuki","myndsyzhts pwdlasky","mytsyrzyk bwdlasky","myyndzyzz pwdlsqy","Μιεντζίρζετς Ποντλάσκι","Горад Менджынец-Падляскі","Межиріччя","Мендзижец Подляски","Мендзыжец-Подляский","Мјендзижец Подласки","Подълѣсьскъ Мѧꙃирьць","מיינדזיזץ פודלסקי","ميتسيرزيك بودلاسكي","میندسیژتس پودلاسکی","ミェンヅィジェツ・ポドラスキ","缅济热茨","미엥지제츠포들라스키"],"latitude":"51.9864","longitude":"22.78248","feature_class":"P","feature_code":"PPLA3","country_code":"PL","cc2":"","admin1_code":"75","admin2_code":"0601","admin3_code":"060110","admin4_code":"","population":"17158","elevation":"","dem":"148","timezone":"Europe/Warsaw","modification_date":"2011-07-31"},{"geonameid":"764926","name":"Michów","asciiname":"Michow","alternatenames":["Michow","Michow Lubartowski","Michów","Michów Lubartowski"],"latitude":"51.52573","longitude":"22.31435","feature_class":"P","feature_code":"PPLA3","country_code":"PL","cc2":"PL","admin1_code":"75","admin2_code":"0608","admin3_code":"060808","admin4_code":"","population":"1746","elevation":"","dem":"161","timezone":"Europe/Warsaw","modification_date":"2010-10-16"},{"geonameid":"764966","name":"Michałów","asciiname":"Michalow","alternatenames":[""],"latitude":"50.73727","longitude":"23.02297","feature_class":"P","feature_code":"PPL","country_code":"PL","cc2":"","admin1_code":"75","admin2_code":"0620","admin3_code":"062012","admin4_code":"","population":"1224","elevation":"","dem":"210","timezone":"Europe/Warsaw","modification_date":"2010-10-07"},{"geonameid":"764999","name":"Miączyn","asciiname":"Miaczyn","alternatenames":[""],"latitude":"50.73825","longitude":"23.5013","feature_class":"P","feature_code":"PPLA3","country_code":"PL","cc2":"","admin1_code":"75","admin2_code":"0620","admin3_code":"062006","admin4_code":"","population":"749","elevation":"","dem":"222","timezone":"Europe/Warsaw","modification_date":"2010-10-14"},{"geonameid":"765017","name":"Mełgiew","asciiname":"Melgiew","alternatenames":["Melgiew","Metgiew","Mełgiew"],"latitude":"51.22519","longitude":"22.78414","feature_class":"P","feature_code":"PPLA3","country_code":"PL","cc2":"PL","admin1_code":"75","admin2_code":"0617","admin3_code":"061702","admin4_code":"","population":"990","elevation":"","dem":"180","timezone":"Europe/Warsaw","modification_date":"2010-10-12"},{"geonameid":"765177","name":"Markuszów","asciiname":"Markuszow","alternatenames":[""],"latitude":"51.37457","longitude":"22.25804","feature_class":"P","feature_code":"PPLA3","country_code":"PL","cc2":"","admin1_code":"75","admin2_code":"0614","admin3_code":"061407","admin4_code":"","population":"1600","elevation":"","dem":"170","timezone":"Europe/Warsaw","modification_date":"2010-09-29"},{"geonameid":"765639","name":"Jeziorzany","asciiname":"Jeziorzany","alternatenames":["Jeziorzany","Lysobyki","Przetoczno","Łysobyki"],"latitude":"51.60245","longitude":"22.27667","feature_class":"P","feature_code":"PPLA3","country_code":"PL","cc2":"","admin1_code":"75","admin2_code":"0608","admin3_code":"060804","admin4_code":"","population":"780","elevation":"","dem":"127","timezone":"Europe/Warsaw","modification_date":"2010-10-16"},{"geonameid":"765745","name":"Łukowa","asciiname":"Lukowa","alternatenames":[""],"latitude":"50.37426","longitude":"22.94349","feature_class":"P","feature_code":"PPLA3","country_code":"PL","cc2":"","admin1_code":"75","admin2_code":"0602","admin3_code":"060209","admin4_code":"","population":"2604","elevation":"","dem":"199","timezone":"Europe/Warsaw","modification_date":"2010-10-13"},{"geonameid":"765749","name":"Łuków","asciiname":"Lukow","alternatenames":["Lukiv","Lukov","Lukova","Lukow","Lukuv","ukufu","wu ku fu","Łuków","Луков","Лукув","Луків","ウクフ","武庫夫"],"latitude":"51.929","longitude":"22.37956","feature_class":"P","feature_code":"PPLA3","country_code":"PL","cc2":"","admin1_code":"75","admin2_code":"0611","admin3_code":"061101","admin4_code":"","population":"30465","elevation":"","dem":"159","timezone":"Europe/Warsaw","modification_date":"2011-07-31"},{"geonameid":"765804","name":"Ludwin","asciiname":"Ludwin","alternatenames":["Comuna de Ludwin","Gmina Ljudvin","Gmina Ludwin","Ljudvin","Людвин","Ґміна Людвін"],"latitude":"51.34605","longitude":"22.90581","feature_class":"P","feature_code":"PPLA3","country_code":"PL","cc2":"","admin1_code":"75","admin2_code":"0610","admin3_code":"061002","admin4_code":"","population":"5041","elevation":"","dem":"169","timezone":"Europe/Warsaw","modification_date":"2010-10-16"},{"geonameid":"765835","name":"Lubycza Królewska","asciiname":"Lubycza Krolewska","alternatenames":[""],"latitude":"50.34102","longitude":"23.51941","feature_class":"P","feature_code":"PPLA3","country_code":"PL","cc2":"","admin1_code":"75","admin2_code":"0618","admin3_code":"061805","admin4_code":"","population":"1800","elevation":"","dem":"252","timezone":"Europe/Warsaw","modification_date":"2010-10-14"},{"geonameid":"765876","name":"Lublin","asciiname":"Lublin","alternatenames":["Gorad Ljublin","LUZ","Liublinas","Ljublin","Loumplin","Lubblinu","Lublin","Lublina","Lublino","Lublinum","Lueblin","Lyublin","Lüblin","lbln","lu bu lin","lubeullin","lublina","lublini","lwblyn","ruburin","Ļubļina","Λούμπλιν","Горад Люблін","Лублин","Люблин","Люблін","לובלין","لبلن","لوبلين","لوبلین","लुब्लिन","ლუბლინი","ルブリン","卢布林","루블린"],"latitude":"51.25","longitude":"22.56667","feature_class":"P","feature_code":"PPLA","country_code":"PL","cc2":"","admin1_code":"75","admin2_code":"0609","admin3_code":"","admin4_code":"","population":"360044","elevation":"","dem":"183","timezone":"Europe/Warsaw","modification_date":"2012-12-01"},{"geonameid":"765927","name":"Lubartów","asciiname":"Lubartow","alternatenames":["Lewartow","Lewartów","Ljubartiv","Ljubartov","Ljubartuv","Lubartova","Lubartow","Lubartów","Lyubartov","lu ba er tu fu","Любартов","Любартув","Любартів","盧巴爾圖夫"],"latitude":"51.46026","longitude":"22.60952","feature_class":"P","feature_code":"PPLA2","country_code":"PL","cc2":"","admin1_code":"75","admin2_code":"0608","admin3_code":"060801","admin4_code":"","population":"22839","elevation":"","dem":"159","timezone":"Europe/Warsaw","modification_date":"2013-10-31"},{"geonameid":"765995","name":"Łopiennik Górny","asciiname":"Lopiennik Gorny","alternatenames":["Lopiennik Gorny","Lopiennik Lacki","Łopiennik Górny","Łopiennik Lacki"],"latitude":"51.0408","longitude":"23.01833","feature_class":"P","feature_code":"PPLA3","country_code":"PL","cc2":"PL","admin1_code":"75","admin2_code":"0606","admin3_code":"060607","admin4_code":"","population":"563","elevation":"","dem":"193","timezone":"Europe/Warsaw","modification_date":"2010-10-16"},{"geonameid":"766044","name":"Łomazy","asciiname":"Lomazy","alternatenames":[""],"latitude":"51.90435","longitude":"23.17656","feature_class":"P","feature_code":"PPLA3","country_code":"PL","cc2":"","admin1_code":"75","admin2_code":"0601","admin3_code":"060109","admin4_code":"","population":"1700","elevation":"","dem":"147","timezone":"Europe/Warsaw","modification_date":"2010-10-19"},{"geonameid":"766441","name":"Leśna Podlaska","asciiname":"Lesna Podlaska","alternatenames":["Comuna Lesna Podlaska","Comuna Leśna Podlaska","Comuna de Lesna Podlaska","Comuna de Leśna Podlaska","Gmina Leshna-Podljas'ka","Gmina Lesna Podlaska","Gmina Leśna Podlaska","Les'na-Podljaska","Lesna","Lesna Podlaska","Leśna","Leśna Podlaska","Palenkes Lesnos valscius","Palenkės Lešnos valsčius","Лесьна-Подляска","Ґміна Лешна-Подляська"],"latitude":"52.13317","longitude":"23.02786","feature_class":"P","feature_code":"PPLA3","country_code":"PL","cc2":"PL","admin1_code":"75","admin2_code":"0601","admin3_code":"060108","admin4_code":"","population":"900","elevation":"","dem":"146","timezone":"Europe/Warsaw","modification_date":"2011-07-31"},{"geonameid":"766583","name":"Łęczna","asciiname":"Leczna","alternatenames":["Leczna","Lenchna","Lencna","Lenčna","wen qi na","Łęczna","Ленчна","文奇納"],"latitude":"51.30121","longitude":"22.88135","feature_class":"P","feature_code":"PPLA2","country_code":"PL","cc2":"","admin1_code":"75","admin2_code":"0610","admin3_code":"061003","admin4_code":"","population":"21719","elevation":"","dem":"172","timezone":"Europe/Warsaw","modification_date":"2010-10-16"},{"geonameid":"766642","name":"Łaziska","asciiname":"Laziska","alternatenames":[""],"latitude":"51.14226","longitude":"21.87919","feature_class":"P","feature_code":"PPLA3","country_code":"PL","cc2":"","admin1_code":"75","admin2_code":"0612","admin3_code":"061204","admin4_code":"","population":"519","elevation":"","dem":"136","timezone":"Europe/Warsaw","modification_date":"2010-10-16"},{"geonameid":"766692","name":"Łaszczów","asciiname":"Laszczow","alternatenames":["Laszcow","Laszczow","Laszozow","Łaszczów","Łaszców","Łaszozow"],"latitude":"50.53332","longitude":"23.72562","feature_class":"P","feature_code":"PPLA3","country_code":"PL","cc2":"PL","admin1_code":"75","admin2_code":"0618","admin3_code":"061806","admin4_code":"","population":"2341","elevation":"","dem":"203","timezone":"Europe/Warsaw","modification_date":"2010-10-14"},{"geonameid":"766896","name":"Łabunie","asciiname":"Labunie","alternatenames":[""],"latitude":"50.65517","longitude":"23.3662","feature_class":"P","feature_code":"PPLA3","country_code":"PL","cc2":"","admin1_code":"75","admin2_code":"0620","admin3_code":"062005","admin4_code":"","population":"1670","elevation":"","dem":"225","timezone":"Europe/Warsaw","modification_date":"2010-10-14"},{"geonameid":"766980","name":"Kurów","asciiname":"Kurow","alternatenames":["Curov - Kurow","Curovia","Curóv - Kurów","Ko-lu-hu","Kourob","Kourov","Kourovu","Kuriv","Kurou","Kurov","Kurova","Kurow","Kuruv","Kuruv vele","Kuruvas","Kuruvs","Kuruw","Kuròw","Kurów","Kurůw","Kó-lū-hŭ","Vjoska Kurau","khu ruf","ku lu fu","ku lu fu shi","kulupeu","kuraau","kurabha","kureav","kuropha","kurov","kurova","kuruf","kurufa","kurufu","kurupha","kwrwf","kwrwp","qwrwb","qwrwp","qʼryww","rwstay kwrw","Κουρόβ","Вёска Кураў","Коуровъ","Куров","Курув","Курув веле","Курів","Կուրուվ","קאריוו","קורוב","روستای کورو","كوروف","کوروف","کوروۆ","ܟܘܪܘܦ","ܩܘܪܘܦ","ކުރޫފް","कुरुफ","कुरुफ़","कुरोव्","কুরভ","কুৰৌ","ਕੂਰੋਫ","કુરોવ","குரோவ்","కురోవ్","ಕುರೊವ್","കുറൊവ്","කරෆ","කුරුෆ්","คูรูฟ","ຄູໂຣ","კუროვი","ኩሩቭ","クルフ","库鲁夫","库鲁夫市","庫魯夫","庫魯夫市","쿠루프","𐌺𐌿𐍂𐍉𐍅/Kurów"],"latitude":"51.38941","longitude":"22.18637","feature_class":"P","feature_code":"PPLA3","country_code":"PL","cc2":"","admin1_code":"75","admin2_code":"0614","admin3_code":"061406","admin4_code":"","population":"2804","elevation":"","dem":"159","timezone":"Europe/Warsaw","modification_date":"2010-09-27"},{"geonameid":"767145","name":"Księżpol","asciiname":"Ksiezpol","alternatenames":["Comuna de Ksiezpol","Comuna de Księżpol","Gmina Ksenzhpol'","Gmina Ksiezpol","Gmina Księżpol","Ksenzhpol'","Ксенжполь","Ґміна Ксенжполь"],"latitude":"50.42323","longitude":"22.73526","feature_class":"P","feature_code":"PPLA3","country_code":"PL","cc2":"","admin1_code":"75","admin2_code":"0602","admin3_code":"060208","admin4_code":"","population":"1145","elevation":"","dem":"190","timezone":"Europe/Warsaw","modification_date":"2010-10-13"},{"geonameid":"767150","name":"Księżomierz","asciiname":"Ksiezomierz","alternatenames":[""],"latitude":"50.90855","longitude":"21.98965","feature_class":"P","feature_code":"PPL","country_code":"PL","cc2":"","admin1_code":"75","admin2_code":"0607","admin3_code":"060704","admin4_code":"","population":"1153","elevation":"","dem":"202","timezone":"Europe/Warsaw","modification_date":"2010-10-19"},{"geonameid":"767237","name":"Krzywda","asciiname":"Krzywda","alternatenames":[""],"latitude":"51.79519","longitude":"22.19994","feature_class":"P","feature_code":"PPL","country_code":"PL","cc2":"","admin1_code":"75","admin2_code":"0611","admin3_code":"061104","admin4_code":"","population":"1400","elevation":"","dem":"167","timezone":"Europe/Warsaw","modification_date":"2010-09-04"},{"geonameid":"767368","name":"Krynice","asciiname":"Krynice","alternatenames":[""],"latitude":"50.5876","longitude":"23.38157","feature_class":"P","feature_code":"PPLA3","country_code":"PL","cc2":"","admin1_code":"75","admin2_code":"0618","admin3_code":"061804","admin4_code":"","population":"567","elevation":"","dem":"269","timezone":"Europe/Warsaw","modification_date":"2010-10-14"},{"geonameid":"767605","name":"Krasnystaw","asciiname":"Krasnystaw","alternatenames":["Gorad Krasnystau","Krasnistav","Krasnistava","Krasnostav","Krasnystav","Krasnystavas","Krasnystaw","ke la si nei si ta fu","Горад Красныстаў","Краснистав","Красностав","Красныстав","克拉斯內斯塔夫"],"latitude":"50.98464","longitude":"23.1742","feature_class":"P","feature_code":"PPLA2","country_code":"PL","cc2":"","admin1_code":"75","admin2_code":"0606","admin3_code":"060601","admin4_code":"","population":"19532","elevation":"","dem":"184","timezone":"Europe/Warsaw","modification_date":"2010-10-16"},{"geonameid":"767619","name":"Krasnobród","asciiname":"Krasnobrod","alternatenames":["Krasnobrod","Krasnobród"],"latitude":"50.54551","longitude":"23.21308","feature_class":"P","feature_code":"PPLA3","country_code":"PL","cc2":"","admin1_code":"75","admin2_code":"0620","admin3_code":"062004","admin4_code":"","population":"3075","elevation":"","dem":"256","timezone":"Europe/Warsaw","modification_date":"2010-10-13"},{"geonameid":"767623","name":"Kraśnik","asciiname":"Krasnik","alternatenames":["Krashnik","Krasnik","Krasnika","Krasnikas","Krasņika","Kraśnik","ke la xi ni ke","Красник","Крашник","克拉希尼克"],"latitude":"50.9236","longitude":"22.22706","feature_class":"P","feature_code":"PPLA2","country_code":"PL","cc2":"","admin1_code":"75","admin2_code":"0607","admin3_code":"060701","admin4_code":"","population":"35834","elevation":"","dem":"199","timezone":"Europe/Warsaw","modification_date":"2010-10-11"},{"geonameid":"767627","name":"Kraśniczyn","asciiname":"Krasniczyn","alternatenames":[""],"latitude":"50.93171","longitude":"23.34929","feature_class":"P","feature_code":"PPLA3","country_code":"PL","cc2":"","admin1_code":"75","admin2_code":"0606","admin3_code":"060606","admin4_code":"","population":"447","elevation":"","dem":"199","timezone":"Europe/Warsaw","modification_date":"2010-10-16"},{"geonameid":"767736","name":"Kozubszczyzna","asciiname":"Kozubszczyzna","alternatenames":[""],"latitude":"51.22323","longitude":"22.42747","feature_class":"P","feature_code":"PPLA3","country_code":"PL","cc2":"","admin1_code":"75","admin2_code":"0609","admin3_code":"060908","admin4_code":"","population":"750","elevation":"","dem":"220","timezone":"Europe/Warsaw","modification_date":"2010-10-11"},{"geonameid":"768210","name":"Konstantynów","asciiname":"Konstantynow","alternatenames":["Konstantynow","Konstantynuv","Konstantynów","Константынув"],"latitude":"52.20746","longitude":"23.0853","feature_class":"P","feature_code":"PPL","country_code":"PL","cc2":"","admin1_code":"75","admin2_code":"0601","admin3_code":"060107","admin4_code":"","population":"1437","elevation":"","dem":"153","timezone":"Europe/Warsaw","modification_date":"2010-09-28"},{"geonameid":"768217","name":"Końskowola","asciiname":"Konskowola","alternatenames":["Kanskavolja","Kon'skovola","Kon'skovolja","Kon'skovolja vele","Koniskovolia","Kons'kovolja","Konskovol","Konskovola","Konskovole","Konskovolia","Konskovolya","Konskovolâ","Konskovolė","Konskowola","Końskowola","Koņskovola","Kɔnyskɔvɔla","guan shi ge wo na","kaniyaskabhala","kanskavala","keanskeaveala","khxn skx wx la","koinseukobolla","kong si ke wo la","konskobhola","konskovola","ko~insukovu~ora","kwnskwwla","qwnsqwbwlh","Κονσκόβολα","Канскаволя","Конисковолиа","Консковол","Консковола","Конськоволя","Коньсковола","Коньсковоля","Коньсковоля веле","Кон҄ьсковолꙗ","Коњсковола","Քոնսքօուօլա","קאנסקאוואלע","קונסקובולה","كونسكوولا","کونسکوولا","کونسکووه‌لا","ܩܘܢܣܩܘܒܘܠܐ","ކޮންސްކޮވޯލާ","कॉन्स्कोवोला","कोंस्कोवोला","कोन्स्कोभोला","कोन्स्कोवोला","কনিয়স্কভলা","ਕਞ੍ਸ੍ਕਵਲਾ","કઞ્સ્કવલા","கோன்ஸ்கோவோலா","కొన్‌స్కొవొలా","ಕೊನ್‌ಸ್ಕೊವೊಲಾ","കൊന്സ്കൊവൊല","කෝඤ්ශ්කෝවෝලා","คอนสกอวอลา","ໂກຣິສໂກໂວລາ","კონსკოვოლა","ኮኝስኮቮላ","コィンスコヴォラ","孔斯科沃拉","官士哥窩拿","코인스코볼라","𐌺𐍉𐌽𐌾𐍃𐌺𐍉𐍅𐍉𐌻𐌰/Końskowola"],"latitude":"51.40922","longitude":"22.05175","feature_class":"P","feature_code":"PPLA3","country_code":"PL","cc2":"","admin1_code":"75","admin2_code":"0614","admin3_code":"061405","admin4_code":"","population":"2208","elevation":"","dem":"139","timezone":"Europe/Warsaw","modification_date":"2010-10-16"},{"geonameid":"768338","name":"Komarówka Podlaska","asciiname":"Komarowka Podlaska","alternatenames":[""],"latitude":"51.80315","longitude":"22.94392","feature_class":"P","feature_code":"PPL","country_code":"PL","cc2":"","admin1_code":"75","admin2_code":"0615","admin3_code":"061505","admin4_code":"","population":"1300","elevation":"","dem":"154","timezone":"Europe/Warsaw","modification_date":"2010-09-04"},{"geonameid":"768341","name":"Komarów-Osada","asciiname":"Komarow-Osada","alternatenames":[""],"latitude":"50.62878","longitude":"23.49375","feature_class":"P","feature_code":"PPLA3","country_code":"PL","cc2":"","admin1_code":"75","admin2_code":"0620","admin3_code":"062003","admin4_code":"","population":"1044","elevation":"","dem":"214","timezone":"Europe/Warsaw","modification_date":"2010-10-16"},{"geonameid":"768846","name":"Kodeń","asciiname":"Koden","alternatenames":[""],"latitude":"51.91171","longitude":"23.60301","feature_class":"P","feature_code":"PPLA3","country_code":"PL","cc2":"","admin1_code":"75","admin2_code":"0601","admin3_code":"060106","admin4_code":"","population":"1900","elevation":"","dem":"143","timezone":"Europe/Warsaw","modification_date":"2011-07-31"},{"geonameid":"768861","name":"Kock","asciiname":"Kock","alternatenames":["Koc'k","Kock","Kocka","ke ci ke","qwzq","Коцк","Коцьк","קוצק","科茨克"],"latitude":"51.63997","longitude":"22.44391","feature_class":"P","feature_code":"PPLA3","country_code":"PL","cc2":"","admin1_code":"75","admin2_code":"0608","admin3_code":"060806","admin4_code":"","population":"3484","elevation":"","dem":"139","timezone":"Europe/Warsaw","modification_date":"2010-10-16"},{"geonameid":"769046","name":"Kłoczew","asciiname":"Kloczew","alternatenames":[""],"latitude":"51.72134","longitude":"21.96493","feature_class":"P","feature_code":"PPLA3","country_code":"PL","cc2":"","admin1_code":"75","admin2_code":"0616","admin3_code":"061602","admin4_code":"","population":"886","elevation":"","dem":"157","timezone":"Europe/Warsaw","modification_date":"2010-09-27"},{"geonameid":"769345","name":"Kazimierz Dolny","asciiname":"Kazimierz Dolny","alternatenames":["Kazimezdolni","Kazimezh-Dol'ni","Kazimezh-Dol'ny","Kazimeždolni","Kazimierz","Kazimierz Dolny","ka qi mi ri duo er ni","qzymyyz dwlny","Казимеж-Дольны","Казімеж-Дольни","קזימייז דולני","卡齊米日多爾尼"],"latitude":"51.31911","longitude":"21.95502","feature_class":"P","feature_code":"PPLA3","country_code":"PL","cc2":"PL","admin1_code":"75","admin2_code":"0614","admin3_code":"061404","admin4_code":"","population":"3485","elevation":"","dem":"132","timezone":"Europe/Warsaw","modification_date":"2010-09-30"},{"geonameid":"769534","name":"Karczmiska","asciiname":"Karczmiska","alternatenames":[""],"latitude":"51.22952","longitude":"21.98158","feature_class":"P","feature_code":"PPLA3","country_code":"PL","cc2":"","admin1_code":"75","admin2_code":"0612","admin3_code":"061203","admin4_code":"","population":"800","elevation":"","dem":"169","timezone":"Europe/Warsaw","modification_date":"2010-10-16"},{"geonameid":"769640","name":"Kamionka","asciiname":"Kamionka","alternatenames":[""],"latitude":"51.47165","longitude":"22.46275","feature_class":"P","feature_code":"PPLA3","country_code":"PL","cc2":"","admin1_code":"75","admin2_code":"0608","admin3_code":"060805","admin4_code":"","population":"1800","elevation":"","dem":"149","timezone":"Europe/Warsaw","modification_date":"2010-09-29"},{"geonameid":"770001","name":"Józefów nad Wisłą","asciiname":"Jozefow nad Wisla","alternatenames":["Comuna de Jozefow nad Wisla","Comuna de Józefów nad Wisłą","Gmina Jozefow nad Wisla","Gmina Juzefuv-nad-Visloju","Gmina Józefów nad Wisłą","Juzefuv-nad-Visloj","Юзефув-над-Вислой","Ґміна Юзефув-над-Віслою"],"latitude":"51.04183","longitude":"21.83018","feature_class":"P","feature_code":"PPLA3","country_code":"PL","cc2":"","admin1_code":"75","admin2_code":"0612","admin3_code":"061202","admin4_code":"","population":"1029","elevation":"","dem":"147","timezone":"Europe/Warsaw","modification_date":"2010-10-16"},{"geonameid":"770005","name":"Józefów","asciiname":"Jozefow","alternatenames":["Jozefow","Józefów"],"latitude":"50.48119","longitude":"23.05404","feature_class":"P","feature_code":"PPLA3","country_code":"PL","cc2":"","admin1_code":"75","admin2_code":"0602","admin3_code":"060207","admin4_code":"","population":"2418","elevation":"","dem":"248","timezone":"Europe/Warsaw","modification_date":"2010-10-13"},{"geonameid":"770288","name":"Jastków","asciiname":"Jastkow","alternatenames":[""],"latitude":"51.30411","longitude":"22.43546","feature_class":"P","feature_code":"PPLA3","country_code":"PL","cc2":"","admin1_code":"75","admin2_code":"0609","admin3_code":"060907","admin4_code":"","population":"700","elevation":"","dem":"208","timezone":"Europe/Warsaw","modification_date":"2010-10-11"},{"geonameid":"770395","name":"Jarczów","asciiname":"Jarczow","alternatenames":[""],"latitude":"50.42438","longitude":"23.58576","feature_class":"P","feature_code":"PPLA3","country_code":"PL","cc2":"","admin1_code":"75","admin2_code":"0618","admin3_code":"061803","admin4_code":"","population":"876","elevation":"","dem":"237","timezone":"Europe/Warsaw","modification_date":"2010-10-14"},{"geonameid":"770413","name":"Janów Podlaski","asciiname":"Janow Podlaski","alternatenames":["Janow Podlaski","Januv-Podljaski","Janów Podlaski","Янув-Подляски"],"latitude":"52.19398","longitude":"23.21218","feature_class":"P","feature_code":"PPLA3","country_code":"PL","cc2":"","admin1_code":"75","admin2_code":"0601","admin3_code":"060105","admin4_code":"","population":"2655","elevation":"","dem":"144","timezone":"Europe/Warsaw","modification_date":"2011-07-31"},{"geonameid":"770425","name":"Janów Lubelski","asciiname":"Janow Lubelski","alternatenames":["Janiv-Ljubel's'kij","Janov Ljublinski","Janova Lubelska","Janow","Janow Lubelski","Januv-Ljubel'skij","Janów","Janów Lubelski","lu bu lin de qu ya nu fu","Янов Люблински","Янув-Любельский","Янів-Любельський","盧布林地區亞努夫"],"latitude":"50.70695","longitude":"22.41039","feature_class":"P","feature_code":"PPLA2","country_code":"PL","cc2":"","admin1_code":"75","admin2_code":"0605","admin3_code":"060505","admin4_code":"","population":"11811","elevation":"","dem":"215","timezone":"Europe/Warsaw","modification_date":"2010-10-14"},{"geonameid":"770441","name":"Janowiec","asciiname":"Janowiec","alternatenames":["Janowiec","Janowiec nad Wista","Janowiec nad Wistą"],"latitude":"51.32359","longitude":"21.8894","feature_class":"P","feature_code":"PPLA3","country_code":"PL","cc2":"PL","admin1_code":"75","admin2_code":"0614","admin3_code":"061403","admin4_code":"","population":"1000","elevation":"","dem":"125","timezone":"Europe/Warsaw","modification_date":"2010-10-16"},{"geonameid":"770602","name":"Jakubowice Murowane","asciiname":"Jakubowice Murowane","alternatenames":[""],"latitude":"51.26992","longitude":"22.63415","feature_class":"P","feature_code":"PPLA3","country_code":"PL","cc2":"","admin1_code":"75","admin2_code":"0609","admin3_code":"060914","admin4_code":"","population":"259","elevation":"","dem":"170","timezone":"Europe/Warsaw","modification_date":"2010-10-11"},{"geonameid":"770711","name":"Jabłonna","asciiname":"Jablonna","alternatenames":["Jablonna Pierwsza (do 1999)","Jabłonna Pierwsza (do 1999)"],"latitude":"51.08875","longitude":"22.59364","feature_class":"P","feature_code":"PPLA3","country_code":"PL","cc2":"","admin1_code":"75","admin2_code":"0609","admin3_code":"060906","admin4_code":"","population":"2041","elevation":"","dem":"212","timezone":"Europe/Warsaw","modification_date":"2010-10-09"},{"geonameid":"770731","name":"Jabłoń","asciiname":"Jablon","alternatenames":[""],"latitude":"51.72501","longitude":"23.08743","feature_class":"P","feature_code":"PPLA3","country_code":"PL","cc2":"","admin1_code":"75","admin2_code":"0613","admin3_code":"061302","admin4_code":"","population":"1251","elevation":"","dem":"155","timezone":"Europe/Warsaw","modification_date":"2010-10-16"},{"geonameid":"770751","name":"Izbica","asciiname":"Izbica","alternatenames":["Izbica","איזביצה","איזשביצע"],"latitude":"50.88728","longitude":"23.15248","feature_class":"P","feature_code":"PPLA3","country_code":"PL","cc2":"","admin1_code":"75","admin2_code":"0606","admin3_code":"060604","admin4_code":"","population":"1933","elevation":"","dem":"186","timezone":"Europe/Warsaw","modification_date":"2010-10-16"},{"geonameid":"770966","name":"Hrubieszów","asciiname":"Hrubieszow","alternatenames":["Gorad Grubeshau","Grubeshev","Grubeshiv","Grubeshov","Grubeshuv","Hrubesova","Hrubešova","Hrubieszow","Hrubieszów","Khrubeshov","Khrubeshuv","he lu bie shu fu","Горад Грубешаў","Грубешов","Грубешів","Хрубешов","赫魯別舒夫"],"latitude":"50.80502","longitude":"23.89251","feature_class":"P","feature_code":"PPLA3","country_code":"PL","cc2":"","admin1_code":"75","admin2_code":"0604","admin3_code":"060401","admin4_code":"","population":"18605","elevation":"","dem":"188","timezone":"Europe/Warsaw","modification_date":"2011-07-31"},{"geonameid":"770996","name":"Horodło","asciiname":"Horodlo","alternatenames":["Horodlo","Horodło"],"latitude":"50.89459","longitude":"24.03723","feature_class":"P","feature_code":"PPL","country_code":"PL","cc2":"","admin1_code":"75","admin2_code":"0604","admin3_code":"060403","admin4_code":"","population":"1119","elevation":"","dem":"189","timezone":"Europe/Warsaw","modification_date":"2010-09-09"},{"geonameid":"771139","name":"Hańsk","asciiname":"Hansk","alternatenames":[""],"latitude":"51.41286","longitude":"23.39942","feature_class":"P","feature_code":"PPL","country_code":"PL","cc2":"","admin1_code":"75","admin2_code":"0619","admin3_code":"061903","admin4_code":"","population":"1017","elevation":"","dem":"169","timezone":"Europe/Warsaw","modification_date":"2010-09-04"},{"geonameid":"771590","name":"Grabowiec","asciiname":"Grabowiec","alternatenames":["Grabowez","Grabowiec"],"latitude":"50.8209","longitude":"23.55057","feature_class":"P","feature_code":"PPLA3","country_code":"PL","cc2":"PL","admin1_code":"75","admin2_code":"0620","admin3_code":"062002","admin4_code":"","population":"922","elevation":"","dem":"215","timezone":"Europe/Warsaw","modification_date":"2010-10-16"},{"geonameid":"771723","name":"Gościeradów","asciiname":"Goscieradow","alternatenames":["Goscieradow Ukazowy (do 1999)","Gościeradów Ukazowy (do 1999)"],"latitude":"50.86859","longitude":"22.00536","feature_class":"P","feature_code":"PPLA3","country_code":"PL","cc2":"","admin1_code":"75","admin2_code":"0607","admin3_code":"060704","admin4_code":"","population":"960","elevation":"","dem":"174","timezone":"Europe/Warsaw","modification_date":"2010-10-11"},{"geonameid":"771735","name":"Gorzków","asciiname":"Gorzkow","alternatenames":["Gorzkow","Gorzków","Kolonia Gorzkow","Kolonia Gorzków"],"latitude":"50.94778","longitude":"23.01267","feature_class":"P","feature_code":"PPLA3","country_code":"PL","cc2":"PL","admin1_code":"75","admin2_code":"0606","admin3_code":"060603","admin4_code":"","population":"264","elevation":"","dem":"203","timezone":"Europe/Warsaw","modification_date":"2010-10-16"},{"geonameid":"771876","name":"Goraj","asciiname":"Goraj","alternatenames":["Goraj","Goraj Lubelski"],"latitude":"50.72184","longitude":"22.66651","feature_class":"P","feature_code":"PPLA3","country_code":"PL","cc2":"PL","admin1_code":"75","admin2_code":"0602","admin3_code":"060206","admin4_code":"","population":"1048","elevation":"","dem":"258","timezone":"Europe/Warsaw","modification_date":"2010-10-14"},{"geonameid":"771985","name":"Godziszów","asciiname":"Godziszow","alternatenames":[""],"latitude":"50.74889","longitude":"22.49794","feature_class":"P","feature_code":"PPLA3","country_code":"PL","cc2":"","admin1_code":"75","admin2_code":"0605","admin3_code":"060504","admin4_code":"","population":"2242","elevation":"","dem":"260","timezone":"Europe/Warsaw","modification_date":"2010-10-14"},{"geonameid":"772366","name":"Garbów","asciiname":"Garbow","alternatenames":[""],"latitude":"51.35517","longitude":"22.32937","feature_class":"P","feature_code":"PPLA3","country_code":"PL","cc2":"","admin1_code":"75","admin2_code":"0609","admin3_code":"060904","admin4_code":"","population":"2060","elevation":"","dem":"188","timezone":"Europe/Warsaw","modification_date":"2010-10-11"},{"geonameid":"772492","name":"Frampol","asciiname":"Frampol","alternatenames":["Frampol"],"latitude":"50.67159","longitude":"22.67061","feature_class":"P","feature_code":"PPLA3","country_code":"PL","cc2":"","admin1_code":"75","admin2_code":"0602","admin3_code":"060205","admin4_code":"","population":"1411","elevation":"","dem":"246","timezone":"Europe/Warsaw","modification_date":"2010-10-14"},{"geonameid":"772518","name":"Firlej","asciiname":"Firlej","alternatenames":["Firlej"],"latitude":"51.55882","longitude":"22.50841","feature_class":"P","feature_code":"PPLA3","country_code":"PL","cc2":"","admin1_code":"75","admin2_code":"0608","admin3_code":"060803","admin4_code":"","population":"1000","elevation":"","dem":"147","timezone":"Europe/Warsaw","modification_date":"2010-09-18"},{"geonameid":"772584","name":"Fajsławice","asciiname":"Fajslawice","alternatenames":[""],"latitude":"51.09592","longitude":"22.96323","feature_class":"P","feature_code":"PPLA3","country_code":"PL","cc2":"","admin1_code":"75","admin2_code":"0606","admin3_code":"060602","admin4_code":"","population":"1457","elevation":"","dem":"188","timezone":"Europe/Warsaw","modification_date":"2010-10-16"},{"geonameid":"772641","name":"Dzwola","asciiname":"Dzwola","alternatenames":[""],"latitude":"50.69657","longitude":"22.56729","feature_class":"P","feature_code":"PPLA3","country_code":"PL","cc2":"","admin1_code":"75","admin2_code":"0605","admin3_code":"060503","admin4_code":"","population":"936","elevation":"","dem":"241","timezone":"Europe/Warsaw","modification_date":"2010-10-14"},{"geonameid":"772680","name":"Dzierzkowice","asciiname":"Dzierzkowice","alternatenames":[""],"latitude":"50.96019","longitude":"22.06639","feature_class":"P","feature_code":"PPLA3","country_code":"PL","cc2":"","admin1_code":"75","admin2_code":"0607","admin3_code":"060703","admin4_code":"","population":"0","elevation":"","dem":"176","timezone":"Europe/Warsaw","modification_date":"2011-07-31"},{"geonameid":"772896","name":"Dubienka","asciiname":"Dubienka","alternatenames":[""],"latitude":"51.04862","longitude":"23.89252","feature_class":"P","feature_code":"PPL","country_code":"PL","cc2":"","admin1_code":"75","admin2_code":"0603","admin3_code":"060305","admin4_code":"","population":"1042","elevation":"","dem":"179","timezone":"Europe/Warsaw","modification_date":"2010-09-09"},{"geonameid":"772982","name":"Drelów","asciiname":"Drelow","alternatenames":[""],"latitude":"51.91219","longitude":"22.87165","feature_class":"P","feature_code":"PPLA3","country_code":"PL","cc2":"","admin1_code":"75","admin2_code":"0601","admin3_code":"060104","admin4_code":"","population":"900","elevation":"","dem":"148","timezone":"Europe/Warsaw","modification_date":"2011-07-31"},{"geonameid":"773014","name":"Dorohusk","asciiname":"Dorohusk","alternatenames":[""],"latitude":"51.15475","longitude":"23.80325","feature_class":"P","feature_code":"PPLA3","country_code":"PL","cc2":"","admin1_code":"75","admin2_code":"0603","admin3_code":"060304","admin4_code":"","population":"516","elevation":"","dem":"174","timezone":"Europe/Warsaw","modification_date":"2010-11-04"},{"geonameid":"773078","name":"Dołhobyczów","asciiname":"Dolhobyczow","alternatenames":[""],"latitude":"50.58591","longitude":"24.03594","feature_class":"P","feature_code":"PPL","country_code":"PL","cc2":"","admin1_code":"75","admin2_code":"0604","admin3_code":"060402","admin4_code":"","population":"1491","elevation":"","dem":"230","timezone":"Europe/Warsaw","modification_date":"2010-09-09"},{"geonameid":"773326","name":"Dębowa Kłoda","asciiname":"Debowa Kloda","alternatenames":[""],"latitude":"51.59446","longitude":"23.0064","feature_class":"P","feature_code":"PPLA3","country_code":"PL","cc2":"","admin1_code":"75","admin2_code":"0613","admin3_code":"061301","admin4_code":"","population":"474","elevation":"","dem":"156","timezone":"Europe/Warsaw","modification_date":"2010-10-16"},{"geonameid":"773357","name":"Dęblin","asciiname":"Deblin","alternatenames":["Demblin","Demblina","deng bu lin","Демблин","Демблін","登布林"],"latitude":"51.55912","longitude":"21.84829","feature_class":"P","feature_code":"PPLA3","country_code":"PL","cc2":"","admin1_code":"75","admin2_code":"0616","admin3_code":"061601","admin4_code":"","population":"17775","elevation":"","dem":"115","timezone":"Europe/Warsaw","modification_date":"2010-09-27"},{"geonameid":"773808","name":"Czemierniki","asciiname":"Czemierniki","alternatenames":[""],"latitude":"51.67298","longitude":"22.63887","feature_class":"P","feature_code":"PPL","country_code":"PL","cc2":"","admin1_code":"75","admin2_code":"0615","admin3_code":"061503","admin4_code":"","population":"3700","elevation":"","dem":"148","timezone":"Europe/Warsaw","modification_date":"2010-09-04"},{"geonameid":"774030","name":"Cyców","asciiname":"Cycow","alternatenames":["Cycow","Cyców","Wiszniewice"],"latitude":"51.29928","longitude":"23.14124","feature_class":"P","feature_code":"PPLA3","country_code":"PL","cc2":"PL","admin1_code":"75","admin2_code":"0610","admin3_code":"061001","admin4_code":"","population":"1200","elevation":"","dem":"171","timezone":"Europe/Warsaw","modification_date":"2010-10-16"},{"geonameid":"774304","name":"Chrzanów","asciiname":"Chrzanow","alternatenames":["Chrzanow","Chrzanow Ordynacki","Chrzanów","Chrzanów Ordynacki"],"latitude":"50.77256","longitude":"22.60351","feature_class":"P","feature_code":"PPLA3","country_code":"PL","cc2":"","admin1_code":"75","admin2_code":"0605","admin3_code":"060502","admin4_code":"","population":"3506","elevation":"","dem":"255","timezone":"Europe/Warsaw","modification_date":"2010-10-14"},{"geonameid":"774472","name":"Chodel","asciiname":"Chodel","alternatenames":[""],"latitude":"51.11177","longitude":"22.13269","feature_class":"P","feature_code":"PPLA3","country_code":"PL","cc2":"","admin1_code":"75","admin2_code":"0612","admin3_code":"061201","admin4_code":"","population":"1500","elevation":"","dem":"166","timezone":"Europe/Warsaw","modification_date":"2010-10-16"},{"geonameid":"774558","name":"Chełm","asciiname":"Chelm","alternatenames":["Chelm","Chelmas","Chełm","Gorad Khelm","Helma","Khelm","Kholm","hai wu mu","he-um","heumu","hlm","Горад Хелм","Хелм","Холм","חלם","ヘウム","海乌姆","헤움"],"latitude":"51.14312","longitude":"23.4716","feature_class":"P","feature_code":"PPL","country_code":"PL","cc2":"","admin1_code":"75","admin2_code":"0662","admin3_code":"066201","admin4_code":"","population":"68043","elevation":"","dem":"177","timezone":"Europe/Warsaw","modification_date":"2010-09-09"},{"geonameid":"774730","name":"Bychawa","asciiname":"Bychawa","alternatenames":["Bychawa"],"latitude":"51.01608","longitude":"22.53296","feature_class":"P","feature_code":"PPLA3","country_code":"PL","cc2":"","admin1_code":"75","admin2_code":"0609","admin3_code":"060903","admin4_code":"","population":"5297","elevation":"","dem":"215","timezone":"Europe/Warsaw","modification_date":"2010-10-09"},{"geonameid":"775424","name":"Borzechów","asciiname":"Borzechow","alternatenames":[""],"latitude":"51.09258","longitude":"22.28414","feature_class":"P","feature_code":"PPLA3","country_code":"PL","cc2":"","admin1_code":"75","admin2_code":"0609","admin3_code":"060902","admin4_code":"","population":"390","elevation":"","dem":"200","timezone":"Europe/Warsaw","modification_date":"2010-10-11"},{"geonameid":"775561","name":"Borki","asciiname":"Borki","alternatenames":[""],"latitude":"51.72161","longitude":"22.52129","feature_class":"P","feature_code":"PPLA3","country_code":"PL","cc2":"","admin1_code":"75","admin2_code":"0615","admin3_code":"061502","admin4_code":"","population":"732","elevation":"","dem":"152","timezone":"Europe/Warsaw","modification_date":"2011-07-31"},{"geonameid":"775888","name":"Biszcza","asciiname":"Biszcza","alternatenames":[""],"latitude":"50.40146","longitude":"22.65063","feature_class":"P","feature_code":"PPLA3","country_code":"PL","cc2":"","admin1_code":"75","admin2_code":"0602","admin3_code":"060204","admin4_code":"","population":"1901","elevation":"","dem":"201","timezone":"Europe/Warsaw","modification_date":"2010-10-14"},{"geonameid":"775922","name":"Biłgoraj","asciiname":"Bilgoraj","alternatenames":["Bilgora","Bilgoraia","Bilgoraj","Bilgoraja","Bilgoray","Biłgora","Biłgoraj","Gorad Bilgoraj","bi wu ge la yi","bylgwryy","Билгорай","Билгорај","Білґорай","Горад Білгорай","בילגוריי","比烏戈拉伊"],"latitude":"50.54114","longitude":"22.72204","feature_class":"P","feature_code":"PPLA2","country_code":"PL","cc2":"","admin1_code":"75","admin2_code":"0602","admin3_code":"060201","admin4_code":"","population":"26987","elevation":"","dem":"202","timezone":"Europe/Warsaw","modification_date":"2010-10-14"},{"geonameid":"776175","name":"Biała Podlaska","asciiname":"Biala Podlaska","alternatenames":["Alba","Biala Podlaska","Biała Podlaska","Bila Pidljas'ka","Bjala Podlaska","Bjala Podljaska","Bjala-Podljaska","Gorad Bjala-Padljaska","Palenkes Biala","Palenkės Biala","bi ya wa-bo de la si ka","biawapodeullaseuka","Бяла Подляска","Бяла-Подляска","Біла Підляська","Бјала Подласка","Горад Бяла-Падляска","ביאלא פודולסק","ביאלע","比亞瓦-波德拉斯卡","비아와포들라스카"],"latitude":"52.03238","longitude":"23.11652","feature_class":"P","feature_code":"PPLA2","country_code":"PL","cc2":"","admin1_code":"75","admin2_code":"0661","admin3_code":"066101","admin4_code":"","population":"57541","elevation":"","dem":"142","timezone":"Europe/Warsaw","modification_date":"2010-10-28"},{"geonameid":"776252","name":"Bełżyce","asciiname":"Belzyce","alternatenames":["Belzhice","Belzice","Belzyce","Belžice","Bełżyce","bei wu ri cai","Белжице","貝烏日采"],"latitude":"51.17415","longitude":"22.28027","feature_class":"P","feature_code":"PPLA3","country_code":"PL","cc2":"","admin1_code":"75","admin2_code":"0609","admin3_code":"060901","admin4_code":"","population":"6958","elevation":"","dem":"212","timezone":"Europe/Warsaw","modification_date":"2010-10-11"},{"geonameid":"776310","name":"Batorz","asciiname":"Batorz","alternatenames":[""],"latitude":"50.8505","longitude":"22.49313","feature_class":"P","feature_code":"PPLA3","country_code":"PL","cc2":"","admin1_code":"75","admin2_code":"0605","admin3_code":"060501","admin4_code":"","population":"982","elevation":"","dem":"247","timezone":"Europe/Warsaw","modification_date":"2010-10-14"},{"geonameid":"776415","name":"Baranów","asciiname":"Baranow","alternatenames":[""],"latitude":"51.55786","longitude":"22.13625","feature_class":"P","feature_code":"PPLA3","country_code":"PL","cc2":"","admin1_code":"75","admin2_code":"0614","admin3_code":"061402","admin4_code":"","population":"1672","elevation":"","dem":"133","timezone":"Europe/Warsaw","modification_date":"2010-10-16"},{"geonameid":"776677","name":"Annopol","asciiname":"Annopol","alternatenames":["Annopol","Annopol'","Annopole","Anopol","Rachow-Annopol","Rachów-Annopol","an nuo bo er","Аннопол","Аннополь","Анопол","אנופול","安諾波爾"],"latitude":"50.88551","longitude":"21.85678","feature_class":"P","feature_code":"PPLA3","country_code":"PL","cc2":"","admin1_code":"75","admin2_code":"0607","admin3_code":"060702","admin4_code":"","population":"2654","elevation":"","dem":"182","timezone":"Europe/Warsaw","modification_date":"2010-10-11"},{"geonameid":"776755","name":"Aleksandrów","asciiname":"Aleksandrow","alternatenames":[""],"latitude":"50.4663","longitude":"22.89225","feature_class":"P","feature_code":"PPLA3","country_code":"PL","cc2":"","admin1_code":"75","admin2_code":"0602","admin3_code":"060202","admin4_code":"","population":"3135","elevation":"","dem":"225","timezone":"Europe/Warsaw","modification_date":"2010-10-14"},{"geonameid":"776788","name":"Adamów","asciiname":"Adamow","alternatenames":[""],"latitude":"51.74335","longitude":"22.26414","feature_class":"P","feature_code":"PPL","country_code":"PL","cc2":"","admin1_code":"75","admin2_code":"0611","admin3_code":"061103","admin4_code":"","population":"2100","elevation":"","dem":"157","timezone":"Europe/Warsaw","modification_date":"2010-09-04"},{"geonameid":"776808","name":"Abramów","asciiname":"Abramow","alternatenames":["Abramow","Abramów"],"latitude":"51.45647","longitude":"22.31521","feature_class":"P","feature_code":"PPLA3","country_code":"PL","cc2":"","admin1_code":"75","admin2_code":"0608","admin3_code":"060802","admin4_code":"","population":"713","elevation":"","dem":"162","timezone":"Europe/Warsaw","modification_date":"2010-10-16"},{"geonameid":"7534559","name":"Ruda-Huta","asciiname":"Ruda-Huta","alternatenames":[""],"latitude":"51.23666","longitude":"23.59486","feature_class":"P","feature_code":"PPLA3","country_code":"PL","cc2":"","admin1_code":"75","admin2_code":"0603","admin3_code":"060309","admin4_code":"","population":"1076","elevation":"","dem":"172","timezone":"Europe/Warsaw","modification_date":"2010-10-17"},{"geonameid":"7536163","name":"Krzczonów","asciiname":"Krzczonow","alternatenames":[""],"latitude":"51.00727","longitude":"22.71097","feature_class":"P","feature_code":"PPLA3","country_code":"PL","cc2":"","admin1_code":"75","admin2_code":"0609","admin3_code":"060909","admin4_code":"","population":"1462","elevation":"","dem":"242","timezone":"Europe/Warsaw","modification_date":"2010-10-09"},{"geonameid":"7576105","name":"Bełżec","asciiname":"Belzec","alternatenames":[""],"latitude":"50.38453","longitude":"23.43839","feature_class":"P","feature_code":"PPLA3","country_code":"PL","cc2":"","admin1_code":"75","admin2_code":"0618","admin3_code":"061802","admin4_code":"","population":"2723","elevation":"","dem":"262","timezone":"Europe/Warsaw","modification_date":"2010-10-14"},{"geonameid":"7576107","name":"Godziszów Pierwszy","asciiname":"Godziszow Pierwszy","alternatenames":[""],"latitude":"50.75753","longitude":"22.48386","feature_class":"P","feature_code":"PPLX","country_code":"PL","cc2":"","admin1_code":"75","admin2_code":"0605","admin3_code":"060504","admin4_code":"","population":"1108","elevation":"","dem":"261","timezone":"Europe/Warsaw","modification_date":"2010-10-14"}]}