{"region_data":{"countryId":"798544","adminCode1":"76","countryName":"Poland","fclName":"country, state, region,...","countryCode":"PL","lng":"15.33333","fcodeName":"first-order administrative division","toponymName":"Województwo Lubuskie","fcl":"A","numberOfChildren":14,"name":"Lubusz","fcode":"ADM1","geonameId":3337494,"lat":"52.2","adminName1":"Lubusz","population":1010047},"country_data":{"ISO":"PL","ISO3":"POL","ISO_Numeric":"616","fips":"PL","country":"Poland","capital":"Warsaw","area":"312685","Population":"38500000","Continent":"EU","tld":".pl","CurrencyCode":"PLN","CurrencyName":"Zloty","Phone":"48","Postal_Code_Format":"##-###","Postal_Code_Regex":"^(\\d{5})$","Languages":"pl","geonameid":"798544","neighbours":"DE,LT,SK,CZ,BY,UA,RU","EquivalentFipsCode":""},"cities":[{"geonameid":"3079923","name":"Zwierzyń","asciiname":"Zwierzyn","alternatenames":[""],"latitude":"52.83212","longitude":"15.56763","feature_class":"P","feature_code":"PPLA3","country_code":"PL","cc2":"","admin1_code":"76","admin2_code":"0806","admin3_code":"080605","admin4_code":"","population":"1300","elevation":"","dem":"31","timezone":"Europe/Warsaw","modification_date":"2010-10-16"},{"geonameid":"3080165","name":"Zielona Góra","asciiname":"Zielona Gora","alternatenames":["Gorad Zjaljona Gura","Gruentberg","Grunberg","Grünberg","IEG","Prasia Elysiorum","Zelena Gura","Zeliona Gura","Zeljona-Gura","Zeloena Gur","Zelona Gura","Zelöna Gur","Zhel'ona Gora","Zielona Gora","Zielona Góra","Zielona Nkora","Zjelona Gora","jiellonagula","lu shan cheng","zhlwna gwra","zylwna gwra","Ζιελόνα Γκόρα","Горад Зялёна Гура","Жельона Гора","Зелена Гура","Зелёна-Гура","Зјелона Гора","زیلونا گورا","ژلونا گورا","ジェロナ・グラ","綠山城","지엘로나구라"],"latitude":"51.93548","longitude":"15.50643","feature_class":"P","feature_code":"PPLA","country_code":"PL","cc2":"","admin1_code":"76","admin2_code":"0862","admin3_code":"086201","admin4_code":"","population":"118433","elevation":"","dem":"143","timezone":"Europe/Warsaw","modification_date":"2010-10-16"},{"geonameid":"3080494","name":"Zbąszynek","asciiname":"Zbaszynek","alternatenames":["Neu Bentschen","Zbaszynek","Zbąszynek"],"latitude":"52.24315","longitude":"15.81654","feature_class":"P","feature_code":"PPLA3","country_code":"PL","cc2":"PL","admin1_code":"76","admin2_code":"0808","admin3_code":"080806","admin4_code":"","population":"5073","elevation":"","dem":"77","timezone":"Europe/Warsaw","modification_date":"2010-10-16"},{"geonameid":"3080644","name":"Żary","asciiname":"Zary","alternatenames":["Sorau","Sorau in Nieder Lausitz","Soraw","Zara","Zari","Zarow","Zary","Zhara","Zhari","Zhary","Zoraw","Zóraw","zha lei","Żary","Žari","Žarow","Жара","Жари","Жары","扎雷"],"latitude":"51.64205","longitude":"15.13727","feature_class":"P","feature_code":"PPLA2","country_code":"PL","cc2":"","admin1_code":"76","admin2_code":"0811","admin3_code":"081102","admin4_code":"","population":"38779","elevation":"","dem":"152","timezone":"Europe/Warsaw","modification_date":"2010-10-16"},{"geonameid":"3080944","name":"Żagań","asciiname":"Zagan","alternatenames":["Jagan'","Jaganʻ","Jaqan","Sagan","Saganum","Zagan","Zagana","Zaganis","Zahan","Zahań","Zaháň","Zankan","Zegan","Zegań","Zhagan","Zhagan'","jagan","jagana","za gan","zagan","zagana","zajan","Żagań","Žaganis","Žagaņa","Ζάγκαν","Жаган","Жагань","Жагањ","Жаґань","زاجان","زاگان","ज़ागान","जागान","ジャガン","雜幹"],"latitude":"51.61759","longitude":"15.31486","feature_class":"P","feature_code":"PPL","country_code":"PL","cc2":"","admin1_code":"76","admin2_code":"0810","admin3_code":"081002","admin4_code":"","population":"26251","elevation":"","dem":"98","timezone":"Europe/Warsaw","modification_date":"2010-09-10"},{"geonameid":"3081026","name":"Zabór","asciiname":"Zabor","alternatenames":["Fursteneich","Fürsteneich","Saabor","Zabor","Zabór"],"latitude":"51.95194","longitude":"15.71676","feature_class":"P","feature_code":"PPLA3","country_code":"PL","cc2":"PL","admin1_code":"76","admin2_code":"0809","admin3_code":"080909","admin4_code":"","population":"950","elevation":"","dem":"63","timezone":"Europe/Warsaw","modification_date":"2010-10-16"},{"geonameid":"3081206","name":"Wymiarki","asciiname":"Wymiarki","alternatenames":[""],"latitude":"51.51109","longitude":"15.08208","feature_class":"P","feature_code":"PPL","country_code":"PL","cc2":"","admin1_code":"76","admin2_code":"0810","admin3_code":"081008","admin4_code":"","population":"1300","elevation":"","dem":"144","timezone":"Europe/Warsaw","modification_date":"2010-09-10"},{"geonameid":"3081300","name":"Wschowa","asciiname":"Wschowa","alternatenames":["Fraustadt","Vshova","Vskhova","Vuskhova","Wschowa","fu si huo wa","Всхова","Въсхова","弗斯霍瓦"],"latitude":"51.80705","longitude":"16.31663","feature_class":"P","feature_code":"PPLA2","country_code":"PL","cc2":"","admin1_code":"76","admin2_code":"0812","admin3_code":"081203","admin4_code":"","population":"14458","elevation":"","dem":"100","timezone":"Europe/Warsaw","modification_date":"2010-10-16"},{"geonameid":"3081818","name":"Witnica","asciiname":"Witnica","alternatenames":["Vietz","Vietz Ostbahnhof","Witnica"],"latitude":"52.67318","longitude":"14.89765","feature_class":"P","feature_code":"PPLA3","country_code":"PL","cc2":"","admin1_code":"76","admin2_code":"0801","admin3_code":"080107","admin4_code":"","population":"6821","elevation":"","dem":"22","timezone":"Europe/Warsaw","modification_date":"2010-10-16"},{"geonameid":"3083004","name":"Tuplice","asciiname":"Tuplice","alternatenames":["Klein Teuplitz","Teuplitz","Tuplice"],"latitude":"51.67639","longitude":"14.82914","feature_class":"P","feature_code":"PPLA3","country_code":"PL","cc2":"PL","admin1_code":"76","admin2_code":"0811","admin3_code":"081109","admin4_code":"","population":"1500","elevation":"","dem":"117","timezone":"Europe/Warsaw","modification_date":"2010-10-16"},{"geonameid":"3083134","name":"Trzebiel","asciiname":"Trzebiel","alternatenames":["Triebel","Trzebiel"],"latitude":"51.63496","longitude":"14.81609","feature_class":"P","feature_code":"PPLA3","country_code":"PL","cc2":"PL","admin1_code":"76","admin2_code":"0811","admin3_code":"081108","admin4_code":"","population":"1400","elevation":"","dem":"131","timezone":"Europe/Warsaw","modification_date":"2010-10-16"},{"geonameid":"3083140","name":"Trzebiechów","asciiname":"Trzebiechow","alternatenames":[""],"latitude":"52.02113","longitude":"15.7362","feature_class":"P","feature_code":"PPLA3","country_code":"PL","cc2":"","admin1_code":"76","admin2_code":"0809","admin3_code":"080908","admin4_code":"","population":"920","elevation":"","dem":"54","timezone":"Europe/Warsaw","modification_date":"2010-10-16"},{"geonameid":"3083177","name":"Trzciel","asciiname":"Trzciel","alternatenames":["Neu Tirschtiegel","Tirschtiegel","Trzciel"],"latitude":"52.36504","longitude":"15.87306","feature_class":"P","feature_code":"PPLA3","country_code":"PL","cc2":"","admin1_code":"76","admin2_code":"0803","admin3_code":"080306","admin4_code":"","population":"2335","elevation":"","dem":"56","timezone":"Europe/Warsaw","modification_date":"2010-10-15"},{"geonameid":"3083264","name":"Torzym","asciiname":"Torzym","alternatenames":["Sternberg","Sternberg Neumark","Torun Lubuski","Toruń Lubuski","Tozhim","Tozima","Tožima","tuo ri mu","twrzym","Тожим","تورزيم","托日姆"],"latitude":"52.31331","longitude":"15.08243","feature_class":"P","feature_code":"PPLA3","country_code":"PL","cc2":"PL","admin1_code":"76","admin2_code":"0807","admin3_code":"080705","admin4_code":"","population":"2466","elevation":"","dem":"94","timezone":"Europe/Warsaw","modification_date":"2010-10-16"},{"geonameid":"3083632","name":"Szprotawa","asciiname":"Szprotawa","alternatenames":["Shprotava","Sprotava","Sprotawa","Sprottau","Szprotawa","shen pu luo ta wa","Šprotava","Шпротава","什普羅塔瓦"],"latitude":"51.56563","longitude":"15.53664","feature_class":"P","feature_code":"PPL","country_code":"PL","cc2":"","admin1_code":"76","admin2_code":"0810","admin3_code":"081007","admin4_code":"","population":"12786","elevation":"","dem":"130","timezone":"Europe/Warsaw","modification_date":"2010-09-10"},{"geonameid":"3083664","name":"Szlichtyngowa","asciiname":"Szlichtyngowa","alternatenames":["Schlichtingsheim","Szlichtyngowa"],"latitude":"51.71222","longitude":"16.24427","feature_class":"P","feature_code":"PPLA3","country_code":"PL","cc2":"","admin1_code":"76","admin2_code":"0812","admin3_code":"081202","admin4_code":"","population":"1372","elevation":"","dem":"79","timezone":"Europe/Warsaw","modification_date":"2010-10-16"},{"geonameid":"3083847","name":"Szczaniec","asciiname":"Szczaniec","alternatenames":[""],"latitude":"52.26874","longitude":"15.6817","feature_class":"P","feature_code":"PPLA3","country_code":"PL","cc2":"","admin1_code":"76","admin2_code":"0808","admin3_code":"080804","admin4_code":"","population":"1473","elevation":"","dem":"70","timezone":"Europe/Warsaw","modification_date":"2010-10-16"},{"geonameid":"3084062","name":"Świebodzin","asciiname":"Swiebodzin","alternatenames":["Comuna de Swiebodzin","Comuna de Świebodzin","Gmina Svebodzin","Gmina Swiebodzin","Gmina Świebodzin","Schweibus","Schwiebus","Svebodzin","Свебодзин","Ґміна Свебодзін"],"latitude":"52.24751","longitude":"15.53355","feature_class":"P","feature_code":"PPLA2","country_code":"PL","cc2":"PL","admin1_code":"76","admin2_code":"0808","admin3_code":"080805","admin4_code":"","population":"21757","elevation":"","dem":"81","timezone":"Europe/Warsaw","modification_date":"2010-10-16"},{"geonameid":"3084092","name":"Świdnica","asciiname":"Swidnica","alternatenames":["Schweinitz","Swidnica","Świdnica"],"latitude":"51.88836","longitude":"15.39013","feature_class":"P","feature_code":"PPLA3","country_code":"PL","cc2":"PL","admin1_code":"76","admin2_code":"0809","admin3_code":"080907","admin4_code":"","population":"1400","elevation":"","dem":"101","timezone":"Europe/Warsaw","modification_date":"2010-10-16"},{"geonameid":"3084241","name":"Sulechów","asciiname":"Sulechow","alternatenames":["Cylichow","Cylichów","Gorad Sulekhau","Sulechow","Sulechuvas","Sulechów","Sulehova","Sulekhov","Sulekhuv","Zullichau","Züllichau","su lai hu fu","surefufu","Горад Сулехаў","Сулехов","Сулехув","スレフフ","苏莱胡夫"],"latitude":"52.08362","longitude":"15.62513","feature_class":"P","feature_code":"PPLA3","country_code":"PL","cc2":"","admin1_code":"76","admin2_code":"0809","admin3_code":"080906","admin4_code":"","population":"18055","elevation":"","dem":"85","timezone":"Europe/Warsaw","modification_date":"2010-10-16"},{"geonameid":"3084421","name":"Strzelce Krajeńskie","asciiname":"Strzelce Krajenskie","alternatenames":["Friedeberg","Friedeberg in Neumark","Strzelce","Strzelce Krainskie","Strzelce Kraińskie","Strzelce Krajenskie","Strzelce Krajeńskie","Strzelcé","Stselce Krajenske","Stshel'ce-Kraen'ske","Stshel'ce-Kraens'ke","Stshelce Krajenskje","Stshelce Krajnensko","Stšelce Krajeņske","si qie er cai-ke la yan si kai","Стшелце Крайненско","Стшелце Крајењскје","Стшельце-Краеньске","Стшельце-Краєнське","斯切爾采-克拉延斯凱"],"latitude":"52.87726","longitude":"15.52978","feature_class":"P","feature_code":"PPLA2","country_code":"PL","cc2":"","admin1_code":"76","admin2_code":"0806","admin3_code":"080604","admin4_code":"","population":"9978","elevation":"","dem":"75","timezone":"Europe/Warsaw","modification_date":"2010-10-16"},{"geonameid":"3084876","name":"Stare Kurowo","asciiname":"Stare Kurowo","alternatenames":[""],"latitude":"52.85669","longitude":"15.67749","feature_class":"P","feature_code":"PPLA3","country_code":"PL","cc2":"","admin1_code":"76","admin2_code":"0806","admin3_code":"080603","admin4_code":"","population":"2100","elevation":"","dem":"34","timezone":"Europe/Warsaw","modification_date":"2010-10-16"},{"geonameid":"3085495","name":"Słubice","asciiname":"Slubice","alternatenames":["Damm-Vorstadt","Slubice","Slubices","Slubicės","Słubice","seuubiche","si wu bi cai","Слубице","Слубіце","斯武比采","스우비체"],"latitude":"52.35088","longitude":"14.56065","feature_class":"P","feature_code":"PPLA2","country_code":"PL","cc2":"","admin1_code":"76","admin2_code":"0805","admin3_code":"080505","admin4_code":"","population":"17567","elevation":"","dem":"23","timezone":"Europe/Warsaw","modification_date":"2010-09-18"},{"geonameid":"3085520","name":"Słońsk","asciiname":"Slonsk","alternatenames":["Sonnenburg"],"latitude":"52.56345","longitude":"14.80526","feature_class":"P","feature_code":"PPLA3","country_code":"PL","cc2":"PL","admin1_code":"76","admin2_code":"0807","admin3_code":"080703","admin4_code":"","population":"3000","elevation":"","dem":"16","timezone":"Europe/Warsaw","modification_date":"2010-10-16"},{"geonameid":"3085637","name":"Sława","asciiname":"Slawa","alternatenames":["Schlawa","Schlawa Schlesien","Schlesiersee","Slawa","Sława"],"latitude":"51.87623","longitude":"16.07205","feature_class":"P","feature_code":"PPLA3","country_code":"PL","cc2":"PL","admin1_code":"76","admin2_code":"0812","admin3_code":"081201","admin4_code":"","population":"4038","elevation":"","dem":"59","timezone":"Europe/Warsaw","modification_date":"2010-10-16"},{"geonameid":"3085656","name":"Skwierzyna","asciiname":"Skwierzyna","alternatenames":["Schwerin","Skvezhina","Skvezina","Skvežina","Skvjezhina","Skwierzyna","si ke wei ri na","Сквежина","Сквјежина","斯克維日納"],"latitude":"52.59914","longitude":"15.50652","feature_class":"P","feature_code":"PPLA3","country_code":"PL","cc2":"","admin1_code":"76","admin2_code":"0803","admin3_code":"080305","admin4_code":"","population":"10051","elevation":"","dem":"30","timezone":"Europe/Warsaw","modification_date":"2010-10-16"},{"geonameid":"3085848","name":"Skąpe","asciiname":"Skape","alternatenames":["Skampe","Skape","Skąpe"],"latitude":"52.15292","longitude":"15.45845","feature_class":"P","feature_code":"PPLA3","country_code":"PL","cc2":"PL","admin1_code":"76","admin2_code":"0808","admin3_code":"080803","admin4_code":"","population":"421","elevation":"","dem":"80","timezone":"Europe/Warsaw","modification_date":"2010-10-16"},{"geonameid":"3085999","name":"Sieniawa Żarska","asciiname":"Sieniawa Zarska","alternatenames":["Schonwalde","Schönwalde","Sieniawa Zarska","Sieniawa Żarska"],"latitude":"51.64007","longitude":"15.06045","feature_class":"P","feature_code":"PPL","country_code":"PL","cc2":"PL","admin1_code":"76","admin2_code":"0811","admin3_code":"081110","admin4_code":"","population":"1090","elevation":"","dem":"150","timezone":"Europe/Warsaw","modification_date":"2010-09-25"},{"geonameid":"3086000","name":"Sieniawa","asciiname":"Sieniawa","alternatenames":["Schoenow","Schönow"],"latitude":"52.36344","longitude":"15.37768","feature_class":"P","feature_code":"PPL","country_code":"PL","cc2":"","admin1_code":"76","admin2_code":"0808","admin3_code":"080802","admin4_code":"","population":"1100","elevation":"","dem":"134","timezone":"Europe/Warsaw","modification_date":"2014-05-06"},{"geonameid":"3086054","name":"Siedlisko","asciiname":"Siedlisko","alternatenames":["Carolath","Karolat","Siedlisko"],"latitude":"51.76864","longitude":"15.81396","feature_class":"P","feature_code":"PPLA3","country_code":"PL","cc2":"PL","admin1_code":"76","admin2_code":"0804","admin3_code":"080408","admin4_code":"","population":"1800","elevation":"","dem":"86","timezone":"Europe/Warsaw","modification_date":"2010-10-15"},{"geonameid":"3086283","name":"Santok","asciiname":"Santok","alternatenames":["Santok","Zantoch"],"latitude":"52.73785","longitude":"15.41021","feature_class":"P","feature_code":"PPLA3","country_code":"PL","cc2":"","admin1_code":"76","admin2_code":"0801","admin3_code":"080106","admin4_code":"","population":"780","elevation":"","dem":"22","timezone":"Europe/Warsaw","modification_date":"2010-10-16"},{"geonameid":"3086435","name":"Rzepin","asciiname":"Rzepin","alternatenames":["Reppen","Rypin Lubuski","Zhepin","Жепин"],"latitude":"52.3464","longitude":"14.83227","feature_class":"P","feature_code":"PPLA3","country_code":"PL","cc2":"PL","admin1_code":"76","admin2_code":"0805","admin3_code":"080504","admin4_code":"","population":"6488","elevation":"","dem":"59","timezone":"Europe/Warsaw","modification_date":"2010-10-16"},{"geonameid":"3087710","name":"Pszczew","asciiname":"Pszczew","alternatenames":["Betsche","Betsche-Stadt","Pszczew"],"latitude":"52.47724","longitude":"15.7816","feature_class":"P","feature_code":"PPLA3","country_code":"PL","cc2":"","admin1_code":"76","admin2_code":"0803","admin3_code":"080304","admin4_code":"","population":"1826","elevation":"","dem":"61","timezone":"Europe/Warsaw","modification_date":"2010-10-16"},{"geonameid":"3087769","name":"Przytoczna","asciiname":"Przytoczna","alternatenames":[""],"latitude":"52.57755","longitude":"15.67878","feature_class":"P","feature_code":"PPLA3","country_code":"PL","cc2":"","admin1_code":"76","admin2_code":"0803","admin3_code":"080303","admin4_code":"","population":"2400","elevation":"","dem":"54","timezone":"Europe/Warsaw","modification_date":"2010-10-16"},{"geonameid":"3087895","name":"Przyborów","asciiname":"Przyborow","alternatenames":[""],"latitude":"51.79991","longitude":"15.7689","feature_class":"P","feature_code":"PPL","country_code":"PL","cc2":"","admin1_code":"76","admin2_code":"0804","admin3_code":"080405","admin4_code":"","population":"1200","elevation":"","dem":"63","timezone":"Europe/Warsaw","modification_date":"2010-09-06"},{"geonameid":"3087917","name":"Przewóz","asciiname":"Przewoz","alternatenames":["Priebus","Przewoz","Przewóz"],"latitude":"51.48053","longitude":"14.95188","feature_class":"P","feature_code":"PPLA3","country_code":"PL","cc2":"PL","admin1_code":"76","admin2_code":"0811","admin3_code":"081107","admin4_code":"","population":"850","elevation":"","dem":"140","timezone":"Europe/Warsaw","modification_date":"2010-10-16"},{"geonameid":"3089612","name":"Otyń","asciiname":"Otyn","alternatenames":["Deutsch Wartenberg","Otyn","Otyń"],"latitude":"51.84766","longitude":"15.71105","feature_class":"P","feature_code":"PPLA3","country_code":"PL","cc2":"PL","admin1_code":"76","admin2_code":"0804","admin3_code":"080407","admin4_code":"","population":"1200","elevation":"","dem":"64","timezone":"Europe/Warsaw","modification_date":"2010-10-16"},{"geonameid":"3089832","name":"Ośno Lubuskie","asciiname":"Osno Lubuskie","alternatenames":["Drossen","Os'no-Ljubuske","Oshno-Ljubus'ke","Osno","Osno Lubelskje","Osno Lubuske","Ośno","Осно Лубелскје","Осьно-Любуске","Ошно-Любуське"],"latitude":"52.4536","longitude":"14.87549","feature_class":"P","feature_code":"PPLA3","country_code":"PL","cc2":"PL","admin1_code":"76","admin2_code":"0805","admin3_code":"080503","admin4_code":"","population":"3730","elevation":"","dem":"46","timezone":"Europe/Warsaw","modification_date":"2010-10-16"},{"geonameid":"3090357","name":"Ochla","asciiname":"Ochla","alternatenames":[""],"latitude":"51.87903","longitude":"15.47132","feature_class":"P","feature_code":"PPL","country_code":"PL","cc2":"","admin1_code":"76","admin2_code":"0809","admin3_code":"080910","admin4_code":"","population":"1544","elevation":"","dem":"88","timezone":"Europe/Warsaw","modification_date":"2010-09-10"},{"geonameid":"3090553","name":"Nowogród Bobrzański","asciiname":"Nowogrod Bobrzanski","alternatenames":["Comuna de Nowogrod Bobrzanski","Comuna de Nowogród Bobrzański","Gmina Novogrud-Bobzhans'kij","Gmina Nowogrod Bobrzanski","Gmina Nowogród Bobrzański","Naumburg","Naumburg Bober","Naumburg am Bober","Novogrud-Bobzhan'skij","Nowogrod Bobrzanski","Nowogród Bobrzański","Nowy Zamek","Новогруд-Бобжаньский","Ґміна Новоґруд-Бобжанський"],"latitude":"51.79856","longitude":"15.2352","feature_class":"P","feature_code":"PPLA3","country_code":"PL","cc2":"PL","admin1_code":"76","admin2_code":"0809","admin3_code":"080905","admin4_code":"","population":"5114","elevation":"","dem":"81","timezone":"Europe/Warsaw","modification_date":"2010-10-15"},{"geonameid":"3090616","name":"Nowe Miasteczko","asciiname":"Nowe Miasteczko","alternatenames":["Neustadtel","Neustädtel","Nowe Miasteczko"],"latitude":"51.69097","longitude":"15.73174","feature_class":"P","feature_code":"PPLA3","country_code":"PL","cc2":"PL","admin1_code":"76","admin2_code":"0804","admin3_code":"080406","admin4_code":"","population":"2825","elevation":"","dem":"95","timezone":"Europe/Warsaw","modification_date":"2010-10-15"},{"geonameid":"3090764","name":"Nowa Sól","asciiname":"Nowa Sol","alternatenames":["Neusalz","Nova Sol","Nova Sola","Nova Sul'","Nova-Sul'","Nowa Sol","Nowa Sól","xin su er","Нова Сол","Нова Суль","Нова-Суль","新蘇爾"],"latitude":"51.80333","longitude":"15.71702","feature_class":"P","feature_code":"PPLA2","country_code":"PL","cc2":"","admin1_code":"76","admin2_code":"0804","admin3_code":"080401","admin4_code":"","population":"40354","elevation":"","dem":"66","timezone":"Europe/Warsaw","modification_date":"2010-10-16"},{"geonameid":"3091969","name":"Międzyrzecz","asciiname":"Miedzyrzecz","alternatenames":["Mendzizeca","Mendzizhech","Mendzižeča","Mendzyzecas","Mendzyzhech","Mendzyžečas","Mesdirtz","Meseritz","Miedzyrzecz","Międzyrzecz","Mjendzizhech","mian ji re qi","Мендзижеч","Мендзыжеч","Мєндзижеч","Мјендзижеч","緬濟熱奇"],"latitude":"52.44461","longitude":"15.57801","feature_class":"P","feature_code":"PPLA2","country_code":"PL","cc2":"","admin1_code":"76","admin2_code":"0803","admin3_code":"080302","admin4_code":"","population":"18669","elevation":"","dem":"51","timezone":"Europe/Warsaw","modification_date":"2010-09-22"},{"geonameid":"3091974","name":"Międzylesie","asciiname":"Miedzylesie","alternatenames":["Miedzylesie","Mittwalde","Międzylesie"],"latitude":"52.14487","longitude":"15.38283","feature_class":"P","feature_code":"PPL","country_code":"PL","cc2":"PL","admin1_code":"76","admin2_code":"0808","admin3_code":"080803","admin4_code":"","population":"1971","elevation":"","dem":"80","timezone":"Europe/Warsaw","modification_date":"2010-09-12"},{"geonameid":"3092199","name":"Maszewo","asciiname":"Maszewo","alternatenames":["Maszewo","Messow"],"latitude":"52.06896","longitude":"14.90553","feature_class":"P","feature_code":"PPLA3","country_code":"PL","cc2":"PL","admin1_code":"76","admin2_code":"0802","admin3_code":"080207","admin4_code":"","population":"460","elevation":"","dem":"61","timezone":"Europe/Warsaw","modification_date":"2010-10-11"},{"geonameid":"3092402","name":"Małomice","asciiname":"Malomice","alternatenames":["Mallmitz","Malmitz","Malomice","Małomice"],"latitude":"51.55597","longitude":"15.45004","feature_class":"P","feature_code":"PPL","country_code":"PL","cc2":"PL","admin1_code":"76","admin2_code":"0810","admin3_code":"081005","admin4_code":"","population":"3617","elevation":"","dem":"121","timezone":"Europe/Warsaw","modification_date":"2010-09-10"},{"geonameid":"3092813","name":"Lubsko","asciiname":"Lubsko","alternatenames":["Ljubs'ko","Ljubsko","Lubsko","Lupsko","Sommerfeld","Zemr","Zemsz","lu bu si ke","Žemŕ","Лупско","Любско","Любсько","盧布斯科"],"latitude":"51.78467","longitude":"14.97196","feature_class":"P","feature_code":"PPLA3","country_code":"PL","cc2":"","admin1_code":"76","admin2_code":"0811","admin3_code":"081106","admin4_code":"","population":"14994","elevation":"","dem":"72","timezone":"Europe/Warsaw","modification_date":"2013-10-06"},{"geonameid":"3092816","name":"Lubrza","asciiname":"Lubrza","alternatenames":["Liebenau","Liebenau bei Schwiebus","Lubna","Lubrza"],"latitude":"52.30418","longitude":"15.44317","feature_class":"P","feature_code":"PPLA3","country_code":"PL","cc2":"PL","admin1_code":"76","admin2_code":"0808","admin3_code":"080801","admin4_code":"","population":"995","elevation":"","dem":"75","timezone":"Europe/Warsaw","modification_date":"2014-05-06"},{"geonameid":"3092894","name":"Lubniewice","asciiname":"Lubniewice","alternatenames":["Konigswalde","Königswalde","Ljubnevice","Lubniewica","Lubniewice","Любневице"],"latitude":"52.51638","longitude":"15.25005","feature_class":"P","feature_code":"PPLA3","country_code":"PL","cc2":"","admin1_code":"76","admin2_code":"0807","admin3_code":"080702","admin4_code":"","population":"1924","elevation":"","dem":"56","timezone":"Europe/Warsaw","modification_date":"2010-10-16"},{"geonameid":"3092913","name":"Lubiszyn","asciiname":"Lubiszyn","alternatenames":["Lubiszyn","Ludwigsruh"],"latitude":"52.78075","longitude":"14.94793","feature_class":"P","feature_code":"PPLA3","country_code":"PL","cc2":"","admin1_code":"76","admin2_code":"0801","admin3_code":"080105","admin4_code":"","population":"800","elevation":"","dem":"55","timezone":"Europe/Warsaw","modification_date":"2010-10-16"},{"geonameid":"3093315","name":"Lipinki Łużyckie","asciiname":"Lipinki Luzyckie","alternatenames":[""],"latitude":"51.63954","longitude":"14.99874","feature_class":"P","feature_code":"PPLA3","country_code":"PL","cc2":"","admin1_code":"76","admin2_code":"0811","admin3_code":"081105","admin4_code":"","population":"1800","elevation":"","dem":"145","timezone":"Europe/Warsaw","modification_date":"2010-10-16"},{"geonameid":"3093649","name":"Łęknica","asciiname":"Leknica","alternatenames":["Leknica","Leknice","Lenknica","Lenknicja","Lenkņica","Lucknitz","Lugknitz","Lugnice","Wjeska","wen ke ni cha","Ługnice","Łęknica","Łęknice","Ленкница","Ленкниця","Ленкњица","文克尼察"],"latitude":"51.54148","longitude":"14.73584","feature_class":"P","feature_code":"PPLA3","country_code":"PL","cc2":"PL","admin1_code":"76","admin2_code":"0811","admin3_code":"081101","admin4_code":"","population":"2565","elevation":"","dem":"117","timezone":"Europe/Warsaw","modification_date":"2011-07-31"},{"geonameid":"3093979","name":"Łagów","asciiname":"Lagow","alternatenames":["Lagow","Łagów"],"latitude":"52.33429","longitude":"15.29769","feature_class":"P","feature_code":"PPLA3","country_code":"PL","cc2":"","admin1_code":"76","admin2_code":"0808","admin3_code":"080802","admin4_code":"","population":"1666","elevation":"","dem":"119","timezone":"Europe/Warsaw","modification_date":"2010-10-13"},{"geonameid":"3094258","name":"Kunice Żarskie","asciiname":"Kunice Zarskie","alternatenames":[""],"latitude":"51.59944","longitude":"15.16495","feature_class":"P","feature_code":"PPLX","country_code":"PL","cc2":"","admin1_code":"76","admin2_code":"0811","admin3_code":"081102","admin4_code":"","population":"3000","elevation":"","dem":"142","timezone":"Europe/Warsaw","modification_date":"2010-09-09"},{"geonameid":"3094488","name":"Krzeszyce","asciiname":"Krzeszyce","alternatenames":["Kriescht","Krzeszyce"],"latitude":"52.58329","longitude":"15.00707","feature_class":"P","feature_code":"PPLA3","country_code":"PL","cc2":"","admin1_code":"76","admin2_code":"0807","admin3_code":"080701","admin4_code":"","population":"1400","elevation":"","dem":"19","timezone":"Europe/Warsaw","modification_date":"2010-10-16"},{"geonameid":"3094633","name":"Krosno Odrzańskie","asciiname":"Krosno Odrzanskie","alternatenames":["Crossen","Krosno","Krosno Odrensko","Krosno Odrzanskie","Krosno Odrzańskie","Krosno Odzanske","Krosno Odzhanskje","Krosno Odžaņske","Krosno-Odzhan'ske","Krosno-Odzhans'ke","ao de he pan ke luo si nuo","Кросно Оджањскје","Кросно Одренско","Кросно-Оджанське","Кросно-Оджаньске","奧得河畔克羅斯諾"],"latitude":"52.05492","longitude":"15.09882","feature_class":"P","feature_code":"PPLA2","country_code":"PL","cc2":"","admin1_code":"76","admin2_code":"0802","admin3_code":"080206","admin4_code":"","population":"12178","elevation":"","dem":"82","timezone":"Europe/Warsaw","modification_date":"2010-10-16"},{"geonameid":"3094832","name":"Kożuchów","asciiname":"Kozuchow","alternatenames":["Freystadt","Kozhukhov","Kozhukhuv","Kozuchow","Kozuhova","Kożuchów","Kožuhova","ke ru hu fu","Кожухов","Кожухув","科茹胡夫"],"latitude":"51.74558","longitude":"15.59492","feature_class":"P","feature_code":"PPLA3","country_code":"PL","cc2":"","admin1_code":"76","admin2_code":"0804","admin3_code":"080404","admin4_code":"","population":"9679","elevation":"","dem":"101","timezone":"Europe/Warsaw","modification_date":"2010-10-15"},{"geonameid":"3095057","name":"Kostrzyn nad Odrą","asciiname":"Kostrzyn nad Odra","alternatenames":["Cuestrin","Cüstrin","Kistrzyn","Koscerzeno","Kostrin","Kostrzyn","Kostrzyn ce Odro","Kostrzyn ĉe Odro","Kostshin na Odri","Kostshin nad Odra","Kostshin-nad-Odroj","Kostshin-nad-Odroju","Kostsina pie Odras","Kostšina pie Odras","Kuestrin","Kòscérzëno","Küstrin","ao de he pan ke si qin","Костшин на Одри","Костшин над Одра","Костшин-над-Одрой","Костшин-над-Одрою","コストシン・ナド・オドロン","奥得河畔科斯琴"],"latitude":"52.58713","longitude":"14.64953","feature_class":"P","feature_code":"PPL","country_code":"PL","cc2":"","admin1_code":"76","admin2_code":"0801","admin3_code":"080101","admin4_code":"","population":"18099","elevation":"","dem":"16","timezone":"Europe/Warsaw","modification_date":"2010-09-14"},{"geonameid":"3095307","name":"Konotop","asciiname":"Konotop","alternatenames":["Konotop","Kontapp","Kontopp"],"latitude":"51.93157","longitude":"15.90391","feature_class":"P","feature_code":"PPL","country_code":"PL","cc2":"PL","admin1_code":"76","admin2_code":"0804","admin3_code":"080403","admin4_code":"","population":"1400","elevation":"","dem":"59","timezone":"Europe/Warsaw","modification_date":"2010-10-21"},{"geonameid":"3095417","name":"Kolsko","asciiname":"Kolsko","alternatenames":["Kolsko","Kolzig"],"latitude":"51.96146","longitude":"15.95987","feature_class":"P","feature_code":"PPLA3","country_code":"PL","cc2":"PL","admin1_code":"76","admin2_code":"0804","admin3_code":"080403","admin4_code":"","population":"1000","elevation":"","dem":"56","timezone":"Europe/Warsaw","modification_date":"2010-10-16"},{"geonameid":"3096078","name":"Kłodawa","asciiname":"Klodawa","alternatenames":["Kladow","Klodawa","Kłodawa"],"latitude":"52.78595","longitude":"15.21452","feature_class":"P","feature_code":"PPLA3","country_code":"PL","cc2":"","admin1_code":"76","admin2_code":"0801","admin3_code":"080104","admin4_code":"","population":"1762","elevation":"","dem":"51","timezone":"Europe/Warsaw","modification_date":"2010-10-21"},{"geonameid":"3096149","name":"Klenica","asciiname":"Klenica","alternatenames":[""],"latitude":"51.99217","longitude":"15.78392","feature_class":"P","feature_code":"PPL","country_code":"PL","cc2":"","admin1_code":"76","admin2_code":"0809","admin3_code":"080902","admin4_code":"","population":"1400","elevation":"","dem":"56","timezone":"Europe/Warsaw","modification_date":"2010-10-21"},{"geonameid":"3096640","name":"Kargowa","asciiname":"Kargowa","alternatenames":["Kargowa","Unruhstadt"],"latitude":"52.0714","longitude":"15.86138","feature_class":"P","feature_code":"PPLA3","country_code":"PL","cc2":"PL","admin1_code":"76","admin2_code":"0809","admin3_code":"080904","admin4_code":"","population":"3649","elevation":"","dem":"59","timezone":"Europe/Warsaw","modification_date":"2010-10-16"},{"geonameid":"3097228","name":"Jenin","asciiname":"Jenin","alternatenames":["Gennin","Jenin"],"latitude":"52.69647","longitude":"15.09796","feature_class":"P","feature_code":"PPL","country_code":"PL","cc2":"","admin1_code":"76","admin2_code":"0801","admin3_code":"080102","admin4_code":"","population":"1100","elevation":"","dem":"23","timezone":"Europe/Warsaw","modification_date":"2010-10-21"},{"geonameid":"3097480","name":"Jasień","asciiname":"Jasien","alternatenames":["Gassen","Jasien","Jasień"],"latitude":"51.75142","longitude":"15.01419","feature_class":"P","feature_code":"PPLA3","country_code":"PL","cc2":"PL","admin1_code":"76","admin2_code":"0811","admin3_code":"081104","admin4_code":"","population":"4398","elevation":"","dem":"85","timezone":"Europe/Warsaw","modification_date":"2010-10-15"},{"geonameid":"3097896","name":"Iłowa","asciiname":"Ilowa","alternatenames":["Halbau","Ilova","Ilowa","Iłowa","Jilwa","Jiłwa","Stadt Halbau","yi wo wa","Ілова","Илова","伊沃瓦"],"latitude":"51.5006","longitude":"15.1998","feature_class":"P","feature_code":"PPL","country_code":"PL","cc2":"PL","admin1_code":"76","admin2_code":"0810","admin3_code":"081004","admin4_code":"","population":"4085","elevation":"","dem":"126","timezone":"Europe/Warsaw","modification_date":"2010-09-10"},{"geonameid":"3098130","name":"Gubin","asciiname":"Gubin","alternatenames":["Gorad Gubin","Guben","Gubin","Gubina","Gubinas","gu bin","Горад Губін","Губин","Ґубін","古賓"],"latitude":"51.94956","longitude":"14.72837","feature_class":"P","feature_code":"PPLA3","country_code":"PL","cc2":"","admin1_code":"76","admin2_code":"0802","admin3_code":"080201","admin4_code":"","population":"16629","elevation":"","dem":"45","timezone":"Europe/Warsaw","modification_date":"2010-10-16"},{"geonameid":"3098583","name":"Gozdnica","asciiname":"Gozdnica","alternatenames":["Freiwaldau","Gozdnica"],"latitude":"51.4363","longitude":"15.09856","feature_class":"P","feature_code":"PPLA3","country_code":"PL","cc2":"PL","admin1_code":"76","admin2_code":"0810","admin3_code":"081001","admin4_code":"","population":"3398","elevation":"","dem":"150","timezone":"Europe/Warsaw","modification_date":"2011-07-31"},{"geonameid":"3098712","name":"Górzyca","asciiname":"Gorzyca","alternatenames":["Goritz","Göritz"],"latitude":"52.49447","longitude":"14.65503","feature_class":"P","feature_code":"PPLA3","country_code":"PL","cc2":"PL","admin1_code":"76","admin2_code":"0805","admin3_code":"080502","admin4_code":"","population":"1539","elevation":"","dem":"21","timezone":"Europe/Warsaw","modification_date":"2010-10-16"},{"geonameid":"3098722","name":"Gorzów Wielkopolski","asciiname":"Gorzow Wielkopolski","alternatenames":["Gorad Gorau Vjalikapol'ski","Gorzow Wielkopolski","Gorzuw Wjelgopolski","Gorzów Wielkopolski","Gorzůw Wjelgopolski","Gozhov Velikopolski","Gozhov Vjelkopolski","Gozhuv-Vel'kopol's'kij","Gozhuv-Vel'kopol'ski","Gozhuv-Vel'kopol'skij","Gozova Velkopolska","Gozuv-Velkopolski","Gozuvas","Gožova Velkopolska","Gožuv-Velkopolski","Gožuvas","Lacbarg","Landsberg","Landsberg an der Warthe","Landsbergum","da bo lan de qu ge ru fu","gojupeubielkopolseuki","gwrzhwf wylkwpwlsky","kxr sufwei yl khx pxl ski","Łącbarg","Гожов Великополски","Гожов Вјелкополски","Гожув-Велькопольски","Гожув-Велькопольский","Горад Гораў Вялікапольскі","Ґожув-Велькопольський","گورژوف ویلکوپولسکی","กอร์ซูฟเวียลคอปอลสกี","ゴジュフ・ヴィエルコポルスキ","大波蘭地區戈茹夫","고주프비엘코폴스키"],"latitude":"52.73679","longitude":"15.22878","feature_class":"P","feature_code":"PPLA","country_code":"PL","cc2":"","admin1_code":"76","admin2_code":"","admin3_code":"","admin4_code":"","population":"124430","elevation":"","dem":"34","timezone":"Europe/Warsaw","modification_date":"2011-03-08"},{"geonameid":"3100127","name":"Drezdenko","asciiname":"Drezdenko","alternatenames":["Derzen","Drebenko","Drezdenkas","Drezdenko","Driesen","Drizenko","Dërżéń","de lei ci deng ke","Дрезденко","Դրիզենկո","德雷兹登科"],"latitude":"52.83831","longitude":"15.83079","feature_class":"P","feature_code":"PPLA3","country_code":"PL","cc2":"","admin1_code":"76","admin2_code":"0806","admin3_code":"080602","admin4_code":"","population":"10541","elevation":"","dem":"30","timezone":"Europe/Warsaw","modification_date":"2011-07-31"},{"geonameid":"3100400","name":"Dobiegniew","asciiname":"Dobiegniew","alternatenames":["Dobegnev","Dobegneva","Dobegņeva","Dobiegniew","Dobiegniewo","Dobiegniewò","Dobiehiewo","Dobjegnev","Woldenberg","Woldenberg Neumark","duo bie ge nie fu","Добегнев","Добеґнев","Добјегњев","多别格涅夫"],"latitude":"52.96947","longitude":"15.75362","feature_class":"P","feature_code":"PPLA3","country_code":"PL","cc2":"","admin1_code":"76","admin2_code":"0806","admin3_code":"080601","admin4_code":"","population":"3179","elevation":"","dem":"66","timezone":"Europe/Warsaw","modification_date":"2011-07-31"},{"geonameid":"3100465","name":"Deszczno","asciiname":"Deszczno","alternatenames":["Dechsel","Deszczno"],"latitude":"52.66988","longitude":"15.31975","feature_class":"P","feature_code":"PPLA3","country_code":"PL","cc2":"","admin1_code":"76","admin2_code":"0801","admin3_code":"080103","admin4_code":"","population":"1100","elevation":"","dem":"20","timezone":"Europe/Warsaw","modification_date":"2010-10-16"},{"geonameid":"3100881","name":"Dąbie","asciiname":"Dabie","alternatenames":[""],"latitude":"52.01056","longitude":"15.15221","feature_class":"P","feature_code":"PPLA3","country_code":"PL","cc2":"","admin1_code":"76","admin2_code":"0802","admin3_code":"080204","admin4_code":"","population":"417","elevation":"","dem":"79","timezone":"Europe/Warsaw","modification_date":"2010-10-16"},{"geonameid":"3100976","name":"Czerwieńsk","asciiname":"Czerwiensk","alternatenames":["Czerwinsk","Czerwińsk","Rothenburg","Rothenburg an der Oder","Rozborg"],"latitude":"52.01289","longitude":"15.42317","feature_class":"P","feature_code":"PPLA3","country_code":"PL","cc2":"PL","admin1_code":"76","admin2_code":"0809","admin3_code":"080903","admin4_code":"","population":"4197","elevation":"","dem":"55","timezone":"Europe/Warsaw","modification_date":"2010-10-16"},{"geonameid":"3101255","name":"Cybinka","asciiname":"Cybinka","alternatenames":["Ziebingen"],"latitude":"52.19446","longitude":"14.79567","feature_class":"P","feature_code":"PPLA3","country_code":"PL","cc2":"PL","admin1_code":"76","admin2_code":"0805","admin3_code":"080501","admin4_code":"","population":"2655","elevation":"","dem":"49","timezone":"Europe/Warsaw","modification_date":"2010-10-16"},{"geonameid":"3101947","name":"Bytom Odrzański","asciiname":"Bytom Odrzanski","alternatenames":["Beuthen","Beuthen an Oder","Beuthen an der Oder","Bialobrzezie","Białobrzezie","Bytom Odrzanski","Bytom Odrzański"],"latitude":"51.73062","longitude":"15.82362","feature_class":"P","feature_code":"PPLA3","country_code":"PL","cc2":"PL","admin1_code":"76","admin2_code":"0804","admin3_code":"080402","admin4_code":"","population":"4408","elevation":"","dem":"81","timezone":"Europe/Warsaw","modification_date":"2010-10-15"},{"geonameid":"3101951","name":"Bytnica","asciiname":"Bytnica","alternatenames":["Beutnitz","Bytnica"],"latitude":"52.15066","longitude":"15.16946","feature_class":"P","feature_code":"PPLA3","country_code":"PL","cc2":"PL","admin1_code":"76","admin2_code":"0802","admin3_code":"080203","admin4_code":"","population":"1200","elevation":"","dem":"70","timezone":"Europe/Warsaw","modification_date":"2010-10-16"},{"geonameid":"3102598","name":"Brójce","asciiname":"Brojce","alternatenames":["Bratz","Bratz Stadt","Brojce","Brätz","Brätz Stadt","Brójce"],"latitude":"52.31745","longitude":"15.67414","feature_class":"P","feature_code":"PPL","country_code":"PL","cc2":"","admin1_code":"76","admin2_code":"0803","admin3_code":"080306","admin4_code":"","population":"1050","elevation":"","dem":"67","timezone":"Europe/Warsaw","modification_date":"2010-10-15"},{"geonameid":"3102615","name":"Brody","asciiname":"Brody","alternatenames":["Pforten","Pförten"],"latitude":"51.79046","longitude":"14.77335","feature_class":"P","feature_code":"PPLA3","country_code":"PL","cc2":"PL","admin1_code":"76","admin2_code":"0811","admin3_code":"081103","admin4_code":"","population":"1070","elevation":"","dem":"63","timezone":"Europe/Warsaw","modification_date":"2010-10-16"},{"geonameid":"3103016","name":"Bojadła","asciiname":"Bojadla","alternatenames":["Bojadla","Bojadła","Boyadel"],"latitude":"51.95321","longitude":"15.81036","feature_class":"P","feature_code":"PPLA3","country_code":"PL","cc2":"PL","admin1_code":"76","admin2_code":"0809","admin3_code":"080902","admin4_code":"","population":"1200","elevation":"","dem":"58","timezone":"Europe/Warsaw","modification_date":"2010-10-16"},{"geonameid":"3103091","name":"Bogdaniec","asciiname":"Bogdaniec","alternatenames":["Bogdaniec","Duhringshof","Dühringshof"],"latitude":"52.68897","longitude":"15.07127","feature_class":"P","feature_code":"PPLA3","country_code":"PL","cc2":"","admin1_code":"76","admin2_code":"0801","admin3_code":"080102","admin4_code":"","population":"1100","elevation":"","dem":"24","timezone":"Europe/Warsaw","modification_date":"2010-10-16"},{"geonameid":"3103162","name":"Bobrowice","asciiname":"Bobrowice","alternatenames":["Bobersberg","Bobrowice","Bobrowiec"],"latitude":"51.9485","longitude":"15.09058","feature_class":"P","feature_code":"PPLA3","country_code":"PL","cc2":"PL","admin1_code":"76","admin2_code":"0802","admin3_code":"080202","admin4_code":"","population":"884","elevation":"","dem":"62","timezone":"Europe/Warsaw","modification_date":"2010-10-16"},{"geonameid":"3103247","name":"Bledzew","asciiname":"Bledzew","alternatenames":["Bledzew","Bledzewo","Blesen","Blesen Stadt"],"latitude":"52.51711","longitude":"15.41382","feature_class":"P","feature_code":"PPLA3","country_code":"PL","cc2":"","admin1_code":"76","admin2_code":"0803","admin3_code":"080301","admin4_code":"","population":"1300","elevation":"","dem":"41","timezone":"Europe/Warsaw","modification_date":"2010-10-16"},{"geonameid":"3104002","name":"Babimost","asciiname":"Babimost","alternatenames":["Babimost","Bomst","IEG","Бабимост"],"latitude":"52.16488","longitude":"15.82769","feature_class":"P","feature_code":"PPLA3","country_code":"PL","cc2":"PL","admin1_code":"76","admin2_code":"0809","admin3_code":"080901","admin4_code":"","population":"4182","elevation":"","dem":"57","timezone":"Europe/Warsaw","modification_date":"2013-04-02"}]}