{"region_data":{"countryId":"719819","adminCode1":"01","countryName":"Hungary","fclName":"country, state, region,...","countryCode":"HU","lng":"19.41667","fcodeName":"first-order administrative division","toponymName":"Bács-Kiskun county","fcl":"A","numberOfChildren":11,"name":"Bács-Kiskun","fcode":"ADM1","geonameId":3055744,"lat":"46.5","adminName1":"Bács-Kiskun","population":534000},"country_data":{"ISO":"HU","ISO3":"HUN","ISO_Numeric":"348","fips":"HU","country":"Hungary","capital":"Budapest","area":"93030","Population":"9982000","Continent":"EU","tld":".hu","CurrencyCode":"HUF","CurrencyName":"Forint","Phone":"36","Postal_Code_Format":"####","Postal_Code_Regex":"^(\\d{4})$","Languages":"hu-HU","geonameid":"719819","neighbours":"SK,SI,RO,UA,HR,AT,RS","EquivalentFipsCode":""},"cities":[{"geonameid":"714754","name":"Tiszakécske","asciiname":"Tiszakecske","alternatenames":["O-hecske","Okecie","Okecske","Okeske","Tiszakecske","Tiszakécske","Ujkecske","Ó-hecske","Ókeske","Ókécske","Újkécske"],"latitude":"46.93261","longitude":"20.10349","feature_class":"P","feature_code":"PPLA2","country_code":"HU","cc2":"","admin1_code":"01","admin2_code":"","admin3_code":"","admin4_code":"","population":"11745","elevation":"","dem":"85","timezone":"Europe/Budapest","modification_date":"2014-11-05"},{"geonameid":"3043048","name":"Vaskút","asciiname":"Vaskut","alternatenames":["Vaskut","Vaskút"],"latitude":"46.10782","longitude":"18.98514","feature_class":"P","feature_code":"PPL","country_code":"HU","cc2":"","admin1_code":"01","admin2_code":"","admin3_code":"","admin4_code":"","population":"3613","elevation":"","dem":"101","timezone":"Europe/Budapest","modification_date":"2012-01-18"},{"geonameid":"3043111","name":"Városföld","asciiname":"Varosfoeld","alternatenames":[""],"latitude":"46.81674","longitude":"19.75668","feature_class":"P","feature_code":"PPL","country_code":"HU","cc2":"","admin1_code":"01","admin2_code":"","admin3_code":"","admin4_code":"","population":"2248","elevation":"","dem":"108","timezone":"Europe/Budapest","modification_date":"2010-04-07"},{"geonameid":"3043820","name":"Tompa","asciiname":"Tompa","alternatenames":["Tompa"],"latitude":"46.20605","longitude":"19.5391","feature_class":"P","feature_code":"PPL","country_code":"HU","cc2":"","admin1_code":"01","admin2_code":"","admin3_code":"","admin4_code":"","population":"4844","elevation":"","dem":"131","timezone":"Europe/Budapest","modification_date":"2012-01-18"},{"geonameid":"3044062","name":"Tázlár","asciiname":"Tazlar","alternatenames":["Pronayfalva","Prónayfalva","Tazlar","Tázlár"],"latitude":"46.54824","longitude":"19.51436","feature_class":"P","feature_code":"PPL","country_code":"HU","cc2":"","admin1_code":"01","admin2_code":"","admin3_code":"","admin4_code":"","population":"1984","elevation":"","dem":"114","timezone":"Europe/Budapest","modification_date":"2012-01-18"},{"geonameid":"3044093","name":"Tass","asciiname":"Tass","alternatenames":["Tass"],"latitude":"47.02095","longitude":"19.02988","feature_class":"P","feature_code":"PPL","country_code":"HU","cc2":"","admin1_code":"01","admin2_code":"","admin3_code":"","admin4_code":"","population":"2963","elevation":"","dem":"97","timezone":"Europe/Budapest","modification_date":"2012-05-06"},{"geonameid":"3044607","name":"Szentkirály","asciiname":"Szentkiraly","alternatenames":["Laszlofalva","Lászlófalva","Nep Iskola","Nép Iskola","Szentkiraly","Szentkirály"],"latitude":"46.91892","longitude":"19.91846","feature_class":"P","feature_code":"PPL","country_code":"HU","cc2":"","admin1_code":"01","admin2_code":"","admin3_code":"","admin4_code":"","population":"1965","elevation":"","dem":"101","timezone":"Europe/Budapest","modification_date":"2012-01-18"},{"geonameid":"3044916","name":"Szank","asciiname":"Szank","alternatenames":["Szank"],"latitude":"46.55713","longitude":"19.66103","feature_class":"P","feature_code":"PPL","country_code":"HU","cc2":"","admin1_code":"01","admin2_code":"","admin3_code":"","admin4_code":"","population":"2506","elevation":"","dem":"108","timezone":"Europe/Budapest","modification_date":"2012-05-06"},{"geonameid":"3044941","name":"Szalkszentmárton","asciiname":"Szalkszentmarton","alternatenames":["Szalkszentmarton","Szalkszentmárton"],"latitude":"46.97565","longitude":"19.01178","feature_class":"P","feature_code":"PPL","country_code":"HU","cc2":"","admin1_code":"01","admin2_code":"","admin3_code":"","admin4_code":"","population":"2982","elevation":"","dem":"99","timezone":"Europe/Budapest","modification_date":"2012-01-18"},{"geonameid":"3045017","name":"Szabadszállás","asciiname":"Szabadszallas","alternatenames":["Szabadszallas","Szabadszállás"],"latitude":"46.87575","longitude":"19.22324","feature_class":"P","feature_code":"PPL","country_code":"HU","cc2":"","admin1_code":"01","admin2_code":"","admin3_code":"","admin4_code":"","population":"6605","elevation":"","dem":"97","timezone":"Europe/Budapest","modification_date":"2012-01-18"},{"geonameid":"3045076","name":"Sükösd","asciiname":"Sukosd","alternatenames":["Sukosd","Sükösd"],"latitude":"46.28181","longitude":"18.99524","feature_class":"P","feature_code":"PPL","country_code":"HU","cc2":"","admin1_code":"01","admin2_code":"","admin3_code":"","admin4_code":"","population":"3987","elevation":"","dem":"105","timezone":"Europe/Budapest","modification_date":"2012-01-18"},{"geonameid":"3045298","name":"Soltvadkert","asciiname":"Soltvadkert","alternatenames":["Soltvadkert"],"latitude":"46.57889","longitude":"19.39389","feature_class":"P","feature_code":"PPL","country_code":"HU","cc2":"","admin1_code":"01","admin2_code":"","admin3_code":"","admin4_code":"","population":"7695","elevation":"","dem":"111","timezone":"Europe/Budapest","modification_date":"2012-01-18"},{"geonameid":"3045303","name":"Solt","asciiname":"Solt","alternatenames":["Solt"],"latitude":"46.80067","longitude":"18.99993","feature_class":"P","feature_code":"PPL","country_code":"HU","cc2":"","admin1_code":"01","admin2_code":"","admin3_code":"","admin4_code":"","population":"6984","elevation":"","dem":"97","timezone":"Europe/Budapest","modification_date":"2012-01-18"},{"geonameid":"3046719","name":"Pálmonostora","asciiname":"Palmonostora","alternatenames":["Palmonostora","Pálmonostora"],"latitude":"46.62417","longitude":"19.95156","feature_class":"P","feature_code":"PPL","country_code":"HU","cc2":"","admin1_code":"01","admin2_code":"","admin3_code":"","admin4_code":"","population":"2052","elevation":"","dem":"85","timezone":"Europe/Budapest","modification_date":"2012-01-18"},{"geonameid":"3046940","name":"Orgovány","asciiname":"Orgovany","alternatenames":["Orgovany","Orgovány"],"latitude":"46.75087","longitude":"19.47259","feature_class":"P","feature_code":"PPL","country_code":"HU","cc2":"","admin1_code":"01","admin2_code":"","admin3_code":"","admin4_code":"","population":"3472","elevation":"","dem":"107","timezone":"Europe/Budapest","modification_date":"2012-01-18"},{"geonameid":"3047309","name":"Nyárlőrinc","asciiname":"Nyarlorinc","alternatenames":["Nyarlorinc","Nyárlőrinc"],"latitude":"46.86017","longitude":"19.87836","feature_class":"P","feature_code":"PPL","country_code":"HU","cc2":"","admin1_code":"01","admin2_code":"","admin3_code":"","admin4_code":"","population":"2384","elevation":"","dem":"102","timezone":"Europe/Budapest","modification_date":"2012-01-18"},{"geonameid":"3047399","name":"Nemesnádudvar","asciiname":"Nemesnadudvar","alternatenames":["Nemesnadudvar","Nemesnádudvar"],"latitude":"46.34051","longitude":"19.05115","feature_class":"P","feature_code":"PPL","country_code":"HU","cc2":"","admin1_code":"01","admin2_code":"","admin3_code":"","admin4_code":"","population":"2041","elevation":"","dem":"91","timezone":"Europe/Budapest","modification_date":"2012-01-18"},{"geonameid":"3047804","name":"Nagybaracska","asciiname":"Nagybaracska","alternatenames":["Nagybaracska"],"latitude":"46.04248","longitude":"18.9059","feature_class":"P","feature_code":"PPL","country_code":"HU","cc2":"","admin1_code":"01","admin2_code":"","admin3_code":"","admin4_code":"","population":"2445","elevation":"","dem":"90","timezone":"Europe/Budapest","modification_date":"2012-02-02"},{"geonameid":"3048194","name":"Mélykút","asciiname":"Melykut","alternatenames":["Melykut","Mélykút"],"latitude":"46.21509","longitude":"19.38102","feature_class":"P","feature_code":"PPL","country_code":"HU","cc2":"","admin1_code":"01","admin2_code":"","admin3_code":"","admin4_code":"","population":"5766","elevation":"","dem":"133","timezone":"Europe/Budapest","modification_date":"2013-04-04"},{"geonameid":"3048657","name":"Madaras","asciiname":"Madaras","alternatenames":["Madaras"],"latitude":"46.0587","longitude":"19.26121","feature_class":"P","feature_code":"PPL","country_code":"HU","cc2":"","admin1_code":"01","admin2_code":"","admin3_code":"","admin4_code":"","population":"3246","elevation":"","dem":"116","timezone":"Europe/Budapest","modification_date":"2012-05-06"},{"geonameid":"3048984","name":"Lakitelek","asciiname":"Lakitelek","alternatenames":["Lakitelek"],"latitude":"46.87601","longitude":"19.99504","feature_class":"P","feature_code":"PPL","country_code":"HU","cc2":"","admin1_code":"01","admin2_code":"","admin3_code":"","admin4_code":"","population":"4435","elevation":"","dem":"92","timezone":"Europe/Budapest","modification_date":"2012-01-18"},{"geonameid":"3049002","name":"Lajosmizse","asciiname":"Lajosmizse","alternatenames":["Lajosmizse"],"latitude":"47.02133","longitude":"19.56171","feature_class":"P","feature_code":"PPL","country_code":"HU","cc2":"","admin1_code":"01","admin2_code":"","admin3_code":"","admin4_code":"","population":"11034","elevation":"","dem":"132","timezone":"Europe/Budapest","modification_date":"2012-01-18"},{"geonameid":"3049100","name":"Kunszentmiklós","asciiname":"Kunszentmiklos","alternatenames":["Kunszentmiklos","Kunszentmiklós"],"latitude":"47.02699","longitude":"19.12575","feature_class":"P","feature_code":"PPLA2","country_code":"HU","cc2":"","admin1_code":"01","admin2_code":"","admin3_code":"","admin4_code":"","population":"8976","elevation":"","dem":"95","timezone":"Europe/Budapest","modification_date":"2014-11-05"},{"geonameid":"3049111","name":"Kunfehértó","asciiname":"Kunfeherto","alternatenames":["Kunfeherto","Kunfehértó"],"latitude":"46.36091","longitude":"19.41454","feature_class":"P","feature_code":"PPL","country_code":"HU","cc2":"","admin1_code":"01","admin2_code":"","admin3_code":"","admin4_code":"","population":"2281","elevation":"","dem":"134","timezone":"Europe/Budapest","modification_date":"2012-01-18"},{"geonameid":"3049751","name":"Kisszállás","asciiname":"Kisszallas","alternatenames":["Kisszalla","Kisszallas","Kisszállá","Kisszállás"],"latitude":"46.28009","longitude":"19.48954","feature_class":"P","feature_code":"PPL","country_code":"HU","cc2":"","admin1_code":"01","admin2_code":"","admin3_code":"","admin4_code":"","population":"2846","elevation":"","dem":"130","timezone":"Europe/Budapest","modification_date":"2012-01-18"},{"geonameid":"3049875","name":"Kiskunmajsa","asciiname":"Kiskunmajsa","alternatenames":["Kiskunmajsa"],"latitude":"46.49028","longitude":"19.74","feature_class":"P","feature_code":"PPLA2","country_code":"HU","cc2":"","admin1_code":"01","admin2_code":"","admin3_code":"","admin4_code":"","population":"11955","elevation":"","dem":"104","timezone":"Europe/Budapest","modification_date":"2014-11-05"},{"geonameid":"3049880","name":"Kiskunhalas","asciiname":"Kiskunhalas","alternatenames":["Kishkunkhalash","Kiskunhalas","Kiskunhalos","Кишкунхалаш"],"latitude":"46.43402","longitude":"19.48479","feature_class":"P","feature_code":"PPLA2","country_code":"HU","cc2":"","admin1_code":"01","admin2_code":"","admin3_code":"","admin4_code":"","population":"29354","elevation":"","dem":"127","timezone":"Europe/Budapest","modification_date":"2014-11-05"},{"geonameid":"3049885","name":"Kiskunfélegyháza","asciiname":"Kiskunfelegyhaza","alternatenames":["Kiskunfelegyhaza","Kiskunfélegyháza"],"latitude":"46.71213","longitude":"19.84458","feature_class":"P","feature_code":"PPLA2","country_code":"HU","cc2":"","admin1_code":"01","admin2_code":"","admin3_code":"","admin4_code":"","population":"31720","elevation":"","dem":"97","timezone":"Europe/Budapest","modification_date":"2014-11-05"},{"geonameid":"3049896","name":"Kiskőrös","asciiname":"Kiskoros","alternatenames":["Kiskoros","Kiskőrös"],"latitude":"46.62139","longitude":"19.28528","feature_class":"P","feature_code":"PPLA2","country_code":"HU","cc2":"","admin1_code":"01","admin2_code":"","admin3_code":"","admin4_code":"","population":"15091","elevation":"","dem":"100","timezone":"Europe/Budapest","modification_date":"2014-11-05"},{"geonameid":"3050311","name":"Kerekegyháza","asciiname":"Kerekegyhaza","alternatenames":["Kerekegyhaza","Kerekegyháza"],"latitude":"46.93722","longitude":"19.47806","feature_class":"P","feature_code":"PPL","country_code":"HU","cc2":"","admin1_code":"01","admin2_code":"","admin3_code":"","admin4_code":"","population":"5983","elevation":"","dem":"118","timezone":"Europe/Budapest","modification_date":"2012-01-18"},{"geonameid":"3050406","name":"Kelebia","asciiname":"Kelebia","alternatenames":["Kelebia"],"latitude":"46.1968","longitude":"19.61659","feature_class":"P","feature_code":"PPL","country_code":"HU","cc2":"","admin1_code":"01","admin2_code":"","admin3_code":"","admin4_code":"","population":"2985","elevation":"","dem":"129","timezone":"Europe/Budapest","modification_date":"2012-01-18"},{"geonameid":"3050434","name":"Kecskemét","asciiname":"Kecskemet","alternatenames":["Heteny","Hetenyegyhaza","Hetény","Hetényegyháza","Kechkemet","Keckemet","Keckemetas","Kecskemet","Kecskemét","Kečkemet","Kečkemėtas","kai qi kai mei te","kchkmyt","kchkymt","kechikemeteu","kechikemeto","khechkhe met","qz'qmt","Кечкемет","קצ'קמט","کچکمیت","کچکیمت","เคชเคเมต","ケチケメート","凯奇凯梅特","케치케메트"],"latitude":"46.90618","longitude":"19.69128","feature_class":"P","feature_code":"PPLA","country_code":"HU","cc2":"HU","admin1_code":"01","admin2_code":"","admin3_code":"","admin4_code":"","population":"109847","elevation":"","dem":"120","timezone":"Europe/Budapest","modification_date":"2015-06-17"},{"geonameid":"3050454","name":"Kecel","asciiname":"Kecel","alternatenames":["Kecel"],"latitude":"46.52528","longitude":"19.25194","feature_class":"P","feature_code":"PPL","country_code":"HU","cc2":"","admin1_code":"01","admin2_code":"","admin3_code":"","admin4_code":"","population":"9155","elevation":"","dem":"102","timezone":"Europe/Budapest","modification_date":"2012-01-18"},{"geonameid":"3050475","name":"Katymár","asciiname":"Katymar","alternatenames":["Katymar","Katymár"],"latitude":"46.03398","longitude":"19.20935","feature_class":"P","feature_code":"PPL","country_code":"HU","cc2":"","admin1_code":"01","admin2_code":"","admin3_code":"","admin4_code":"","population":"2374","elevation":"","dem":"103","timezone":"Europe/Budapest","modification_date":"2012-02-02"},{"geonameid":"3050719","name":"Kalocsa","asciiname":"Kalocsa","alternatenames":["Kaloca","Kalocha","Kalocsa","Kaloča","Koloca","Koloča","kalwcha","kao luo qiao","karocha","keollocheo","Калоча","کالوچا","カロチャ","考洛喬","컬로처"],"latitude":"46.52639","longitude":"18.98583","feature_class":"P","feature_code":"PPLA2","country_code":"HU","cc2":"","admin1_code":"01","admin2_code":"","admin3_code":"","admin4_code":"","population":"18242","elevation":"","dem":"89","timezone":"Europe/Budapest","modification_date":"2015-06-17"},{"geonameid":"3050901","name":"Jászszentlászló","asciiname":"Jaszszentlaszlo","alternatenames":["Jaszszentlaszlo","Jaszszentlazlo","Jászszentlászló","Jászszentlázló"],"latitude":"46.56685","longitude":"19.76065","feature_class":"P","feature_code":"PPL","country_code":"HU","cc2":"","admin1_code":"01","admin2_code":"","admin3_code":"","admin4_code":"","population":"2602","elevation":"","dem":"99","timezone":"Europe/Budapest","modification_date":"2012-01-18"},{"geonameid":"3050967","name":"Jánoshalma","asciiname":"Janoshalma","alternatenames":["Janoshalma","Jánoshalma"],"latitude":"46.29861","longitude":"19.32583","feature_class":"P","feature_code":"PPLA2","country_code":"HU","cc2":"","admin1_code":"01","admin2_code":"","admin3_code":"","admin4_code":"","population":"9755","elevation":"","dem":"136","timezone":"Europe/Budapest","modification_date":"2014-11-05"},{"geonameid":"3050997","name":"Fülöpjakab","asciiname":"Fueloepjakab","alternatenames":["Fulopjakabszallas","Fülopjakabszállás"],"latitude":"46.74221","longitude":"19.72132","feature_class":"P","feature_code":"PPL","country_code":"HU","cc2":"","admin1_code":"01","admin2_code":"","admin3_code":"","admin4_code":"","population":"1162","elevation":"","dem":"112","timezone":"Europe/Budapest","modification_date":"2010-04-07"},{"geonameid":"3051016","name":"Izsák","asciiname":"Izsak","alternatenames":["Izsak","Izsák"],"latitude":"46.80454","longitude":"19.35172","feature_class":"P","feature_code":"PPL","country_code":"HU","cc2":"","admin1_code":"01","admin2_code":"","admin3_code":"","admin4_code":"","population":"6117","elevation":"","dem":"101","timezone":"Europe/Budapest","modification_date":"2012-01-18"},{"geonameid":"3051520","name":"Hercegszántó","asciiname":"Hercegszanto","alternatenames":["Hercegszanto","Hercegszántó"],"latitude":"45.95","longitude":"18.93917","feature_class":"P","feature_code":"PPL","country_code":"HU","cc2":"","admin1_code":"01","admin2_code":"","admin3_code":"","admin4_code":"","population":"2308","elevation":"","dem":"87","timezone":"Europe/Budapest","modification_date":"2012-02-28"},{"geonameid":"3051535","name":"Helvécia","asciiname":"Helvecia","alternatenames":["Helvecia","Helvécia"],"latitude":"46.83661","longitude":"19.62251","feature_class":"P","feature_code":"PPL","country_code":"HU","cc2":"","admin1_code":"01","admin2_code":"","admin3_code":"","admin4_code":"","population":"3918","elevation":"","dem":"121","timezone":"Europe/Budapest","modification_date":"2012-01-18"},{"geonameid":"3051657","name":"Harta","asciiname":"Harta","alternatenames":["Harta"],"latitude":"46.69846","longitude":"19.03053","feature_class":"P","feature_code":"PPL","country_code":"HU","cc2":"","admin1_code":"01","admin2_code":"","admin3_code":"","admin4_code":"","population":"3716","elevation":"","dem":"94","timezone":"Europe/Budapest","modification_date":"2012-01-18"},{"geonameid":"3051873","name":"Hajós","asciiname":"Hajos","alternatenames":["Hajos","Hajós"],"latitude":"46.39861","longitude":"19.12056","feature_class":"P","feature_code":"PPL","country_code":"HU","cc2":"","admin1_code":"01","admin2_code":"","admin3_code":"","admin4_code":"","population":"3520","elevation":"","dem":"89","timezone":"Europe/Budapest","modification_date":"2012-01-18"},{"geonameid":"3052391","name":"Gara","asciiname":"Gara","alternatenames":["Gara","Gora"],"latitude":"46.03194","longitude":"19.04278","feature_class":"P","feature_code":"PPL","country_code":"HU","cc2":"","admin1_code":"01","admin2_code":"","admin3_code":"","admin4_code":"","population":"2656","elevation":"","dem":"95","timezone":"Europe/Budapest","modification_date":"2012-01-18"},{"geonameid":"3052500","name":"Fülöpszállás","asciiname":"Fulopszallas","alternatenames":["Fulopszallas","Fülöpszállás"],"latitude":"46.82075","longitude":"19.23748","feature_class":"P","feature_code":"PPL","country_code":"HU","cc2":"","admin1_code":"01","admin2_code":"","admin3_code":"","admin4_code":"","population":"2503","elevation":"","dem":"96","timezone":"Europe/Budapest","modification_date":"2012-01-18"},{"geonameid":"3052749","name":"Felsőszentiván","asciiname":"Felsoszentivan","alternatenames":["Felsoszentivan","Felsőszentiván"],"latitude":"46.19713","longitude":"19.18686","feature_class":"P","feature_code":"PPL","country_code":"HU","cc2":"","admin1_code":"01","admin2_code":"","admin3_code":"","admin4_code":"","population":"1998","elevation":"","dem":"127","timezone":"Europe/Budapest","modification_date":"2012-01-18"},{"geonameid":"3053203","name":"Érsekcsanád","asciiname":"Ersekcsanad","alternatenames":["Ersekcsanad","Érsekcsanád"],"latitude":"46.25352","longitude":"18.98457","feature_class":"P","feature_code":"PPL","country_code":"HU","cc2":"","admin1_code":"01","admin2_code":"","admin3_code":"","admin4_code":"","population":"2863","elevation":"","dem":"96","timezone":"Europe/Budapest","modification_date":"2012-01-18"},{"geonameid":"3053423","name":"Dusnok","asciiname":"Dusnok","alternatenames":["Dusnok"],"latitude":"46.39085","longitude":"18.96296","feature_class":"P","feature_code":"PPL","country_code":"HU","cc2":"","admin1_code":"01","admin2_code":"","admin3_code":"","admin4_code":"","population":"3284","elevation":"","dem":"91","timezone":"Europe/Budapest","modification_date":"2012-01-18"},{"geonameid":"3053432","name":"Dunavecse","asciiname":"Dunavecse","alternatenames":["Dunavecse"],"latitude":"46.91407","longitude":"18.97433","feature_class":"P","feature_code":"PPL","country_code":"HU","cc2":"","admin1_code":"01","admin2_code":"","admin3_code":"","admin4_code":"","population":"4201","elevation":"","dem":"97","timezone":"Europe/Budapest","modification_date":"2012-01-18"},{"geonameid":"3053459","name":"Dunapataj","asciiname":"Dunapataj","alternatenames":["Dunapataj"],"latitude":"46.644","longitude":"18.99632","feature_class":"P","feature_code":"PPL","country_code":"HU","cc2":"","admin1_code":"01","admin2_code":"","admin3_code":"","admin4_code":"","population":"3693","elevation":"","dem":"94","timezone":"Europe/Budapest","modification_date":"2012-05-06"},{"geonameid":"3053779","name":"Dávod","asciiname":"Davod","alternatenames":["Davod","Dávod"],"latitude":"45.995","longitude":"18.91722","feature_class":"P","feature_code":"PPL","country_code":"HU","cc2":"","admin1_code":"01","admin2_code":"","admin3_code":"","admin4_code":"","population":"2240","elevation":"","dem":"87","timezone":"Europe/Budapest","modification_date":"2012-02-28"},{"geonameid":"3054280","name":"Csengőd","asciiname":"Csengod","alternatenames":["Csengod","Csengőd"],"latitude":"46.71543","longitude":"19.26802","feature_class":"P","feature_code":"PPL","country_code":"HU","cc2":"","admin1_code":"01","admin2_code":"","admin3_code":"","admin4_code":"","population":"2291","elevation":"","dem":"96","timezone":"Europe/Budapest","modification_date":"2012-01-18"},{"geonameid":"3054328","name":"Csávoly","asciiname":"Csavoly","alternatenames":["Csavoly","Csávoly","Kiscsavoly Baja"],"latitude":"46.18917","longitude":"19.14667","feature_class":"P","feature_code":"PPL","country_code":"HU","cc2":"","admin1_code":"01","admin2_code":"","admin3_code":"","admin4_code":"","population":"2080","elevation":"","dem":"130","timezone":"Europe/Budapest","modification_date":"2012-01-18"},{"geonameid":"3054352","name":"Császártöltés","asciiname":"Csaszartoltes","alternatenames":["Csaszartoltes","Császártöltés"],"latitude":"46.42194","longitude":"19.18361","feature_class":"P","feature_code":"PPL","country_code":"HU","cc2":"","admin1_code":"01","admin2_code":"","admin3_code":"","admin4_code":"","population":"2649","elevation":"","dem":"109","timezone":"Europe/Budapest","modification_date":"2012-01-18"},{"geonameid":"3054612","name":"Bugac","asciiname":"Bugac","alternatenames":["Bugac","Bugacmonostor"],"latitude":"46.68704","longitude":"19.68074","feature_class":"P","feature_code":"PPL","country_code":"HU","cc2":"","admin1_code":"01","admin2_code":"","admin3_code":"","admin4_code":"","population":"3066","elevation":"","dem":"111","timezone":"Europe/Budapest","modification_date":"2012-01-18"},{"geonameid":"3055281","name":"Bátya","asciiname":"Batya","alternatenames":["Batya","Bátya"],"latitude":"46.488","longitude":"18.95419","feature_class":"P","feature_code":"PPL","country_code":"HU","cc2":"","admin1_code":"01","admin2_code":"","admin3_code":"","admin4_code":"","population":"2190","elevation":"","dem":"91","timezone":"Europe/Budapest","modification_date":"2012-01-18"},{"geonameid":"3055497","name":"Ballószög","asciiname":"Balloszog","alternatenames":["Balloszog","Ballószög"],"latitude":"46.86216","longitude":"19.57092","feature_class":"P","feature_code":"PPL","country_code":"HU","cc2":"","admin1_code":"01","admin2_code":"","admin3_code":"","admin4_code":"","population":"2753","elevation":"","dem":"121","timezone":"Europe/Budapest","modification_date":"2012-01-18"},{"geonameid":"3055685","name":"Baja","asciiname":"Baja","alternatenames":["Baja","Bajja","Baya","baia","bao yao","baya","bayh","beoyeo","Байя","Бая","Баја","بایا","بایه","ბაია","バヤ","包姚","버여"],"latitude":"46.17496","longitude":"18.95639","feature_class":"P","feature_code":"PPLA2","country_code":"HU","cc2":"","admin1_code":"01","admin2_code":"","admin3_code":"","admin4_code":"","population":"37714","elevation":"","dem":"102","timezone":"Europe/Budapest","modification_date":"2015-06-17"},{"geonameid":"3055757","name":"Bácsbokod","asciiname":"Bacsbokod","alternatenames":["Bacsbokod","Bácsbokod"],"latitude":"46.125","longitude":"19.15621","feature_class":"P","feature_code":"PPL","country_code":"HU","cc2":"","admin1_code":"01","admin2_code":"","admin3_code":"","admin4_code":"","population":"3077","elevation":"","dem":"115","timezone":"Europe/Budapest","modification_date":"2012-01-18"},{"geonameid":"3055760","name":"Bácsalmás","asciiname":"Bacsalmas","alternatenames":["Bacsahna","Bacsalmas","Bácsahná","Bácsalmás"],"latitude":"46.12648","longitude":"19.3326","feature_class":"P","feature_code":"PPLA2","country_code":"HU","cc2":"","admin1_code":"01","admin2_code":"","admin3_code":"","admin4_code":"","population":"7608","elevation":"","dem":"123","timezone":"Europe/Budapest","modification_date":"2014-11-05"},{"geonameid":"3055896","name":"Apostag","asciiname":"Apostag","alternatenames":["Apostag"],"latitude":"46.88208","longitude":"18.9621","feature_class":"P","feature_code":"PPL","country_code":"HU","cc2":"","admin1_code":"01","admin2_code":"","admin3_code":"","admin4_code":"","population":"2099","elevation":"","dem":"97","timezone":"Europe/Budapest","modification_date":"2012-05-06"},{"geonameid":"3056347","name":"Akasztó","asciiname":"Akaszto","alternatenames":["Akaszto","Akasztó"],"latitude":"46.69167","longitude":"19.20423","feature_class":"P","feature_code":"PPL","country_code":"HU","cc2":"","admin1_code":"01","admin2_code":"","admin3_code":"","admin4_code":"","population":"3480","elevation":"","dem":"92","timezone":"Europe/Budapest","modification_date":"2012-05-06"},{"geonameid":"3056391","name":"Ágasegyháza","asciiname":"Agasegyhaza","alternatenames":["Agasegyhaza","Ágasegyháza"],"latitude":"46.84025","longitude":"19.45208","feature_class":"P","feature_code":"PPL","country_code":"HU","cc2":"","admin1_code":"01","admin2_code":"","admin3_code":"","admin4_code":"","population":"1898","elevation":"","dem":"105","timezone":"Europe/Budapest","modification_date":"2012-01-18"},{"geonameid":"3338787","name":"Tiszaalpár","asciiname":"Tiszaalpar","alternatenames":["Tiszaalpar","Tiszaalpár"],"latitude":"46.81279","longitude":"19.99841","feature_class":"P","feature_code":"PPL","country_code":"HU","cc2":"","admin1_code":"01","admin2_code":"","admin3_code":"","admin4_code":"","population":"5070","elevation":"","dem":"87","timezone":"Europe/Budapest","modification_date":"2012-01-20"}]}