{"region_data":{"countryId":"690791","adminCode1":"23","countryName":"Ukraine","fclName":"country, state, region,...","countryCode":"UA","lng":"28.66667","fcodeName":"first-order administrative division","toponymName":"Vinnyts’ka Oblast’","fcl":"A","numberOfChildren":13,"name":"Vinnyts’ka Oblast’","fcode":"ADM1","geonameId":689559,"lat":"48.91667","adminName1":"Vinnyts'ka","population":1691061},"country_data":{"ISO":"UA","ISO3":"UKR","ISO_Numeric":"804","fips":"UP","country":"Ukraine","capital":"Kiev","area":"603700","Population":"45415596","Continent":"EU","tld":".ua","CurrencyCode":"UAH","CurrencyName":"Hryvnia","Phone":"380","Postal_Code_Format":"#####","Postal_Code_Regex":"^(\\d{5})$","Languages":"uk,ru-UA,rom,pl,hu","geonameid":"690791","neighbours":"PL,MD,HU,SK,BY,RO,RU","EquivalentFipsCode":""},"cities":[{"geonameid":"687116","name":"Zhmerynka","asciiname":"Zhmerynka","alternatenames":["Zhmerinka","Zhmerynka","Жмеринка"],"latitude":"49.03705","longitude":"28.11201","feature_class":"P","feature_code":"PPLA2","country_code":"UA","cc2":"","admin1_code":"23","admin2_code":"","admin3_code":"","admin4_code":"","population":"35960","elevation":"","dem":"318","timezone":"Europe/Kiev","modification_date":"2014-10-01"},{"geonameid":"688507","name":"Yampil’","asciiname":"Yampil'","alternatenames":["Jampil'","Yampil'","Yampil’","Yampol'","Yampol’","Ямпіль"],"latitude":"48.2424","longitude":"28.28195","feature_class":"P","feature_code":"PPLA2","country_code":"UA","cc2":"","admin1_code":"23","admin2_code":"","admin3_code":"","admin4_code":"","population":"0","elevation":"","dem":"58","timezone":"Europe/Kiev","modification_date":"2014-10-01"},{"geonameid":"689003","name":"Voronovytsya","asciiname":"Voronovytsya","alternatenames":["Voronovicja","Voronovitsa","Voronovitsy","Voronovytsya","Вороновиця"],"latitude":"49.10954","longitude":"28.68078","feature_class":"P","feature_code":"PPL","country_code":"UA","cc2":"","admin1_code":"23","admin2_code":"","admin3_code":"","admin4_code":"","population":"6389","elevation":"","dem":"287","timezone":"Europe/Kiev","modification_date":"2012-01-18"},{"geonameid":"689558","name":"Vinnytsya","asciiname":"Vinnytsya","alternatenames":["VIN","Vinnica","Vinnicja","Vinnitsa","Vinnytsya","Winniza","Винница","Вінниця"],"latitude":"49.23278","longitude":"28.48097","feature_class":"P","feature_code":"PPLA","country_code":"UA","cc2":"","admin1_code":"23","admin2_code":"","admin3_code":"","admin4_code":"","population":"352115","elevation":"","dem":"235","timezone":"Europe/Kiev","modification_date":"2015-04-08"},{"geonameid":"690032","name":"Vendychany","asciiname":"Vendychany","alternatenames":["Bendichany","Vendichani","Vendichany","Vendychany","Вендичани"],"latitude":"48.61176","longitude":"27.79324","feature_class":"P","feature_code":"PPL","country_code":"UA","cc2":"","admin1_code":"23","admin2_code":"","admin3_code":"","admin4_code":"","population":"4182","elevation":"","dem":"234","timezone":"Europe/Kiev","modification_date":"2012-01-18"},{"geonameid":"690485","name":"Vapnyarka","asciiname":"Vapnyarka","alternatenames":["Vapnjarka","Vapnyarka","Wapnjarka","Вапнярка"],"latitude":"48.53479","longitude":"28.74358","feature_class":"P","feature_code":"PPL","country_code":"UA","cc2":"","admin1_code":"23","admin2_code":"","admin3_code":"","admin4_code":"","population":"8443","elevation":"","dem":"313","timezone":"Europe/Kiev","modification_date":"2012-01-18"},{"geonameid":"690756","name":"Ulanov","asciiname":"Ulanov","alternatenames":["Ulaniv","Ulanov","Уланов","Уланів"],"latitude":"49.69512","longitude":"28.13298","feature_class":"P","feature_code":"PPL","country_code":"UA","cc2":"","admin1_code":"23","admin2_code":"","admin3_code":"","admin4_code":"","population":"3038","elevation":"","dem":"269","timezone":"Europe/Kiev","modification_date":"2010-08-16"},{"geonameid":"690855","name":"Tyvriv","asciiname":"Tyvriv","alternatenames":["Tivriv","Tyvriv","Tyvrov","Тиврів"],"latitude":"49.01404","longitude":"28.50846","feature_class":"P","feature_code":"PPLA2","country_code":"UA","cc2":"","admin1_code":"23","admin2_code":"","admin3_code":"","admin4_code":"","population":"0","elevation":"","dem":"279","timezone":"Europe/Kiev","modification_date":"2014-10-01"},{"geonameid":"690985","name":"Turbiv","asciiname":"Turbiv","alternatenames":["Turbiv","Turbov","Турбів"],"latitude":"49.34788","longitude":"28.72117","feature_class":"P","feature_code":"PPL","country_code":"UA","cc2":"","admin1_code":"23","admin2_code":"","admin3_code":"","admin4_code":"","population":"6740","elevation":"","dem":"252","timezone":"Europe/Kiev","modification_date":"2012-01-18"},{"geonameid":"691016","name":"Tul’chyn","asciiname":"Tul'chyn","alternatenames":["Tu'chin","Tul'chin","Tul'chyn","Tultschin","Tul’chyn","Tu’chin","Тульчин"],"latitude":"48.67448","longitude":"28.84641","feature_class":"P","feature_code":"PPLA2","country_code":"UA","cc2":"","admin1_code":"23","admin2_code":"","admin3_code":"","admin4_code":"","population":"16136","elevation":"","dem":"231","timezone":"Europe/Kiev","modification_date":"2014-10-01"},{"geonameid":"691051","name":"Tsybulevka","asciiname":"Tsybulevka","alternatenames":["Cibulevka","Tsybulevka","Цибулевка"],"latitude":"48.38719","longitude":"29.10288","feature_class":"P","feature_code":"PPL","country_code":"UA","cc2":"","admin1_code":"23","admin2_code":"","admin3_code":"","admin4_code":"","population":"1888","elevation":"","dem":"199","timezone":"Europe/Kiev","modification_date":"2012-01-18"},{"geonameid":"691264","name":"Trostyanets’","asciiname":"Trostyanets'","alternatenames":["Trostjanec'","Trostjanez","Trostyanets'","Trostyanets’","Тростянець"],"latitude":"48.50961","longitude":"29.23482","feature_class":"P","feature_code":"PPLA2","country_code":"UA","cc2":"","admin1_code":"23","admin2_code":"","admin3_code":"","admin4_code":"","population":"0","elevation":"","dem":"196","timezone":"Europe/Kiev","modification_date":"2014-10-01"},{"geonameid":"691365","name":"Torkanivka","asciiname":"Torkanivka","alternatenames":["Tarkanovka","Torkanovka","Торкановка"],"latitude":"48.32462","longitude":"29.14746","feature_class":"P","feature_code":"PPL","country_code":"UA","cc2":"","admin1_code":"23","admin2_code":"","admin3_code":"","admin4_code":"","population":"1061","elevation":"","dem":"207","timezone":"Europe/Kiev","modification_date":"2013-11-05"},{"geonameid":"691422","name":"Tomashpil’","asciiname":"Tomashpil'","alternatenames":["Tomashpil'","Tomashpil’","Tomashpol'","Tomashpol’","Томашпіль"],"latitude":"48.54256","longitude":"28.51684","feature_class":"P","feature_code":"PPLA2","country_code":"UA","cc2":"","admin1_code":"23","admin2_code":"","admin3_code":"","admin4_code":"","population":"0","elevation":"","dem":"240","timezone":"Europe/Kiev","modification_date":"2014-10-01"},{"geonameid":"691708","name":"Teplyk","asciiname":"Teplyk","alternatenames":["Teplik","Teplyk","Теплик"],"latitude":"48.66566","longitude":"29.74504","feature_class":"P","feature_code":"PPLA2","country_code":"UA","cc2":"","admin1_code":"23","admin2_code":"","admin3_code":"","admin4_code":"","population":"6604","elevation":"","dem":"201","timezone":"Europe/Kiev","modification_date":"2014-10-01"},{"geonameid":"692146","name":"Sutysky","asciiname":"Sutysky","alternatenames":["Sutiski","Sutysky","Сутиски"],"latitude":"49.04245","longitude":"28.41733","feature_class":"P","feature_code":"PPL","country_code":"UA","cc2":"","admin1_code":"23","admin2_code":"","admin3_code":"","admin4_code":"","population":"6111","elevation":"","dem":"250","timezone":"Europe/Kiev","modification_date":"2012-01-18"},{"geonameid":"693348","name":"Sobolivka","asciiname":"Sobolivka","alternatenames":["Sobolivka","Соболівка"],"latitude":"49.33604","longitude":"28.65096","feature_class":"P","feature_code":"PPL","country_code":"UA","cc2":"","admin1_code":"23","admin2_code":"","admin3_code":"","admin4_code":"","population":"3605","elevation":"","dem":"246","timezone":"Europe/Kiev","modification_date":"2012-01-18"},{"geonameid":"694350","name":"Sharhorod","asciiname":"Sharhorod","alternatenames":["Shargorod","Sharhorod","Шаргород"],"latitude":"48.73835","longitude":"28.08497","feature_class":"P","feature_code":"PPLA2","country_code":"UA","cc2":"","admin1_code":"23","admin2_code":"","admin3_code":"","admin4_code":"","population":"6895","elevation":"","dem":"232","timezone":"Europe/Kiev","modification_date":"2014-10-01"},{"geonameid":"694498","name":"Serebriya","asciiname":"Serebriya","alternatenames":["Serebria","Serebriya","Серебрія"],"latitude":"48.45593","longitude":"27.71923","feature_class":"P","feature_code":"PPL","country_code":"UA","cc2":"","admin1_code":"23","admin2_code":"","admin3_code":"","admin4_code":"","population":"2906","elevation":"","dem":"77","timezone":"Europe/Kiev","modification_date":"2012-01-18"},{"geonameid":"696771","name":"Pohrebyshche","asciiname":"Pohrebyshche","alternatenames":["Pogrebischtsche","Pogrebishche","Pogrebishchenskiy","Pogrebishhe","Pohrebyshche","Погребище"],"latitude":"49.48639","longitude":"29.26361","feature_class":"P","feature_code":"PPLA2","country_code":"UA","cc2":"","admin1_code":"23","admin2_code":"","admin3_code":"","admin4_code":"","population":"10354","elevation":"","dem":"228","timezone":"Europe/Kiev","modification_date":"2014-10-01"},{"geonameid":"697537","name":"Pishchanka","asciiname":"Pishchanka","alternatenames":["Peschanka","Peschanki","Pischanka","Pishchanka","Pishhanka","Піщанка"],"latitude":"48.20727","longitude":"28.88607","feature_class":"P","feature_code":"PPLA2","country_code":"UA","cc2":"","admin1_code":"23","admin2_code":"","admin3_code":"","admin4_code":"","population":"0","elevation":"","dem":"228","timezone":"Europe/Kiev","modification_date":"2014-10-01"},{"geonameid":"697841","name":"Pavlovka","asciiname":"Pavlovka","alternatenames":["Pavlivka","Pavlovka","Павловка"],"latitude":"49.44143","longitude":"28.45956","feature_class":"P","feature_code":"PPL","country_code":"UA","cc2":"","admin1_code":"23","admin2_code":"","admin3_code":"","admin4_code":"","population":"3635","elevation":"","dem":"261","timezone":"Europe/Kiev","modification_date":"2012-01-18"},{"geonameid":"698450","name":"Orativ","asciiname":"Orativ","alternatenames":["Orativ","Oratov","Oratovo","Оратів"],"latitude":"49.18889","longitude":"29.52697","feature_class":"P","feature_code":"PPLA2","country_code":"UA","cc2":"","admin1_code":"23","admin2_code":"","admin3_code":"","admin4_code":"","population":"3170","elevation":"","dem":"232","timezone":"Europe/Kiev","modification_date":"2014-12-03"},{"geonameid":"698807","name":"Obodivka","asciiname":"Obodivka","alternatenames":["Obodivka","Obodovka","Obodovka Novaya","Ободівка"],"latitude":"48.40514","longitude":"29.24775","feature_class":"P","feature_code":"PPL","country_code":"UA","cc2":"","admin1_code":"23","admin2_code":"","admin3_code":"","admin4_code":"","population":"3378","elevation":"","dem":"185","timezone":"Europe/Kiev","modification_date":"2012-01-18"},{"geonameid":"700322","name":"Nemyriv","asciiname":"Nemyriv","alternatenames":["Nemiriv","Nemirov","Nemyriv","Немирів"],"latitude":"48.97076","longitude":"28.83779","feature_class":"P","feature_code":"PPLA2","country_code":"UA","cc2":"","admin1_code":"23","admin2_code":"","admin3_code":"","admin4_code":"","population":"11633","elevation":"","dem":"272","timezone":"Europe/Kiev","modification_date":"2014-10-01"},{"geonameid":"700606","name":"Murovani Kurylivtsi","asciiname":"Murovani Kurylivtsi","alternatenames":["Murovani Kurilivci","Murovani Kurylivtsi","Murovano-Kurilovtsy","Murovany-Kurilovtsy","Murovanye Kurilovtsy","Murovanyye Kurilovtsy","Муровані Курилівці"],"latitude":"48.72348","longitude":"27.51892","feature_class":"P","feature_code":"PPLA2","country_code":"UA","cc2":"","admin1_code":"23","admin2_code":"","admin3_code":"","admin4_code":"","population":"5994","elevation":"","dem":"172","timezone":"Europe/Kiev","modification_date":"2014-10-01"},{"geonameid":"700918","name":"Mohyliv-Podil’s’kyy","asciiname":"Mohyliv-Podil's'kyy","alternatenames":["Mogilev-Podol'skij","Mogilev-Podol'skiy","Mogiliv-Podil's'kij","Mogilov Podolski","Mogilëv-Podol’skiy","Mohyliv-Podil's'kyy","Mohyliv-Podil’s’kyy","Могилев-Подольский","Могилів-Подільський"],"latitude":"48.44598","longitude":"27.7982","feature_class":"P","feature_code":"PPLA2","country_code":"UA","cc2":"","admin1_code":"23","admin2_code":"","admin3_code":"","admin4_code":"","population":"32500","elevation":"","dem":"68","timezone":"Europe/Kiev","modification_date":"2014-10-01"},{"geonameid":"702931","name":"Lityn","asciiname":"Lityn","alternatenames":["Litin","Lityn","Літин"],"latitude":"49.32509","longitude":"28.08094","feature_class":"P","feature_code":"PPLA2","country_code":"UA","cc2":"","admin1_code":"23","admin2_code":"","admin3_code":"","admin4_code":"","population":"6804","elevation":"","dem":"268","timezone":"Europe/Kiev","modification_date":"2014-12-03"},{"geonameid":"703013","name":"Lypovets’","asciiname":"Lypovets'","alternatenames":["Lipovec'","Lipovets","Lypovets'","Lypovets’","Липовець"],"latitude":"49.22964","longitude":"29.05555","feature_class":"P","feature_code":"PPLA2","country_code":"UA","cc2":"","admin1_code":"23","admin2_code":"","admin3_code":"","admin4_code":"","population":"0","elevation":"","dem":"243","timezone":"Europe/Kiev","modification_date":"2014-10-01"},{"geonameid":"703428","name":"Ladyzhyn","asciiname":"Ladyzhyn","alternatenames":["Ladizhin","Ladyzhin","Ladyzhyn","Lodyzhin","Ладижин"],"latitude":"48.68496","longitude":"29.23679","feature_class":"P","feature_code":"PPL","country_code":"UA","cc2":"","admin1_code":"23","admin2_code":"","admin3_code":"","admin4_code":"","population":"21393","elevation":"","dem":"205","timezone":"Europe/Kiev","modification_date":"2012-01-18"},{"geonameid":"707155","name":"Kalynivka","asciiname":"Kalynivka","alternatenames":["Kalinivka","Kalinovka","Kalinovskiy","Kalynivka","Калиновка","Калинівка"],"latitude":"49.45389","longitude":"28.52608","feature_class":"P","feature_code":"PPLA2","country_code":"UA","cc2":"","admin1_code":"23","admin2_code":"","admin3_code":"","admin4_code":"","population":"19315","elevation":"","dem":"280","timezone":"Europe/Kiev","modification_date":"2014-12-03"},{"geonameid":"707695","name":"Illintsi","asciiname":"Illintsi","alternatenames":["Il'intsy","Illinci","Illintsi","Il’intsy","Іллінці","Иллінці"],"latitude":"49.10479","longitude":"29.21773","feature_class":"P","feature_code":"PPLA2","country_code":"UA","cc2":"","admin1_code":"23","admin2_code":"","admin3_code":"","admin4_code":"","population":"10770","elevation":"","dem":"214","timezone":"Europe/Kiev","modification_date":"2014-10-01"},{"geonameid":"708901","name":"Haysyn","asciiname":"Haysyn","alternatenames":["Gaisin","Gaissin","Gajsin","Gaysin","Haysyn","Гайсин"],"latitude":"48.81143","longitude":"29.38977","feature_class":"P","feature_code":"PPLA2","country_code":"UA","cc2":"","admin1_code":"23","admin2_code":"","admin3_code":"","admin4_code":"","population":"24687","elevation":"","dem":"210","timezone":"Europe/Kiev","modification_date":"2014-10-01"},{"geonameid":"710260","name":"Dashev","asciiname":"Dashev","alternatenames":["Dashev","Dashiv","Дашев","Дашів"],"latitude":"49.00449","longitude":"29.42559","feature_class":"P","feature_code":"PPL","country_code":"UA","cc2":"UA","admin1_code":"23","admin2_code":"","admin3_code":"","admin4_code":"","population":"4233","elevation":"","dem":"194","timezone":"Europe/Kiev","modification_date":"2010-04-06"},{"geonameid":"710741","name":"Chernivtsi","asciiname":"Chernivtsi","alternatenames":["Chernevtsy","Chernivci","Chernivtsi","Chernovcy","Черновцы","Чернівці"],"latitude":"48.54225","longitude":"28.11473","feature_class":"P","feature_code":"PPLA2","country_code":"UA","cc2":"","admin1_code":"23","admin2_code":"","admin3_code":"","admin4_code":"","population":"3065","elevation":"","dem":"196","timezone":"Europe/Kiev","modification_date":"2014-10-01"},{"geonameid":"710892","name":"Chechel’nyk","asciiname":"Chechel'nyk","alternatenames":["Chechel'nik","Chechel'nyk","Chechel’nik","Chechel’nyk","Chel'nik","Chel’nik","Чечельник"],"latitude":"48.21509","longitude":"29.36728","feature_class":"P","feature_code":"PPLA2","country_code":"UA","cc2":"","admin1_code":"23","admin2_code":"","admin3_code":"","admin4_code":"","population":"5100","elevation":"","dem":"168","timezone":"Europe/Kiev","modification_date":"2014-10-01"},{"geonameid":"710949","name":"Viytivka","asciiname":"Viytivka","alternatenames":["Chapayevka","Viitivka","Vijtivka","Viytivka","Voytovka","Війтівка"],"latitude":"48.42603","longitude":"29.54291","feature_class":"P","feature_code":"PPL","country_code":"UA","cc2":"","admin1_code":"23","admin2_code":"","admin3_code":"","admin4_code":"","population":"4245","elevation":"","dem":"185","timezone":"Europe/Kiev","modification_date":"2012-01-18"},{"geonameid":"711459","name":"Bratslav","asciiname":"Bratslav","alternatenames":["Braclav","Bratslav","Brazlaw","Брацлав"],"latitude":"48.82257","longitude":"28.9407","feature_class":"P","feature_code":"PPL","country_code":"UA","cc2":"","admin1_code":"23","admin2_code":"","admin3_code":"","admin4_code":"","population":"5819","elevation":"","dem":"215","timezone":"Europe/Kiev","modification_date":"2012-01-18"},{"geonameid":"711487","name":"Brailiv","asciiname":"Brailiv","alternatenames":["Brailiv","Brailov"],"latitude":"49.10986","longitude":"28.17459","feature_class":"P","feature_code":"PPL","country_code":"UA","cc2":"","admin1_code":"23","admin2_code":"","admin3_code":"","admin4_code":"","population":"4964","elevation":"","dem":"260","timezone":"Europe/Kiev","modification_date":"2012-01-18"},{"geonameid":"712250","name":"Bershad’","asciiname":"Bershad'","alternatenames":["Berschad","Bershad'","Bershad’","Бершадь"],"latitude":"48.36782","longitude":"29.51726","feature_class":"P","feature_code":"PPLA2","country_code":"UA","cc2":"","admin1_code":"23","admin2_code":"","admin3_code":"","admin4_code":"","population":"0","elevation":"","dem":"171","timezone":"Europe/Kiev","modification_date":"2014-10-01"},{"geonameid":"703840","name":"Kryzhopil’","asciiname":"Kryzhopil'","alternatenames":["Krizhopil'","Krizhopol'","Krizhopol’","Kryzhopil'","Kryzhopil’","Kryzhopol'","Kryzhopol’","Крижопіль"],"latitude":"48.38289","longitude":"28.86622","feature_class":"P","feature_code":"PPLA2","country_code":"UA","cc2":"","admin1_code":"23","admin2_code":"","admin3_code":"","admin4_code":"","population":"9024","elevation":"","dem":"299","timezone":"Europe/Kiev","modification_date":"2015-04-29"},{"geonameid":"706380","name":"Khmil’nyk","asciiname":"Khmil'nyk","alternatenames":["Khmel'nik","Khmel'niki","Khmel’nik","Khmel’niki","Khmil'nik","Khmil'nyk","Khmil’nyk","Хмельник","Хмільник"],"latitude":"49.55979","longitude":"27.95754","feature_class":"P","feature_code":"PPL","country_code":"UA","cc2":"","admin1_code":"23","admin2_code":"","admin3_code":"","admin4_code":"","population":"28136","elevation":"","dem":"266","timezone":"Europe/Kiev","modification_date":"2010-08-16"},{"geonameid":"706571","name":"Kozyatyn","asciiname":"Kozyatyn","alternatenames":["Kasatin","Kazatin","Kozjatin","Kozyatyn","Козятин"],"latitude":"49.71431","longitude":"28.83385","feature_class":"P","feature_code":"PPLA2","country_code":"UA","cc2":"","admin1_code":"23","admin2_code":"","admin3_code":"","admin4_code":"","population":"25645","elevation":"","dem":"293","timezone":"Europe/Kiev","modification_date":"2014-10-01"},{"geonameid":"712861","name":"Bar","asciiname":"Bar","alternatenames":["Bar","Бар"],"latitude":"49.07717","longitude":"27.68256","feature_class":"P","feature_code":"PPLA2","country_code":"UA","cc2":"","admin1_code":"23","admin2_code":"","admin3_code":"","admin4_code":"","population":"16641","elevation":"","dem":"282","timezone":"Europe/Kiev","modification_date":"2014-10-01"}]}