{"region_data":{"countryId":"1269750","adminCode1":"25","countryName":"India","fclName":"country, state, region,...","countryCode":"IN","lng":"78.33333","fcodeName":"first-order administrative division","toponymName":"State of Tamil Nādu","fcl":"A","numberOfChildren":32,"name":"Tamil Nadu","fcode":"ADM1","geonameId":1255053,"lat":"11","adminName1":"Tamil Nadu","population":72147030},"country_data":{"ISO":"IN","ISO3":"IND","ISO_Numeric":"356","fips":"IN","country":"India","capital":"New Delhi","area":"3287590","Population":"1173108018","Continent":"AS","tld":".in","CurrencyCode":"INR","CurrencyName":"Rupee","Phone":"91","Postal_Code_Format":"######","Postal_Code_Regex":"^(\\d{6})$","Languages":"en-IN,hi,bn,te,mr,ta,ur,gu,kn,ml,or,pa,as,bh,sat,ks,ne,sd,kok,doi,mni,sit,sa,fr,lus,inc","geonameid":"1269750","neighbours":"CN,NP,MM,BT,PK,BD","EquivalentFipsCode":""},"cities":[{"geonameid":"1252646","name":"Keelakarai","asciiname":"Keelakarai","alternatenames":["Kilakarai","Kilakari","Kīlakarai"],"latitude":"9.23183","longitude":"78.78545","feature_class":"P","feature_code":"PPL","country_code":"IN","cc2":"","admin1_code":"25","admin2_code":"626","admin3_code":"","admin4_code":"","population":"30468","elevation":"","dem":"14","timezone":"Asia/Kolkata","modification_date":"2014-10-14"},{"geonameid":"1252887","name":"Wellington","asciiname":"Wellington","alternatenames":["Vellington","Wellington","Wellington Town","Веллингтон"],"latitude":"11.36389","longitude":"76.78525","feature_class":"P","feature_code":"PPL","country_code":"IN","cc2":"","admin1_code":"25","admin2_code":"611","admin3_code":"","admin4_code":"","population":"20254","elevation":"","dem":"1834","timezone":"Asia/Kolkata","modification_date":"2014-10-14"},{"geonameid":"1252997","name":"Walajapet","asciiname":"Walajapet","alternatenames":["Walaja","Walajapet","Wālājāpet"],"latitude":"12.9251","longitude":"79.36626","feature_class":"P","feature_code":"PPL","country_code":"IN","cc2":"","admin1_code":"25","admin2_code":"605","admin3_code":"","admin4_code":"","population":"30256","elevation":"","dem":"173","timezone":"Asia/Kolkata","modification_date":"2014-10-14"},{"geonameid":"1252998","name":"Wallajahbad","asciiname":"Wallajahbad","alternatenames":["Dandei Sivaram","Dandei Sīvaram","Walajabad","Wallajahbad","Wālājābād"],"latitude":"12.79411","longitude":"79.8214","feature_class":"P","feature_code":"PPL","country_code":"IN","cc2":"","admin1_code":"25","admin2_code":"604","admin3_code":"","admin4_code":"","population":"10543","elevation":"","dem":"60","timezone":"Asia/Kolkata","modification_date":"2014-10-14"},{"geonameid":"1253080","name":"Vriddhāchalam","asciiname":"Vriddhachalam","alternatenames":[""],"latitude":"11.51528","longitude":"79.32186","feature_class":"P","feature_code":"PPL","country_code":"IN","cc2":"","admin1_code":"25","admin2_code":"617","admin3_code":"","admin4_code":"","population":"61498","elevation":"","dem":"39","timezone":"Asia/Kolkata","modification_date":"2014-10-14"},{"geonameid":"1253113","name":"Virudunagar","asciiname":"Virudunagar","alternatenames":["Virudunagar","Virudupatti"],"latitude":"9.58509","longitude":"77.95787","feature_class":"P","feature_code":"PPL","country_code":"IN","cc2":"","admin1_code":"25","admin2_code":"625","admin3_code":"","admin4_code":"","population":"73273","elevation":"","dem":"105","timezone":"Asia/Kolkata","modification_date":"2014-10-14"},{"geonameid":"1253127","name":"Viravanallūr","asciiname":"Viravanallur","alternatenames":["Vadakku Viravanallur","Vadakku Viravanallūr","Viravanallur","Viravanallūr"],"latitude":"8.6961","longitude":"77.51895","feature_class":"P","feature_code":"PPL","country_code":"IN","cc2":"","admin1_code":"25","admin2_code":"628","admin3_code":"","admin4_code":"","population":"19689","elevation":"","dem":"65","timezone":"Asia/Kolkata","modification_date":"2014-10-14"},{"geonameid":"1253147","name":"Vīraganūr","asciiname":"Viraganur","alternatenames":[""],"latitude":"11.47491","longitude":"78.73725","feature_class":"P","feature_code":"PPL","country_code":"IN","cc2":"","admin1_code":"25","admin2_code":"608","admin3_code":"","admin4_code":"","population":"10854","elevation":"","dem":"172","timezone":"Asia/Kolkata","modification_date":"2014-10-14"},{"geonameid":"1253166","name":"Villupuram","asciiname":"Villupuram","alternatenames":["Villapurum","Villupuram"],"latitude":"11.93975","longitude":"79.49244","feature_class":"P","feature_code":"PPL","country_code":"IN","cc2":"","admin1_code":"25","admin2_code":"607","admin3_code":"","admin4_code":"","population":"97380","elevation":"","dem":"50","timezone":"Asia/Kolkata","modification_date":"2014-10-14"},{"geonameid":"1253175","name":"Vilattikulam","asciiname":"Vilattikulam","alternatenames":["Vilatikulam","Vilattikulam","Vilāttikulam"],"latitude":"9.13227","longitude":"78.16635","feature_class":"P","feature_code":"PPL","country_code":"IN","cc2":"","admin1_code":"25","admin2_code":"627","admin3_code":"","admin4_code":"","population":"14802","elevation":"","dem":"28","timezone":"Asia/Kolkata","modification_date":"2014-10-14"},{"geonameid":"1253177","name":"Vikravāndi","asciiname":"Vikravandi","alternatenames":["Vikravandi","Vikravāndi"],"latitude":"12.03741","longitude":"79.54449","feature_class":"P","feature_code":"PPL","country_code":"IN","cc2":"","admin1_code":"25","admin2_code":"607","admin3_code":"","admin4_code":"","population":"10449","elevation":"","dem":"43","timezone":"Asia/Kolkata","modification_date":"2014-10-14"},{"geonameid":"1253186","name":"Vijayapuri","asciiname":"Vijayapuri","alternatenames":["Vijayapuri"],"latitude":"11.24423","longitude":"77.5025","feature_class":"P","feature_code":"PPL","country_code":"IN","cc2":"","admin1_code":"25","admin2_code":"610","admin3_code":"","admin4_code":"","population":"6651","elevation":"","dem":"300","timezone":"Asia/Kolkata","modification_date":"2014-10-14"},{"geonameid":"1253217","name":"Vettavalam","asciiname":"Vettavalam","alternatenames":["Vettavalam"],"latitude":"12.10748","longitude":"79.24488","feature_class":"P","feature_code":"PPL","country_code":"IN","cc2":"","admin1_code":"25","admin2_code":"606","admin3_code":"","admin4_code":"","population":"13808","elevation":"","dem":"158","timezone":"Asia/Kolkata","modification_date":"2014-10-14"},{"geonameid":"1253219","name":"Vettaikkaranpudur","asciiname":"Vettaikkaranpudur","alternatenames":["Vettagaranpudur","Vettaikkaranpudur","Vettaikkāranpudūr","Vettakkaranpudur","Vettakkāranpudūr"],"latitude":"10.56207","longitude":"76.91305","feature_class":"P","feature_code":"PPL","country_code":"IN","cc2":"","admin1_code":"25","admin2_code":"632","admin3_code":"","admin4_code":"","population":"18128","elevation":"","dem":"284","timezone":"Asia/Kolkata","modification_date":"2014-10-14"},{"geonameid":"1253278","name":"Velur","asciiname":"Velur","alternatenames":["Velur","Velūr"],"latitude":"11.10825","longitude":"78.00113","feature_class":"P","feature_code":"PPL","country_code":"IN","cc2":"","admin1_code":"25","admin2_code":"609","admin3_code":"","admin4_code":"","population":"18951","elevation":"","dem":"136","timezone":"Asia/Kolkata","modification_date":"2014-10-14"},{"geonameid":"1253286","name":"Vellore","asciiname":"Vellore","alternatenames":["Gorad Veluru","Vellor","Vellore","Velluru","Velur","belloleu","bellore","bhellora","vellor","vellora","vellura","velur","velura","vu~eruru","wei luo er","Веллор","Веллуру","Горад Велуру","भेल्लोर","वेल्लूर","वेल्लोर","বেল্লোরে","ਵੇਲੂਰ","વેલ્લોર","வேலூர்","ವೆಲ್ಲೋರ್","വെല്ലൂർ","ヴェールール","韦洛尔","벨로르"],"latitude":"12.9184","longitude":"79.13255","feature_class":"P","feature_code":"PPL","country_code":"IN","cc2":"","admin1_code":"25","admin2_code":"605","admin3_code":"","admin4_code":"","population":"177081","elevation":"","dem":"218","timezone":"Asia/Kolkata","modification_date":"2014-10-14"},{"geonameid":"1253328","name":"Vedasandūr","asciiname":"Vedasandur","alternatenames":["Vedasandur","Vedasandūr"],"latitude":"10.53054","longitude":"77.9497","feature_class":"P","feature_code":"PPL","country_code":"IN","cc2":"","admin1_code":"25","admin2_code":"612","admin3_code":"","admin4_code":"","population":"12493","elevation":"","dem":"218","timezone":"Asia/Kolkata","modification_date":"2014-10-14"},{"geonameid":"1253330","name":"Vedaraniyam","asciiname":"Vedaraniyam","alternatenames":["Vedaranayam","Vedaraniam","Vedaranniyam","Vedāranniyam"],"latitude":"10.37208","longitude":"79.85095","feature_class":"P","feature_code":"PPL","country_code":"IN","cc2":"","admin1_code":"25","admin2_code":"618","admin3_code":"","admin4_code":"","population":"32245","elevation":"","dem":"9","timezone":"Asia/Kolkata","modification_date":"2014-10-14"},{"geonameid":"1253352","name":"Vattalkundu","asciiname":"Vattalkundu","alternatenames":[""],"latitude":"10.16069","longitude":"77.75883","feature_class":"P","feature_code":"PPL","country_code":"IN","cc2":"","admin1_code":"25","admin2_code":"612","admin3_code":"","admin4_code":"","population":"22638","elevation":"","dem":"237","timezone":"Asia/Kolkata","modification_date":"2014-10-14"},{"geonameid":"1253357","name":"Vāsudevanallūr","asciiname":"Vasudevanallur","alternatenames":["Vasudevanallur","Vāsudevanallūr"],"latitude":"9.23921","longitude":"77.41132","feature_class":"P","feature_code":"PPL","country_code":"IN","cc2":"","admin1_code":"25","admin2_code":"628","admin3_code":"","admin4_code":"","population":"19021","elevation":"","dem":"184","timezone":"Asia/Kolkata","modification_date":"2014-10-14"},{"geonameid":"1253437","name":"Vaniyambadi","asciiname":"Vaniyambadi","alternatenames":["Vanivambadi","Vaniyambadi","Vānivambādi","Vāniyambādi"],"latitude":"12.68162","longitude":"78.62014","feature_class":"P","feature_code":"PPL","country_code":"IN","cc2":"","admin1_code":"25","admin2_code":"605","admin3_code":"","admin4_code":"","population":"90288","elevation":"","dem":"352","timezone":"Asia/Kolkata","modification_date":"2014-10-14"},{"geonameid":"1253452","name":"Vandavāsi","asciiname":"Vandavasi","alternatenames":["Vandavasi","Vandavāsi","Wandiwash","Wandiwāsh"],"latitude":"12.50429","longitude":"79.60556","feature_class":"P","feature_code":"PPL","country_code":"IN","cc2":"","admin1_code":"25","admin2_code":"606","admin3_code":"","admin4_code":"","population":"31530","elevation":"","dem":"79","timezone":"Asia/Kolkata","modification_date":"2014-10-14"},{"geonameid":"1253454","name":"Vandalūr","asciiname":"Vandalur","alternatenames":["Vandalur","Vandalūr"],"latitude":"12.8924","longitude":"80.08079","feature_class":"P","feature_code":"PPL","country_code":"IN","cc2":"","admin1_code":"25","admin2_code":"604","admin3_code":"","admin4_code":"","population":"13715","elevation":"","dem":"33","timezone":"Asia/Kolkata","modification_date":"2014-10-14"},{"geonameid":"1253472","name":"Valparai","asciiname":"Valparai","alternatenames":["Valparai","Vālpārai"],"latitude":"10.32691","longitude":"76.95116","feature_class":"P","feature_code":"PPL","country_code":"IN","cc2":"","admin1_code":"25","admin2_code":"632","admin3_code":"","admin4_code":"","population":"90353","elevation":"","dem":"1062","timezone":"Asia/Kolkata","modification_date":"2014-10-14"},{"geonameid":"1253481","name":"Vallam","asciiname":"Vallam","alternatenames":["Vallam"],"latitude":"10.71966","longitude":"79.05924","feature_class":"P","feature_code":"PPL","country_code":"IN","cc2":"","admin1_code":"25","admin2_code":"620","admin3_code":"","admin4_code":"","population":"14935","elevation":"","dem":"79","timezone":"Asia/Kolkata","modification_date":"2014-10-14"},{"geonameid":"1253490","name":"Valavanur","asciiname":"Valavanur","alternatenames":["Valavanur","Valavanūr"],"latitude":"11.92094","longitude":"79.58239","feature_class":"P","feature_code":"PPL","country_code":"IN","cc2":"","admin1_code":"25","admin2_code":"607","admin3_code":"","admin4_code":"","population":"14463","elevation":"","dem":"34","timezone":"Asia/Kolkata","modification_date":"2014-10-14"},{"geonameid":"1253504","name":"Valangaiman","asciiname":"Valangaiman","alternatenames":[""],"latitude":"10.89012","longitude":"79.39322","feature_class":"P","feature_code":"PPL","country_code":"IN","cc2":"","admin1_code":"25","admin2_code":"619","admin3_code":"","admin4_code":"","population":"11550","elevation":"","dem":"30","timezone":"Asia/Kolkata","modification_date":"2014-10-14"},{"geonameid":"1253579","name":"Vādippatti","asciiname":"Vadippatti","alternatenames":[""],"latitude":"10.08481","longitude":"77.96113","feature_class":"P","feature_code":"PPL","country_code":"IN","cc2":"","admin1_code":"25","admin2_code":"623","admin3_code":"","admin4_code":"","population":"22441","elevation":"","dem":"193","timezone":"Asia/Kolkata","modification_date":"2014-10-14"},{"geonameid":"1253595","name":"Vadamadurai","asciiname":"Vadamadurai","alternatenames":["Vada-Madura","Vadamadurai"],"latitude":"10.44026","longitude":"78.09999","feature_class":"P","feature_code":"PPL","country_code":"IN","cc2":"","admin1_code":"25","admin2_code":"612","admin3_code":"","admin4_code":"","population":"15886","elevation":"","dem":"298","timezone":"Asia/Kolkata","modification_date":"2014-10-14"},{"geonameid":"1253605","name":"Vadakku Valliyūr","asciiname":"Vadakku Valliyur","alternatenames":[""],"latitude":"8.38095","longitude":"77.6132","feature_class":"P","feature_code":"PPL","country_code":"IN","cc2":"","admin1_code":"25","admin2_code":"628","admin3_code":"","admin4_code":"","population":"24749","elevation":"","dem":"116","timezone":"Asia/Kolkata","modification_date":"2014-10-14"},{"geonameid":"1253621","name":"Ūttukkuli","asciiname":"Uttukkuli","alternatenames":["Uttukkuli","Uttukuli","Ūttukkuli"],"latitude":"11.16892","longitude":"77.45431","feature_class":"P","feature_code":"PPL","country_code":"IN","cc2":"","admin1_code":"25","admin2_code":"633","admin3_code":"","admin4_code":"","population":"7508","elevation":"","dem":"295","timezone":"Asia/Kolkata","modification_date":"2014-10-14"},{"geonameid":"1253623","name":"Uttiramerūr","asciiname":"Uttiramerur","alternatenames":["Uttaramerur","Uttaramerūr","Uttiramerur","Uttiramerūr"],"latitude":"12.61433","longitude":"79.75748","feature_class":"P","feature_code":"PPL","country_code":"IN","cc2":"","admin1_code":"25","admin2_code":"604","admin3_code":"","admin4_code":"","population":"24315","elevation":"","dem":"63","timezone":"Asia/Kolkata","modification_date":"2014-10-14"},{"geonameid":"1253635","name":"Uttamapālaiyam","asciiname":"Uttamapalaiyam","alternatenames":[""],"latitude":"9.80701","longitude":"77.32718","feature_class":"P","feature_code":"PPL","country_code":"IN","cc2":"","admin1_code":"25","admin2_code":"624","admin3_code":"","admin4_code":"","population":"22778","elevation":"","dem":"386","timezone":"Asia/Kolkata","modification_date":"2014-10-14"},{"geonameid":"1253671","name":"Usilampatti","asciiname":"Usilampatti","alternatenames":["Usilampatti"],"latitude":"9.96936","longitude":"77.78621","feature_class":"P","feature_code":"PPL","country_code":"IN","cc2":"","admin1_code":"25","admin2_code":"623","admin3_code":"","admin4_code":"","population":"30675","elevation":"","dem":"217","timezone":"Asia/Kolkata","modification_date":"2014-10-14"},{"geonameid":"1253719","name":"Uppiliyapuram","asciiname":"Uppiliyapuram","alternatenames":["Uppiliapuram","Uppiliyapuram"],"latitude":"11.26316","longitude":"78.51326","feature_class":"P","feature_code":"PPL","country_code":"IN","cc2":"","admin1_code":"25","admin2_code":"614","admin3_code":"","admin4_code":"","population":"6900","elevation":"","dem":"180","timezone":"Asia/Kolkata","modification_date":"2014-10-14"},{"geonameid":"1253944","name":"Udumalaippettai","asciiname":"Udumalaippettai","alternatenames":["Udamalpet","Udumalaippettai"],"latitude":"10.58806","longitude":"77.24779","feature_class":"P","feature_code":"PPL","country_code":"IN","cc2":"","admin1_code":"25","admin2_code":"633","admin3_code":"","admin4_code":"","population":"58571","elevation":"","dem":"363","timezone":"Asia/Kolkata","modification_date":"2014-10-14"},{"geonameid":"1253972","name":"Udankudi","asciiname":"Udankudi","alternatenames":[""],"latitude":"8.43048","longitude":"78.02882","feature_class":"P","feature_code":"PPL","country_code":"IN","cc2":"","admin1_code":"25","admin2_code":"627","admin3_code":"","admin4_code":"","population":"19008","elevation":"","dem":"12","timezone":"Asia/Kolkata","modification_date":"2014-10-14"},{"geonameid":"1253993","name":"Ooty","asciiname":"Ooty","alternatenames":["Ootacamund","Ooty","Udagamandalam","Udagamandalām","Udakamandalam","Udhagai","Udhagamandalam","Utakamand","udagamandalama","udakamandaramu","udhagamandalama","utakai","utakamantalam","Утакаманд","उदगमंदलम","উধগমন্ডলম","உதகமண்டலம்","உதகை","ウダカマンダラム"],"latitude":"11.4134","longitude":"76.69521","feature_class":"P","feature_code":"PPL","country_code":"IN","cc2":"","admin1_code":"25","admin2_code":"611","admin3_code":"","admin4_code":"","population":"98238","elevation":"","dem":"2242","timezone":"Asia/Kolkata","modification_date":"2014-10-14"},{"geonameid":"1254043","name":"Turaiyūr","asciiname":"Turaiyur","alternatenames":["Turaiyur","Turaiyūr","Turalyur"],"latitude":"11.14985","longitude":"78.59888","feature_class":"P","feature_code":"PPL","country_code":"IN","cc2":"","admin1_code":"25","admin2_code":"614","admin3_code":"","admin4_code":"","population":"32134","elevation":"","dem":"146","timezone":"Asia/Kolkata","modification_date":"2014-10-14"},{"geonameid":"1254249","name":"Tondi","asciiname":"Tondi","alternatenames":[""],"latitude":"9.74173","longitude":"79.01774","feature_class":"P","feature_code":"PPL","country_code":"IN","cc2":"","admin1_code":"25","admin2_code":"626","admin3_code":"","admin4_code":"","population":"16468","elevation":"","dem":"9","timezone":"Asia/Kolkata","modification_date":"2014-10-14"},{"geonameid":"1254317","name":"Tisaiyanvilai","asciiname":"Tisaiyanvilai","alternatenames":[""],"latitude":"8.33249","longitude":"77.86586","feature_class":"P","feature_code":"PPL","country_code":"IN","cc2":"","admin1_code":"25","admin2_code":"628","admin3_code":"","admin4_code":"","population":"20395","elevation":"","dem":"17","timezone":"Asia/Kolkata","modification_date":"2014-10-14"},{"geonameid":"1254320","name":"Tiruvottiyūr","asciiname":"Tiruvottiyur","alternatenames":["Tiruvattiyur","Tiruvattiyūr","Tiruvottiyur","Tiruvottiyūr"],"latitude":"13.15823","longitude":"80.30181","feature_class":"P","feature_code":"PPL","country_code":"IN","cc2":"","admin1_code":"25","admin2_code":"602","admin3_code":"","admin4_code":"","population":"248059","elevation":"","dem":"9","timezone":"Asia/Kolkata","modification_date":"2014-10-14"},{"geonameid":"1254321","name":"Thiruvidaimaruthur","asciiname":"Thiruvidaimaruthur","alternatenames":["Tiruvadaimarudur","Tiruvadamarudur","Tiruvadamarudūr","Tiruvidaimardur","Tiruvidaimarudur","Tiruvidaimarudūr"],"latitude":"10.99857","longitude":"79.45227","feature_class":"P","feature_code":"PPL","country_code":"IN","cc2":"","admin1_code":"25","admin2_code":"620","admin3_code":"","admin4_code":"","population":"14183","elevation":"","dem":"29","timezone":"Asia/Kolkata","modification_date":"2014-10-14"},{"geonameid":"1254322","name":"Cheyyar","asciiname":"Cheyyar","alternatenames":["Cheyyar","Tiruvattiyur","Tiruvattiyūr","Tiruvetipuram","Tiruvettipuram"],"latitude":"12.66052","longitude":"79.54308","feature_class":"P","feature_code":"PPL","country_code":"IN","cc2":"","admin1_code":"25","admin2_code":"606","admin3_code":"","admin4_code":"","population":"36527","elevation":"","dem":"99","timezone":"Asia/Kolkata","modification_date":"2014-10-14"},{"geonameid":"1254327","name":"Tiruvannāmalai","asciiname":"Tiruvannamalai","alternatenames":["Tirruvannamalai","Tiruvannamalai","Tiruvannamalaj","Tiruvannāmalai","tiruvannamalai","tiruvu~an'namarai","Тируваннамалай","திருவண்ணாமலை","ティルヴァンナーマライ"],"latitude":"12.22662","longitude":"79.07461","feature_class":"P","feature_code":"PPL","country_code":"IN","cc2":"","admin1_code":"25","admin2_code":"606","admin3_code":"","admin4_code":"","population":"138243","elevation":"","dem":"174","timezone":"Asia/Kolkata","modification_date":"2014-10-14"},{"geonameid":"1254331","name":"Tiruvallur","asciiname":"Tiruvallur","alternatenames":["Thiruvallur","Tiruvallur","Tiruvallūr","Tiruvellore","di lu wa lu er","tharuballura","tiluballuleu","tirubharura","tiruvallur","tiruvallura","tiruvalluru","tiruvu~arruru","Тируваллур","तिरुवल्लुर","তিরুভারুর","থরুবাল্লুর","திருவள்ளூர்","తిరువళ్ళూరు","ティルヴァッルール","蒂鲁瓦卢尔","티루발루르"],"latitude":"13.14376","longitude":"79.90889","feature_class":"P","feature_code":"PPL","country_code":"IN","cc2":"","admin1_code":"25","admin2_code":"602","admin3_code":"","admin4_code":"","population":"48095","elevation":"","dem":"46","timezone":"Asia/Kolkata","modification_date":"2014-10-14"},{"geonameid":"1254342","name":"Thiruthani","asciiname":"Thiruthani","alternatenames":["Tirutani","Tiruttani"],"latitude":"13.17594","longitude":"79.61637","feature_class":"P","feature_code":"PPL","country_code":"IN","cc2":"","admin1_code":"25","admin2_code":"602","admin3_code":"","admin4_code":"","population":"39899","elevation":"","dem":"85","timezone":"Asia/Kolkata","modification_date":"2014-10-14"},{"geonameid":"1254343","name":"Tiruttangal","asciiname":"Tiruttangal","alternatenames":[""],"latitude":"9.48333","longitude":"77.83333","feature_class":"P","feature_code":"PPL","country_code":"IN","cc2":"","admin1_code":"25","admin2_code":"625","admin3_code":"","admin4_code":"","population":"54499","elevation":"","dem":"88","timezone":"Asia/Kolkata","modification_date":"2014-10-14"},{"geonameid":"1254347","name":"Tiruppuvanam","asciiname":"Tiruppuvanam","alternatenames":[""],"latitude":"9.82556","longitude":"78.25792","feature_class":"P","feature_code":"PPL","country_code":"IN","cc2":"","admin1_code":"25","admin2_code":"622","admin3_code":"","admin4_code":"","population":"22517","elevation":"","dem":"109","timezone":"Asia/Kolkata","modification_date":"2014-10-14"},{"geonameid":"1254348","name":"Tiruppur","asciiname":"Tiruppur","alternatenames":["Tiruppur","Tiruppūr","Tirupur","di lu pu","tiruppur","tiruppura","tiruppuru","tirupura","tyrwpwr","Тируппур","Тирупур","تیروپور","तिरुपुर","तिरूपुर","তিরুপ্পুর","திருப்பூர்","ತಿರುಪ್ಪೂರು","തിരുപ്പൂർ","蒂魯普"],"latitude":"11.11541","longitude":"77.35456","feature_class":"P","feature_code":"PPL","country_code":"IN","cc2":"","admin1_code":"25","admin2_code":"633","admin3_code":"","admin4_code":"","population":"397521","elevation":"","dem":"305","timezone":"Asia/Kolkata","modification_date":"2014-10-14"},{"geonameid":"1254356","name":"Tirupparangunram","asciiname":"Tirupparangunram","alternatenames":["Thiruparangundram","Thirupparankundram","Tiruparankundram","Tirupparangunram","Tirupparankunram"],"latitude":"9.88085","longitude":"78.07252","feature_class":"P","feature_code":"PPL","country_code":"IN","cc2":"","admin1_code":"25","admin2_code":"623","admin3_code":"","admin4_code":"","population":"42696","elevation":"","dem":"147","timezone":"Asia/Kolkata","modification_date":"2014-10-14"},{"geonameid":"1254361","name":"Tirunelveli","asciiname":"Tirunelveli","alternatenames":["Tinnevelli","Tinnevelly","Tinnevelly Junction","Tirunelveli","Tirunelweli","di lu nei er wei li","tilunelbelli","tirunalaveli","tirunelabeli","tirunelaveli","tirunelveli","tiruneruvu~eri","tyrwnlfly","tyrwnlwly","tyrwnlwyly","Тирунелвели","تيرونلفلي","تیرونلولی","تیرونلویلی","तिरुनलवेली","तिरुनॆल्वेलि","तिरूनेलवेली","তিরুনেলবেলি","તિરુનેલવેલી","திருநெல்வேலி","తిరునెల్వేలి","ಟಿರುನೆಲ್ವೆಲಿ","തിരുനെൽ‌വേലി","ティルネルヴェーリ","蒂魯內爾維利","티루넬벨리"],"latitude":"8.72518","longitude":"77.68452","feature_class":"P","feature_code":"PPL","country_code":"IN","cc2":"","admin1_code":"25","admin2_code":"628","admin3_code":"","admin4_code":"","population":"435844","elevation":"","dem":"48","timezone":"Asia/Kolkata","modification_date":"2014-10-14"},{"geonameid":"1254367","name":"Tirumullaivāsal","asciiname":"Tirumullaivasal","alternatenames":["Thirumalavasal","Tirumullaivasal","Tirumullaivāsal"],"latitude":"11.24025","longitude":"79.83801","feature_class":"P","feature_code":"PPL","country_code":"IN","cc2":"","admin1_code":"25","admin2_code":"618","admin3_code":"","admin4_code":"","population":"13234","elevation":"","dem":"9","timezone":"Asia/Kolkata","modification_date":"2014-10-14"},{"geonameid":"1254377","name":"Tirukkoyilur","asciiname":"Tirukkoyilur","alternatenames":["Tirukkovilur","Tirukkoyilur","Tirukkoyilūr"],"latitude":"11.9662","longitude":"79.20259","feature_class":"P","feature_code":"PPL","country_code":"IN","cc2":"","admin1_code":"25","admin2_code":"607","admin3_code":"","admin4_code":"","population":"28337","elevation":"","dem":"104","timezone":"Asia/Kolkata","modification_date":"2014-10-14"},{"geonameid":"1254378","name":"Thirukattupalli","asciiname":"Thirukattupalli","alternatenames":["Tirukattupalli","Tirukkattuppalli","Tirukkāttuppalli"],"latitude":"10.84431","longitude":"78.95647","feature_class":"P","feature_code":"PPL","country_code":"IN","cc2":"","admin1_code":"25","admin2_code":"620","admin3_code":"","admin4_code":"","population":"12465","elevation":"","dem":"50","timezone":"Asia/Kolkata","modification_date":"2014-10-14"},{"geonameid":"1254385","name":"Tiruchengode","asciiname":"Tiruchengode","alternatenames":[""],"latitude":"11.38016","longitude":"77.89444","feature_class":"P","feature_code":"PPL","country_code":"IN","cc2":"","admin1_code":"25","admin2_code":"609","admin3_code":"","admin4_code":"","population":"87123","elevation":"","dem":"246","timezone":"Asia/Kolkata","modification_date":"2014-10-14"},{"geonameid":"1254388","name":"Tiruchirappalli","asciiname":"Tiruchirappalli","alternatenames":["TRZ","Tiruccirappalli","Tiruchchinappalli","Tiruchchināppalli","Tiruchchirappalli","Tiruchchirāppalli","Tiruchi","Tiruchirapali","Tiruchirapalli","Tiruchirappalli","Tiruchirappal·li","Tirucirapali","Tiruĉirapali","Tiruččiráppalli","Trichinapalli","Trichinopoli","Trichinopoly","Trichy","Trinchinopoly","di lu ji la pa li","tiluchilapalli","tiruccirappalli","tiruchiraparri","tirucirapalli","tirutchirapparri","tricimalaidurgam","tyrwchyrapaly","Тиручирапали","Тируччираппалли","Тіручірапаллі","تیروچیراپالی","ٹyrwchyrapaly","ٹیروچیراپالی","ट्रिचिमलैदुर्गम्","तिरुचिरापल्ली","তিরুচিরাপল্লী","திருச்சிராப்பள்ளி","ತಿರುಚ್ಚಿರಾಪ್ಪಳ್ಳಿ","തിരുച്ചിറപ്പള്ളി","ティルチラーパッリ","ティルッチラーッパッリ","蒂魯吉拉帕利","티루치라팔리"],"latitude":"10.8155","longitude":"78.69651","feature_class":"P","feature_code":"PPL","country_code":"IN","cc2":"","admin1_code":"25","admin2_code":"614","admin3_code":"","admin4_code":"","population":"775484","elevation":"","dem":"79","timezone":"Asia/Kolkata","modification_date":"2014-10-14"},{"geonameid":"1254390","name":"Tiruchchendur","asciiname":"Tiruchchendur","alternatenames":["Tiruchchendur","Tiruchchendūr","Tiruchendur","Tiruchendūr"],"latitude":"8.49725","longitude":"78.11906","feature_class":"P","feature_code":"PPL","country_code":"IN","cc2":"","admin1_code":"25","admin2_code":"627","admin3_code":"","admin4_code":"","population":"29872","elevation":"","dem":"9","timezone":"Asia/Kolkata","modification_date":"2014-10-14"},{"geonameid":"1254436","name":"Tinnanūr","asciiname":"Tinnanur","alternatenames":["Thiruninravur","Tinnanur","Tinnanūr"],"latitude":"13.11448","longitude":"80.02713","feature_class":"P","feature_code":"PPL","country_code":"IN","cc2":"","admin1_code":"25","admin2_code":"604","admin3_code":"","admin4_code":"","population":"22125","elevation":"","dem":"36","timezone":"Asia/Kolkata","modification_date":"2014-10-14"},{"geonameid":"1254444","name":"Tindivanam","asciiname":"Tindivanam","alternatenames":["Tindivanam","Tindivangam"],"latitude":"12.234","longitude":"79.65551","feature_class":"P","feature_code":"PPL","country_code":"IN","cc2":"","admin1_code":"25","admin2_code":"607","admin3_code":"","admin4_code":"","population":"69839","elevation":"","dem":"43","timezone":"Asia/Kolkata","modification_date":"2014-10-14"},{"geonameid":"1254589","name":"Thiruvarur","asciiname":"Thiruvarur","alternatenames":["Thiruvarur","Thiruvārūr","Tirnvalur","Tiruvalur","Tiruvarur","Tiruvālūr"],"latitude":"10.77269","longitude":"79.6368","feature_class":"P","feature_code":"PPL","country_code":"IN","cc2":"","admin1_code":"25","admin2_code":"619","admin3_code":"","admin4_code":"","population":"58777","elevation":"","dem":"16","timezone":"Asia/Kolkata","modification_date":"2014-10-14"},{"geonameid":"1254590","name":"Thiruvaiyaru","asciiname":"Thiruvaiyaru","alternatenames":["Thiruvaiyaru","Thiruvaiyāru","Tiruvadi","Tiruvādi"],"latitude":"10.88405","longitude":"79.10362","feature_class":"P","feature_code":"PPL","country_code":"IN","cc2":"","admin1_code":"25","admin2_code":"620","admin3_code":"","admin4_code":"","population":"14451","elevation":"","dem":"42","timezone":"Asia/Kolkata","modification_date":"2014-10-14"},{"geonameid":"1254649","name":"Thanjāvūr","asciiname":"Thanjavur","alternatenames":["Tanjavur","Tanjavûr","Tanjor","Tanjore","Tanjāvūr","Thanjavur","Thanjāvūr","Tkhandzhavur","tancavur","tancavuർ","tanjavura","tanjavuru","Тханджавур","तंजावुर","தஞ்சாவூர்","തഞ്ചാവൂർ","タンジャーヴール"],"latitude":"10.78523","longitude":"79.13909","feature_class":"P","feature_code":"PPL","country_code":"IN","cc2":"","admin1_code":"25","admin2_code":"620","admin3_code":"","admin4_code":"","population":"219571","elevation":"","dem":"57","timezone":"Asia/Kolkata","modification_date":"2014-10-14"},{"geonameid":"1254744","name":"Thenkasi","asciiname":"Thenkasi","alternatenames":["Tenkasi","Tenkāsi"],"latitude":"8.96003","longitude":"77.31525","feature_class":"P","feature_code":"PPL","country_code":"IN","cc2":"","admin1_code":"25","admin2_code":"628","admin3_code":"","admin4_code":"","population":"65496","elevation":"","dem":"170","timezone":"Asia/Kolkata","modification_date":"2014-10-14"},{"geonameid":"1254745","name":"Teni","asciiname":"Teni","alternatenames":["Teni","Theni","Tkheni","Тхени"],"latitude":"10.01531","longitude":"77.482","feature_class":"P","feature_code":"PPL","country_code":"IN","cc2":"","admin1_code":"25","admin2_code":"624","admin3_code":"","admin4_code":"","population":"1034724","elevation":"","dem":"312","timezone":"Asia/Kolkata","modification_date":"2014-10-14"},{"geonameid":"1254842","name":"Tāttayyangārpettai","asciiname":"Tattayyangarpettai","alternatenames":[""],"latitude":"11.12337","longitude":"78.44972","feature_class":"P","feature_code":"PPL","country_code":"IN","cc2":"","admin1_code":"25","admin2_code":"614","admin3_code":"","admin4_code":"","population":"12604","elevation":"","dem":"143","timezone":"Asia/Kolkata","modification_date":"2014-10-14"},{"geonameid":"1254904","name":"Tharangambadi","asciiname":"Tharangambadi","alternatenames":["Fort Dansborg","Tarangambadi","Tarangambādi","Trankebar","Tranquebar"],"latitude":"11.02764","longitude":"79.85425","feature_class":"P","feature_code":"PPL","country_code":"IN","cc2":"","admin1_code":"25","admin2_code":"618","admin3_code":"","admin4_code":"","population":"20841","elevation":"","dem":"8","timezone":"Asia/Kolkata","modification_date":"2014-10-14"},{"geonameid":"1254910","name":"Tāramangalam","asciiname":"Taramangalam","alternatenames":[""],"latitude":"11.7","longitude":"77.98333","feature_class":"P","feature_code":"PPL","country_code":"IN","cc2":"","admin1_code":"25","admin2_code":"608","admin3_code":"","admin4_code":"","population":"23788","elevation":"","dem":"268","timezone":"Asia/Kolkata","modification_date":"2014-10-14"},{"geonameid":"1255283","name":"Swamimalai","asciiname":"Swamimalai","alternatenames":["Cuvaimalai","Swamimalai"],"latitude":"10.95749","longitude":"79.32776","feature_class":"P","feature_code":"PPL","country_code":"IN","cc2":"","admin1_code":"25","admin2_code":"620","admin3_code":"","admin4_code":"","population":"7197","elevation":"","dem":"35","timezone":"Asia/Kolkata","modification_date":"2014-10-14"},{"geonameid":"1255372","name":"Sūrandai","asciiname":"Surandai","alternatenames":["Surandai","Sūrandai"],"latitude":"8.97574","longitude":"77.41923","feature_class":"P","feature_code":"PPL","country_code":"IN","cc2":"","admin1_code":"25","admin2_code":"628","admin3_code":"","admin4_code":"","population":"28989","elevation":"","dem":"136","timezone":"Asia/Kolkata","modification_date":"2014-10-14"},{"geonameid":"1255484","name":"Sulur","asciiname":"Sulur","alternatenames":["Sulur","Sūlūr"],"latitude":"11.02427","longitude":"77.12565","feature_class":"P","feature_code":"PPL","country_code":"IN","cc2":"","admin1_code":"25","admin2_code":"632","admin3_code":"","admin4_code":"","population":"26183","elevation":"","dem":"376","timezone":"Asia/Kolkata","modification_date":"2014-10-14"},{"geonameid":"1255584","name":"Suchindram","asciiname":"Suchindram","alternatenames":["Suchindram"],"latitude":"8.1531","longitude":"77.46596","feature_class":"P","feature_code":"PPL","country_code":"IN","cc2":"","admin1_code":"25","admin2_code":"629","admin3_code":"","admin4_code":"","population":"12316","elevation":"","dem":"19","timezone":"Asia/Kolkata","modification_date":"2014-10-14"},{"geonameid":"1255616","name":"Srivilliputhur","asciiname":"Srivilliputhur","alternatenames":[""],"latitude":"9.51272","longitude":"77.63369","feature_class":"P","feature_code":"PPL","country_code":"IN","cc2":"","admin1_code":"25","admin2_code":"625","admin3_code":"","admin4_code":"","population":"74370","elevation":"","dem":"153","timezone":"Asia/Kolkata","modification_date":"2014-10-14"},{"geonameid":"1255620","name":"Srivaikuntam","asciiname":"Srivaikuntam","alternatenames":["Srivaikuntam","Srīvaikuntam"],"latitude":"8.62931","longitude":"77.91281","feature_class":"P","feature_code":"PPL","country_code":"IN","cc2":"","admin1_code":"25","admin2_code":"627","admin3_code":"","admin4_code":"","population":"15665","elevation":"","dem":"19","timezone":"Asia/Kolkata","modification_date":"2014-10-14"},{"geonameid":"1255630","name":"Srīperumbūdūr","asciiname":"Sriperumbudur","alternatenames":["Sriperumbubur","Sriperumbudur","Srīperumbūdūr"],"latitude":"12.96763","longitude":"79.94197","feature_class":"P","feature_code":"PPL","country_code":"IN","cc2":"","admin1_code":"25","admin2_code":"604","admin3_code":"","admin4_code":"","population":"17253","elevation":"","dem":"46","timezone":"Asia/Kolkata","modification_date":"2014-10-14"},{"geonameid":"1255640","name":"Srīmushnam","asciiname":"Srimushnam","alternatenames":["Srimushnam","Srimushnum","Srīmushnam"],"latitude":"11.40103","longitude":"79.40403","feature_class":"P","feature_code":"PPL","country_code":"IN","cc2":"","admin1_code":"25","admin2_code":"617","admin3_code":"","admin4_code":"","population":"12364","elevation":"","dem":"33","timezone":"Asia/Kolkata","modification_date":"2014-10-14"},{"geonameid":"1255947","name":"Sivakasi","asciiname":"Sivakasi","alternatenames":["Sivakasi","Sivakāsi","civakaci","sibakasi","sivakasi","xi wa ka xi","चिवकाचि","शिवकाशी","শিবকাশী","ਸਿਵਾਕਾਸੀ","சிவகாசி","శివకాశి","ശിവകാശി","西瓦卡西"],"latitude":"9.44999","longitude":"77.79797","feature_class":"P","feature_code":"PPL","country_code":"IN","cc2":"","admin1_code":"25","admin2_code":"625","admin3_code":"","admin4_code":"","population":"74282","elevation":"","dem":"105","timezone":"Asia/Kolkata","modification_date":"2014-10-14"},{"geonameid":"1255950","name":"Sivagiri","asciiname":"Sivagiri","alternatenames":["Sivagiri"],"latitude":"11.1194","longitude":"77.78788","feature_class":"P","feature_code":"PPL","country_code":"IN","cc2":"","admin1_code":"25","admin2_code":"610","admin3_code":"","admin4_code":"","population":"16779","elevation":"","dem":"196","timezone":"Asia/Kolkata","modification_date":"2014-10-14"},{"geonameid":"1255953","name":"Sivaganga","asciiname":"Sivaganga","alternatenames":["Shivaganga","Sivaganga","civakankai","shivu~agangai","sibaganga","sivaganga'i","xi wa gang ge a","Шиваганга","শিবগঙ্গা","શિવગંગાઇ","சிவகங்கை","シヴァガンガイ","西瓦冈格阿"],"latitude":"9.84701","longitude":"78.48358","feature_class":"P","feature_code":"PPL","country_code":"IN","cc2":"","admin1_code":"25","admin2_code":"622","admin3_code":"","admin4_code":"","population":"42785","elevation":"","dem":"103","timezone":"Asia/Kolkata","modification_date":"2014-10-14"},{"geonameid":"1256027","name":"Sirumugai","asciiname":"Sirumugai","alternatenames":["Sirumugai","Sirumugal","cirumukai","சிறுமுகை"],"latitude":"11.32137","longitude":"77.00521","feature_class":"P","feature_code":"PPL","country_code":"IN","cc2":"","admin1_code":"25","admin2_code":"632","admin3_code":"","admin4_code":"","population":"20066","elevation":"","dem":"288","timezone":"Asia/Kolkata","modification_date":"2014-10-14"},{"geonameid":"1256075","name":"Sīrkāzhi","asciiname":"Sirkazhi","alternatenames":["Cikal","Cīkāl","Shiyali","Shīyali","Sirkali","Sirkazhi","Sīrkāzhi"],"latitude":"11.23725","longitude":"79.73585","feature_class":"P","feature_code":"PPL","country_code":"IN","cc2":"","admin1_code":"25","admin2_code":"618","admin3_code":"","admin4_code":"","population":"33100","elevation":"","dem":"12","timezone":"Asia/Kolkata","modification_date":"2014-10-14"},{"geonameid":"1256181","name":"Singapperumālkovil","asciiname":"Singapperumalkovil","alternatenames":["Singaperumalkoil","Singaperumalkovil","Singaperumālkovil","Singapperumalkovil","Singapperumālkovil"],"latitude":"12.75947","longitude":"80.0075","feature_class":"P","feature_code":"PPL","country_code":"IN","cc2":"","admin1_code":"25","admin2_code":"604","admin3_code":"","admin4_code":"","population":"8301","elevation":"","dem":"53","timezone":"Asia/Kolkata","modification_date":"2014-10-14"},{"geonameid":"1256184","name":"Singānallūr","asciiname":"Singanallur","alternatenames":[""],"latitude":"10.99816","longitude":"77.03375","feature_class":"P","feature_code":"PPL","country_code":"IN","cc2":"","admin1_code":"25","admin2_code":"632","admin3_code":"","admin4_code":"","population":"31239","elevation":"","dem":"391","timezone":"Asia/Kolkata","modification_date":"2014-10-14"},{"geonameid":"1256435","name":"Sholinghur","asciiname":"Sholinghur","alternatenames":["Sholinghur"],"latitude":"13.1181","longitude":"79.42025","feature_class":"P","feature_code":"PPL","country_code":"IN","cc2":"","admin1_code":"25","admin2_code":"605","admin3_code":"","admin4_code":"","population":"28645","elevation":"","dem":"157","timezone":"Asia/Kolkata","modification_date":"2014-10-14"},{"geonameid":"1256934","name":"Sāyalkudi","asciiname":"Sayalkudi","alternatenames":["Sayalgudi","Sayalkudi","Sāyalkudi"],"latitude":"9.16931","longitude":"78.44708","feature_class":"P","feature_code":"PPL","country_code":"IN","cc2":"","admin1_code":"25","admin2_code":"626","admin3_code":"","admin4_code":"","population":"12415","elevation":"","dem":"12","timezone":"Asia/Kolkata","modification_date":"2014-10-14"},{"geonameid":"1256989","name":"Sathyamangalam","asciiname":"Sathyamangalam","alternatenames":["cattiyamankalam","sa di ya mang ge a la mu","sathyamangalama","satyamangalama","सत्यमंगलम","সথ্যামঙ্গলম","சத்தியமங்கலம்","萨蒂亚芒格阿拉姆"],"latitude":"11.50526","longitude":"77.23826","feature_class":"P","feature_code":"PPL","country_code":"IN","cc2":"","admin1_code":"25","admin2_code":"610","admin3_code":"","admin4_code":"","population":"34011","elevation":"","dem":"239","timezone":"Asia/Kolkata","modification_date":"2014-10-14"},{"geonameid":"1256995","name":"Sattur","asciiname":"Sattur","alternatenames":["Sattur","Sāttūr"],"latitude":"9.35592","longitude":"77.92457","feature_class":"P","feature_code":"PPL","country_code":"IN","cc2":"","admin1_code":"25","admin2_code":"625","admin3_code":"","admin4_code":"","population":"31856","elevation":"","dem":"66","timezone":"Asia/Kolkata","modification_date":"2014-10-14"},{"geonameid":"1257004","name":"Sathankulam","asciiname":"Sathankulam","alternatenames":["Sattankulam","Sāttānkulam"],"latitude":"8.44164","longitude":"77.91349","feature_class":"P","feature_code":"PPL","country_code":"IN","cc2":"","admin1_code":"25","admin2_code":"627","admin3_code":"","admin4_code":"","population":"14084","elevation":"","dem":"25","timezone":"Asia/Kolkata","modification_date":"2014-10-14"},{"geonameid":"1257629","name":"Salem","asciiname":"Salem","alternatenames":["Gorad Salem","Salem","Selam","celam","sai lei mu","salema","sallem","salm","selam","selama","seramu","Горад Салем","Салем","سالم","سالم ،تامل ناڈو","सेलम","সালেম","સેલમ","சேலம்","సేలం","ಸೇಲಂ‌","സേലം","セーラム","塞勒姆","살렘"],"latitude":"11.65117","longitude":"78.15867","feature_class":"P","feature_code":"PPL","country_code":"IN","cc2":"","admin1_code":"25","admin2_code":"608","admin3_code":"","admin4_code":"","population":"778396","elevation":"","dem":"279","timezone":"Asia/Kolkata","modification_date":"2014-10-14"},{"geonameid":"1257749","name":"Saint Thomas Mount","asciiname":"Saint Thomas Mount","alternatenames":["Madras Saint Thomas Mount","Parangimalai","Paranginealai","Saint Thomas Mount","Saint Thomas's Mount","Saint Thomas’s Mount"],"latitude":"13.00334","longitude":"80.19614","feature_class":"P","feature_code":"PPL","country_code":"IN","cc2":"","admin1_code":"25","admin2_code":"604","admin3_code":"","admin4_code":"","population":"43223","elevation":"","dem":"25","timezone":"Asia/Kolkata","modification_date":"2014-10-14"},{"geonameid":"1258386","name":"Rasipuram","asciiname":"Rasipuram","alternatenames":["Rasipur","Rasipuram","Rāsipuram","Rāsīpur"],"latitude":"11.46009","longitude":"78.18635","feature_class":"P","feature_code":"PPL","country_code":"IN","cc2":"","admin1_code":"25","admin2_code":"609","admin3_code":"","admin4_code":"","population":"48950","elevation":"","dem":"234","timezone":"Asia/Kolkata","modification_date":"2014-10-14"},{"geonameid":"1258698","name":"Rameswaram","asciiname":"Rameswaram","alternatenames":["Rameshvaram","Ramesvaram","Rameswaram","Rāmeswaram","iramecuvaram","la mei si wa la mu","ramanathasvami mandira","ramesbarama","rameshuwaramu","ramesvaram","ramesvarama","ramesvarama sahara","ramesvarama tirtha","ramesvaramu","Рамешварам","रामेश्वरम तीर्थ","रामेश्वरम शहर","রামেশ্বরম","રામેશ્વરમ","ରାମନାଥସ୍ଵାମୀ ମନ୍ଦିର","இராமேசுவரம்","రామేశ్వరము","രാമേശ്വരം","ラーメーシュワラム","拉梅斯瓦拉姆"],"latitude":"9.2885","longitude":"79.31271","feature_class":"P","feature_code":"PPL","country_code":"IN","cc2":"","admin1_code":"25","admin2_code":"625","admin3_code":"","admin4_code":"","population":"39960","elevation":"","dem":"10","timezone":"Asia/Kolkata","modification_date":"2014-10-14"},{"geonameid":"1258740","name":"Ramanathapuram","asciiname":"Ramanathapuram","alternatenames":["Ramanathapuram","Ramanatkhapuram","Ramanatkhapurama","Ramanthapuram","Ramnad","Rāmanāthapuram","iramanatapuram","la ma na ta pu la mu","ramanatapuramu","ramanathapurama","ramanthapurama","Раманатхапурам","Раманатхапурама","रामनाथपुरम","রমন্থাপুরম","રામનાથપુરમ","இராமநாதபுரம்","ラーマナータプラム","拉马纳塔普拉姆"],"latitude":"9.37158","longitude":"78.83077","feature_class":"P","feature_code":"PPL","country_code":"IN","cc2":"","admin1_code":"25","admin2_code":"626","admin3_code":"","admin4_code":"","population":"65314","elevation":"","dem":"10","timezone":"Asia/Kolkata","modification_date":"2014-10-14"},{"geonameid":"1258916","name":"Rajapalaiyam","asciiname":"Rajapalaiyam","alternatenames":["Rajapalaiyam","Rajapalayam","Rājapālaiyam"],"latitude":"9.45296","longitude":"77.55335","feature_class":"P","feature_code":"PPL","country_code":"IN","cc2":"","admin1_code":"25","admin2_code":"625","admin3_code":"","admin4_code":"","population":"124168","elevation":"","dem":"165","timezone":"Asia/Kolkata","modification_date":"2014-10-14"},{"geonameid":"1259222","name":"Punjai Puliyampatti","asciiname":"Punjai Puliyampatti","alternatenames":[""],"latitude":"11.35163","longitude":"77.16671","feature_class":"P","feature_code":"PPL","country_code":"IN","cc2":"","admin1_code":"25","admin2_code":"610","admin3_code":"","admin4_code":"","population":"15066","elevation":"","dem":"308","timezone":"Asia/Kolkata","modification_date":"2014-10-14"},{"geonameid":"1259259","name":"Pullambādi","asciiname":"Pullambadi","alternatenames":["Pullambadi","Pullambādi","Pullampadi"],"latitude":"10.94108","longitude":"78.90816","feature_class":"P","feature_code":"PPL","country_code":"IN","cc2":"","admin1_code":"25","admin2_code":"614","admin3_code":"","admin4_code":"","population":"10288","elevation":"","dem":"64","timezone":"Asia/Kolkata","modification_date":"2014-10-14"},{"geonameid":"1259261","name":"Puliyūr","asciiname":"Puliyur","alternatenames":["Puliyur","Puliyūr"],"latitude":"10.63292","longitude":"78.84103","feature_class":"P","feature_code":"PPL","country_code":"IN","cc2":"","admin1_code":"25","admin2_code":"621","admin3_code":"","admin4_code":"","population":"11174","elevation":"","dem":"111","timezone":"Asia/Kolkata","modification_date":"2014-10-14"},{"geonameid":"1259263","name":"Puliyangudi","asciiname":"Puliyangudi","alternatenames":["Puliyangudi","Puliyankudi"],"latitude":"9.17489","longitude":"77.39799","feature_class":"P","feature_code":"PPL","country_code":"IN","cc2":"","admin1_code":"25","admin2_code":"628","admin3_code":"","admin4_code":"","population":"62494","elevation":"","dem":"204","timezone":"Asia/Kolkata","modification_date":"2014-10-14"},{"geonameid":"1259290","name":"Puduvāyal","asciiname":"Puduvayal","alternatenames":["Puduvayal","Puduvāyal"],"latitude":"13.33057","longitude":"80.14573","feature_class":"P","feature_code":"PPL","country_code":"IN","cc2":"","admin1_code":"25","admin2_code":"602","admin3_code":"","admin4_code":"","population":"9742","elevation":"","dem":"17","timezone":"Asia/Kolkata","modification_date":"2014-10-14"},{"geonameid":"1259292","name":"Pudūr","asciiname":"Pudur","alternatenames":[""],"latitude":"12.99801","longitude":"79.14352","feature_class":"P","feature_code":"PPL","country_code":"IN","cc2":"","admin1_code":"25","admin2_code":"605","admin3_code":"","admin4_code":"","population":"11432","elevation":"","dem":"234","timezone":"Asia/Kolkata","modification_date":"2014-10-14"},{"geonameid":"1259294","name":"Puduppatti","asciiname":"Puduppatti","alternatenames":[""],"latitude":"11.15083","longitude":"78.21197","feature_class":"P","feature_code":"PPL","country_code":"IN","cc2":"","admin1_code":"25","admin2_code":"609","admin3_code":"","admin4_code":"","population":"7570","elevation":"","dem":"155","timezone":"Asia/Kolkata","modification_date":"2014-10-14"},{"geonameid":"1259297","name":"Pudukkottai","asciiname":"Pudukkottai","alternatenames":["Poodoocottah","Pudukattai","Pudukkottai","Pudukkottai-Trichinopoly","Pudukkottaj","Pudukotah","Pudukottai","pu du ke tai","pudo~ukkottai","purukkotta'i","putukkottai","Пудуккоттай","পুড়ুক্কোত্তাই","புதுக்கோட்டை","プドゥッコーッタイ","普杜科泰"],"latitude":"10.38128","longitude":"78.82141","feature_class":"P","feature_code":"PPL","country_code":"IN","cc2":"","admin1_code":"25","admin2_code":"621","admin3_code":"","admin4_code":"","population":"112118","elevation":"","dem":"102","timezone":"Asia/Kolkata","modification_date":"2014-10-14"},{"geonameid":"1259400","name":"Poonamalle","asciiname":"Poonamalle","alternatenames":["Poonamallee"],"latitude":"13.04888","longitude":"80.11488","feature_class":"P","feature_code":"PPL","country_code":"IN","cc2":"","admin1_code":"25","admin2_code":"604","admin3_code":"","admin4_code":"","population":"48837","elevation":"","dem":"21","timezone":"Asia/Kolkata","modification_date":"2014-10-14"},{"geonameid":"1259409","name":"Ponneri","asciiname":"Ponneri","alternatenames":["Ponneri"],"latitude":"13.33868","longitude":"80.19487","feature_class":"P","feature_code":"PPL","country_code":"IN","cc2":"","admin1_code":"25","admin2_code":"602","admin3_code":"","admin4_code":"","population":"24756","elevation":"","dem":"12","timezone":"Asia/Kolkata","modification_date":"2014-10-14"},{"geonameid":"1259413","name":"Ponnamarāvati","asciiname":"Ponnamaravati","alternatenames":["Ponnamaravathy","Ponnamaravati","Ponnamarāvati"],"latitude":"10.28178","longitude":"78.53554","feature_class":"P","feature_code":"PPL","country_code":"IN","cc2":"","admin1_code":"25","admin2_code":"621","admin3_code":"","admin4_code":"","population":"11741","elevation":"","dem":"152","timezone":"Asia/Kolkata","modification_date":"2014-10-14"},{"geonameid":"1259434","name":"Polūr","asciiname":"Polur","alternatenames":["Polur","Polūr"],"latitude":"12.51217","longitude":"79.12405","feature_class":"P","feature_code":"PPL","country_code":"IN","cc2":"","admin1_code":"25","admin2_code":"606","admin3_code":"","admin4_code":"","population":"26290","elevation":"","dem":"176","timezone":"Asia/Kolkata","modification_date":"2014-10-14"},{"geonameid":"1259440","name":"Pollachi","asciiname":"Pollachi","alternatenames":["Pollachi","Pollāchi","bo la qi","peallacci","pollacci","pollaci","पोल्लाची","পোল্লাচি","பொள்ளாச்சி","പൊള്ളാച്ചി","波拉奇"],"latitude":"10.65825","longitude":"77.0085","feature_class":"P","feature_code":"PPL","country_code":"IN","cc2":"","admin1_code":"25","admin2_code":"632","admin3_code":"","admin4_code":"","population":"88214","elevation":"","dem":"294","timezone":"Asia/Kolkata","modification_date":"2014-10-14"},{"geonameid":"1259853","name":"Perūr","asciiname":"Perur","alternatenames":["Melai Citamparam","Perur","Perūr"],"latitude":"10.97509","longitude":"76.91552","feature_class":"P","feature_code":"PPL","country_code":"IN","cc2":"","admin1_code":"25","admin2_code":"632","admin3_code":"","admin4_code":"","population":"8341","elevation":"","dem":"419","timezone":"Asia/Kolkata","modification_date":"2014-10-14"},{"geonameid":"1259855","name":"Perundurai","asciiname":"Perundurai","alternatenames":["Perundurai","Perundural"],"latitude":"11.27564","longitude":"77.58794","feature_class":"P","feature_code":"PPL","country_code":"IN","cc2":"","admin1_code":"25","admin2_code":"610","admin3_code":"","admin4_code":"","population":"17488","elevation":"","dem":"282","timezone":"Asia/Kolkata","modification_date":"2014-10-14"},{"geonameid":"1259875","name":"Periyapatti","asciiname":"Periyapatti","alternatenames":["Periyapatti"],"latitude":"10.75723","longitude":"77.27127","feature_class":"P","feature_code":"PPL","country_code":"IN","cc2":"","admin1_code":"25","admin2_code":"633","admin3_code":"","admin4_code":"","population":"10647","elevation":"","dem":"314","timezone":"Asia/Kolkata","modification_date":"2014-10-14"},{"geonameid":"1259877","name":"Periyanegamam","asciiname":"Periyanegamam","alternatenames":[""],"latitude":"10.74049","longitude":"77.10446","feature_class":"P","feature_code":"PPL","country_code":"IN","cc2":"","admin1_code":"25","admin2_code":"632","admin3_code":"","admin4_code":"","population":"7913","elevation":"","dem":"359","timezone":"Asia/Kolkata","modification_date":"2014-10-14"},{"geonameid":"1259878","name":"Periyanayakkanpalaiyam","asciiname":"Periyanayakkanpalaiyam","alternatenames":["Periyanaikanpalayam","Periyanayakkanpalaiyam","Periyanāyakkanpālaiyam","periyanayakkanpalaiyam","பெரியநாயக்கன்பாளையம்"],"latitude":"11.15255","longitude":"76.95159","feature_class":"P","feature_code":"PPL","country_code":"IN","cc2":"","admin1_code":"25","admin2_code":"632","admin3_code":"","admin4_code":"","population":"24894","elevation":"","dem":"429","timezone":"Asia/Kolkata","modification_date":"2014-10-14"},{"geonameid":"1259879","name":"Periyakulam","asciiname":"Periyakulam","alternatenames":["Periyakulam"],"latitude":"10.12127","longitude":"77.54392","feature_class":"P","feature_code":"PPL","country_code":"IN","cc2":"","admin1_code":"25","admin2_code":"624","admin3_code":"","admin4_code":"","population":"40131","elevation":"","dem":"284","timezone":"Asia/Kolkata","modification_date":"2014-10-14"},{"geonameid":"1259890","name":"Peravurani","asciiname":"Peravurani","alternatenames":["Peravurani","Peravurni","Perāvūrani"],"latitude":"10.29035","longitude":"79.20156","feature_class":"P","feature_code":"PPL","country_code":"IN","cc2":"","admin1_code":"25","admin2_code":"620","admin3_code":"","admin4_code":"","population":"21663","elevation":"","dem":"29","timezone":"Asia/Kolkata","modification_date":"2014-10-14"},{"geonameid":"1259892","name":"Peranāmpattu","asciiname":"Peranampattu","alternatenames":["Peranambattu","Peranampattu","Peranāmbattu","Peranāmpattu","Pernambut"],"latitude":"12.9343","longitude":"78.7189","feature_class":"P","feature_code":"PPL","country_code":"IN","cc2":"","admin1_code":"25","admin2_code":"605","admin3_code":"","admin4_code":"","population":"43124","elevation":"","dem":"369","timezone":"Asia/Kolkata","modification_date":"2014-10-14"},{"geonameid":"1259893","name":"Peranamallūr","asciiname":"Peranamallur","alternatenames":["Peranamallur","Peranamallūr"],"latitude":"12.57021","longitude":"79.43378","feature_class":"P","feature_code":"PPL","country_code":"IN","cc2":"","admin1_code":"25","admin2_code":"606","admin3_code":"","admin4_code":"","population":"5723","elevation":"","dem":"128","timezone":"Asia/Kolkata","modification_date":"2014-10-14"},{"geonameid":"1259896","name":"Perambalur","asciiname":"Perambalur","alternatenames":["Perambalur","Perambalūr"],"latitude":"11.23333","longitude":"78.88333","feature_class":"P","feature_code":"PPL","country_code":"IN","cc2":"","admin1_code":"25","admin2_code":"615","admin3_code":"","admin4_code":"","population":"30799","elevation":"","dem":"124","timezone":"Asia/Kolkata","modification_date":"2014-10-14"},{"geonameid":"1259898","name":"Peraiyur","asciiname":"Peraiyur","alternatenames":["Paryur","Peraiyur","Peraiyūr"],"latitude":"9.73579","longitude":"77.78955","feature_class":"P","feature_code":"PPL","country_code":"IN","cc2":"","admin1_code":"25","admin2_code":"623","admin3_code":"","admin4_code":"","population":"9244","elevation":"","dem":"173","timezone":"Asia/Kolkata","modification_date":"2014-10-14"},{"geonameid":"1259914","name":"Pennāttūr","asciiname":"Pennattur","alternatenames":["Pennathur","Pennattur","Pennāttūr"],"latitude":"12.2467","longitude":"79.22537","feature_class":"P","feature_code":"PPL","country_code":"IN","cc2":"","admin1_code":"25","admin2_code":"606","admin3_code":"","admin4_code":"","population":"8257","elevation":"","dem":"151","timezone":"Asia/Kolkata","modification_date":"2014-10-14"},{"geonameid":"1259916","name":"Pennāgaram","asciiname":"Pennagaram","alternatenames":["Pennagaram","Pennāgaram"],"latitude":"12.1345","longitude":"77.89514","feature_class":"P","feature_code":"PPL","country_code":"IN","cc2":"","admin1_code":"25","admin2_code":"630","admin3_code":"","admin4_code":"","population":"15758","elevation":"","dem":"510","timezone":"Asia/Kolkata","modification_date":"2014-10-14"},{"geonameid":"1259917","name":"Pennādam","asciiname":"Pennadam","alternatenames":["Pennadam","Pennādam"],"latitude":"11.40316","longitude":"79.24103","feature_class":"P","feature_code":"PPL","country_code":"IN","cc2":"","admin1_code":"25","admin2_code":"617","admin3_code":"","admin4_code":"","population":"17662","elevation":"","dem":"52","timezone":"Asia/Kolkata","modification_date":"2014-10-14"},{"geonameid":"1260040","name":"Pattukkottai","asciiname":"Pattukkottai","alternatenames":["Pattukkottai"],"latitude":"10.42358","longitude":"79.31949","feature_class":"P","feature_code":"PPL","country_code":"IN","cc2":"","admin1_code":"25","admin2_code":"620","admin3_code":"","admin4_code":"","population":"67982","elevation":"","dem":"27","timezone":"Asia/Kolkata","modification_date":"2014-10-14"},{"geonameid":"1260387","name":"Paramagudi","asciiname":"Paramagudi","alternatenames":[""],"latitude":"9.54633","longitude":"78.5907","feature_class":"P","feature_code":"PPL","country_code":"IN","cc2":"","admin1_code":"25","admin2_code":"626","admin3_code":"","admin4_code":"","population":"85695","elevation":"","dem":"46","timezone":"Asia/Kolkata","modification_date":"2014-10-14"},{"geonameid":"1260407","name":"Pāppārappatti","asciiname":"Papparappatti","alternatenames":["Papparapatti","Papparappatti","Pāppārappatti"],"latitude":"12.22093","longitude":"78.05923","feature_class":"P","feature_code":"PPL","country_code":"IN","cc2":"","admin1_code":"25","admin2_code":"630","admin3_code":"","admin4_code":"","population":"11617","elevation":"","dem":"496","timezone":"Asia/Kolkata","modification_date":"2014-10-14"},{"geonameid":"1260410","name":"Pāpireddippatti","asciiname":"Papireddippatti","alternatenames":["Papireddipatti","Papireddippatti","Pāpireddippatti"],"latitude":"11.91774","longitude":"78.36865","feature_class":"P","feature_code":"PPL","country_code":"IN","cc2":"","admin1_code":"25","admin2_code":"630","admin3_code":"","admin4_code":"","population":"8852","elevation":"","dem":"433","timezone":"Asia/Kolkata","modification_date":"2014-10-14"},{"geonameid":"1260417","name":"Papanasam","asciiname":"Papanasam","alternatenames":["Papanasam","Papanāsam","Pavanasi"],"latitude":"10.92687","longitude":"79.27056","feature_class":"P","feature_code":"PPL","country_code":"IN","cc2":"","admin1_code":"25","admin2_code":"620","admin3_code":"","admin4_code":"","population":"16837","elevation":"","dem":"37","timezone":"Asia/Kolkata","modification_date":"2014-10-14"},{"geonameid":"1260448","name":"Panruti","asciiname":"Panruti","alternatenames":["Panruti"],"latitude":"11.77662","longitude":"79.55269","feature_class":"P","feature_code":"PPL","country_code":"IN","cc2":"","admin1_code":"25","admin2_code":"617","admin3_code":"","admin4_code":"","population":"56586","elevation":"","dem":"27","timezone":"Asia/Kolkata","modification_date":"2014-10-14"},{"geonameid":"1260671","name":"Palani","asciiname":"Palani","alternatenames":["Palani","Palni","pa la ni","palani","Палани","पलनी","पळणी","पळनी","পালানি","பழனி","പഴനി","帕拉尼"],"latitude":"10.45034","longitude":"77.5209","feature_class":"P","feature_code":"PPL","country_code":"IN","cc2":"","admin1_code":"25","admin2_code":"612","admin3_code":"","admin4_code":"","population":"66085","elevation":"","dem":"328","timezone":"Asia/Kolkata","modification_date":"2014-10-14"},{"geonameid":"1260681","name":"Pallippatti","asciiname":"Pallippatti","alternatenames":[""],"latitude":"11.93956","longitude":"78.40152","feature_class":"P","feature_code":"PPL","country_code":"IN","cc2":"","admin1_code":"25","admin2_code":"630","admin3_code":"","admin4_code":"","population":"26492","elevation":"","dem":"413","timezone":"Asia/Kolkata","modification_date":"2014-10-14"},{"geonameid":"1260683","name":"Pallipattu","asciiname":"Pallipattu","alternatenames":["Pallipat","Pallipattu"],"latitude":"13.3386","longitude":"79.44489","feature_class":"P","feature_code":"PPL","country_code":"IN","cc2":"","admin1_code":"25","admin2_code":"","admin3_code":"","admin4_code":"","population":"8912","elevation":"","dem":"157","timezone":"Asia/Kolkata","modification_date":"2012-02-29"},{"geonameid":"1260685","name":"Pallikondai","asciiname":"Pallikondai","alternatenames":["Pallikonda","Pallikondai"],"latitude":"12.90816","longitude":"78.94195","feature_class":"P","feature_code":"PPL","country_code":"IN","cc2":"","admin1_code":"25","admin2_code":"605","admin3_code":"","admin4_code":"","population":"21335","elevation":"","dem":"256","timezone":"Asia/Kolkata","modification_date":"2014-10-14"},{"geonameid":"1260692","name":"Pallāvaram","asciiname":"Pallavaram","alternatenames":["Pallavaram","Pallāvaram"],"latitude":"12.96796","longitude":"80.15025","feature_class":"P","feature_code":"PPL","country_code":"IN","cc2":"","admin1_code":"25","admin2_code":"604","admin3_code":"","admin4_code":"","population":"157145","elevation":"","dem":"25","timezone":"Asia/Kolkata","modification_date":"2014-10-14"},{"geonameid":"1260693","name":"Pallattūr","asciiname":"Pallattur","alternatenames":["Pallattur","Pallattūr","Pallatur"],"latitude":"10.1456","longitude":"78.80263","feature_class":"P","feature_code":"PPL","country_code":"IN","cc2":"","admin1_code":"25","admin2_code":"622","admin3_code":"","admin4_code":"","population":"8186","elevation":"","dem":"105","timezone":"Asia/Kolkata","modification_date":"2014-10-14"},{"geonameid":"1260694","name":"Pallappatti","asciiname":"Pallappatti","alternatenames":["Pallapatti","Pallappatti"],"latitude":"10.72057","longitude":"77.87951","feature_class":"P","feature_code":"PPL","country_code":"IN","cc2":"","admin1_code":"25","admin2_code":"613","admin3_code":"","admin4_code":"","population":"20281","elevation":"","dem":"188","timezone":"Asia/Kolkata","modification_date":"2014-10-14"},{"geonameid":"1260697","name":"Palladam","asciiname":"Palladam","alternatenames":["Palladam"],"latitude":"10.99175","longitude":"77.28633","feature_class":"P","feature_code":"PPL","country_code":"IN","cc2":"","admin1_code":"25","admin2_code":"633","admin3_code":"","admin4_code":"","population":"31935","elevation":"","dem":"371","timezone":"Asia/Kolkata","modification_date":"2014-10-14"},{"geonameid":"1260786","name":"Pālamedu","asciiname":"Palamedu","alternatenames":["Palamedu","Pālamedu"],"latitude":"10.10492","longitude":"78.11348","feature_class":"P","feature_code":"PPL","country_code":"IN","cc2":"","admin1_code":"25","admin2_code":"623","admin3_code":"","admin4_code":"","population":"8435","elevation":"","dem":"227","timezone":"Asia/Kolkata","modification_date":"2014-10-14"},{"geonameid":"1260793","name":"Pālakkodu","asciiname":"Palakkodu","alternatenames":["Palakkodu","Palakod","Pālakkodu"],"latitude":"12.30696","longitude":"78.07022","feature_class":"P","feature_code":"PPL","country_code":"IN","cc2":"","admin1_code":"25","admin2_code":"630","admin3_code":"","admin4_code":"","population":"19630","elevation":"","dem":"509","timezone":"Asia/Kolkata","modification_date":"2014-10-14"},{"geonameid":"1260918","name":"Padmanābhapuram","asciiname":"Padmanabhapuram","alternatenames":["Padmanabhapuram","Padmanābhapuram","patmanapapuram","பத்மனாபபுரம்"],"latitude":"8.24462","longitude":"77.32581","feature_class":"P","feature_code":"PPL","country_code":"IN","cc2":"","admin1_code":"25","admin2_code":"629","admin3_code":"","admin4_code":"","population":"20212","elevation":"","dem":"35","timezone":"Asia/Kolkata","modification_date":"2014-10-14"},{"geonameid":"1261049","name":"Omalur","asciiname":"Omalur","alternatenames":["Omalur","Omalūr"],"latitude":"11.74099","longitude":"78.04559","feature_class":"P","feature_code":"PPL","country_code":"IN","cc2":"","admin1_code":"25","admin2_code":"608","admin3_code":"","admin4_code":"","population":"12701","elevation":"","dem":"280","timezone":"Asia/Kolkata","modification_date":"2014-10-14"},{"geonameid":"1261076","name":"Odugattūr","asciiname":"Odugattur","alternatenames":["Odugathur","Odugattur","Odugattūr","Udugattur","Udugattūr"],"latitude":"12.76792","longitude":"78.88307","feature_class":"P","feature_code":"PPL","country_code":"IN","cc2":"","admin1_code":"25","admin2_code":"605","admin3_code":"","admin4_code":"","population":"8282","elevation":"","dem":"335","timezone":"Asia/Kolkata","modification_date":"2014-10-14"},{"geonameid":"1261401","name":"Nilakottai","asciiname":"Nilakottai","alternatenames":["Nilakkottai","Nilakkottai-Madura"],"latitude":"10.165","longitude":"77.85024","feature_class":"P","feature_code":"PPL","country_code":"IN","cc2":"","admin1_code":"25","admin2_code":"612","admin3_code":"","admin4_code":"","population":"21683","elevation":"","dem":"228","timezone":"Asia/Kolkata","modification_date":"2014-10-14"},{"geonameid":"1261444","name":"Needamangalam","asciiname":"Needamangalam","alternatenames":["Nidamangalam","Nīdāmāngalam"],"latitude":"10.77378","longitude":"79.41875","feature_class":"P","feature_code":"PPL","country_code":"IN","cc2":"","admin1_code":"25","admin2_code":"619","admin3_code":"","admin4_code":"","population":"9125","elevation":"","dem":"21","timezone":"Asia/Kolkata","modification_date":"2014-10-14"},{"geonameid":"1261532","name":"Nellikkuppam","asciiname":"Nellikkuppam","alternatenames":["Nellikkuppam","Nellikuppami"],"latitude":"11.77577","longitude":"79.66789","feature_class":"P","feature_code":"PPL","country_code":"IN","cc2":"","admin1_code":"25","admin2_code":"617","admin3_code":"","admin4_code":"","population":"44423","elevation":"","dem":"19","timezone":"Asia/Kolkata","modification_date":"2014-10-14"},{"geonameid":"1261704","name":"Nāttarasankottai","asciiname":"Nattarasankottai","alternatenames":["Nattarasankotal","Nattarasankottai","Nāttarasankottai"],"latitude":"9.87144","longitude":"78.55211","feature_class":"P","feature_code":"PPL","country_code":"IN","cc2":"","admin1_code":"25","admin2_code":"622","admin3_code":"","admin4_code":"","population":"5920","elevation":"","dem":"88","timezone":"Asia/Kolkata","modification_date":"2014-10-14"},{"geonameid":"1261705","name":"Nattam","asciiname":"Nattam","alternatenames":["Nattam","Nuttam"],"latitude":"10.22776","longitude":"78.22969","feature_class":"P","feature_code":"PPL","country_code":"IN","cc2":"","admin1_code":"25","admin2_code":"612","admin3_code":"","admin4_code":"","population":"21888","elevation":"","dem":"252","timezone":"Asia/Kolkata","modification_date":"2014-10-14"},{"geonameid":"1261835","name":"Nāravārikuppam","asciiname":"Naravarikuppam","alternatenames":["Naravanikuppam","Naravarikuppam","Naravānikuppam","Nāravārikuppam"],"latitude":"13.19133","longitude":"80.18473","feature_class":"P","feature_code":"PPL","country_code":"IN","cc2":"","admin1_code":"25","admin2_code":"602","admin3_code":"","admin4_code":"","population":"18555","elevation":"","dem":"18","timezone":"Asia/Kolkata","modification_date":"2014-10-14"},{"geonameid":"1261906","name":"Nannilam","asciiname":"Nannilam","alternatenames":["Nannilam"],"latitude":"10.87933","longitude":"79.61062","feature_class":"P","feature_code":"PPL","country_code":"IN","cc2":"","admin1_code":"25","admin2_code":"619","admin3_code":"","admin4_code":"","population":"10180","elevation":"","dem":"16","timezone":"Asia/Kolkata","modification_date":"2014-10-14"},{"geonameid":"1261911","name":"Nanguneri","asciiname":"Nanguneri","alternatenames":["Nanguneri","Nānguneri"],"latitude":"8.49326","longitude":"77.65806","feature_class":"P","feature_code":"PPL","country_code":"IN","cc2":"","admin1_code":"25","admin2_code":"628","admin3_code":"","admin4_code":"","population":"6969","elevation":"","dem":"97","timezone":"Asia/Kolkata","modification_date":"2014-10-14"},{"geonameid":"1261915","name":"Nangavalli","asciiname":"Nangavalli","alternatenames":["Nangavalli","Nangavelli"],"latitude":"11.76108","longitude":"77.89137","feature_class":"P","feature_code":"PPL","country_code":"IN","cc2":"","admin1_code":"25","admin2_code":"608","admin3_code":"","admin4_code":"","population":"9902","elevation":"","dem":"352","timezone":"Asia/Kolkata","modification_date":"2014-10-14"},{"geonameid":"1262032","name":"Nambutalai","asciiname":"Nambutalai","alternatenames":[""],"latitude":"9.72766","longitude":"79.00707","feature_class":"P","feature_code":"PPL","country_code":"IN","cc2":"","admin1_code":"25","admin2_code":"626","admin3_code":"","admin4_code":"","population":"7914","elevation":"","dem":"6","timezone":"Asia/Kolkata","modification_date":"2014-10-14"},{"geonameid":"1262034","name":"Nambiyūr","asciiname":"Nambiyur","alternatenames":["Nambiyur","Nambiyūr"],"latitude":"11.35833","longitude":"77.32099","feature_class":"P","feature_code":"PPL","country_code":"IN","cc2":"","admin1_code":"25","admin2_code":"610","admin3_code":"","admin4_code":"","population":"16126","elevation":"","dem":"282","timezone":"Asia/Kolkata","modification_date":"2014-10-14"},{"geonameid":"1262039","name":"Nāmakkal","asciiname":"Namakkal","alternatenames":["Namakkal"],"latitude":"11.22126","longitude":"78.16524","feature_class":"P","feature_code":"PPL","country_code":"IN","cc2":"","admin1_code":"25","admin2_code":"609","admin3_code":"","admin4_code":"","population":"55997","elevation":"","dem":"223","timezone":"Asia/Kolkata","modification_date":"2014-10-14"},{"geonameid":"1262040","name":"Nāmagiripettai","asciiname":"Namagiripettai","alternatenames":["Namagiripetai","Namagiripettai","Nāmagiripettai"],"latitude":"11.455","longitude":"78.269","feature_class":"P","feature_code":"PPL","country_code":"IN","cc2":"","admin1_code":"25","admin2_code":"609","admin3_code":"","admin4_code":"","population":"22098","elevation":"","dem":"262","timezone":"Asia/Kolkata","modification_date":"2014-10-14"},{"geonameid":"1262204","name":"Nāgercoil","asciiname":"Nagercoil","alternatenames":["Nagarkoil","Nagarkovil","Nagercoil","Nāgercoil","nakarkovil","நாகர்கோவில்"],"latitude":"8.17731","longitude":"77.43437","feature_class":"P","feature_code":"PPL","country_code":"IN","cc2":"","admin1_code":"25","admin2_code":"629","admin3_code":"","admin4_code":"","population":"213858","elevation":"","dem":"33","timezone":"Asia/Kolkata","modification_date":"2014-10-14"},{"geonameid":"1262260","name":"Nāgappattinam","asciiname":"Nagappattinam","alternatenames":["Nagapatinam","Nagapattinam","Nagappattinam","Negapainttam City","Negapatam","Negapattinam","Nāgappattinam","nagapattinamu","nagappattinamu","nakappattinam","நாகப்பட்டினம்","ナーガッパッティナム","ナーガパッティナム"],"latitude":"10.76393","longitude":"79.84454","feature_class":"P","feature_code":"PPL","country_code":"IN","cc2":"","admin1_code":"25","admin2_code":"618","admin3_code":"","admin4_code":"","population":"94238","elevation":"","dem":"10","timezone":"Asia/Kolkata","modification_date":"2014-10-14"},{"geonameid":"1262284","name":"Naduvattam","asciiname":"Naduvattam","alternatenames":["Naduvattam"],"latitude":"11.47887","longitude":"76.54419","feature_class":"P","feature_code":"PPL","country_code":"IN","cc2":"","admin1_code":"25","admin2_code":"611","admin3_code":"","admin4_code":"","population":"11674","elevation":"","dem":"1834","timezone":"Asia/Kolkata","modification_date":"2014-10-14"},{"geonameid":"1262346","name":"Muttupet","asciiname":"Muttupet","alternatenames":["Muttapet","Muttupet","Mutupet"],"latitude":"10.39531","longitude":"79.49425","feature_class":"P","feature_code":"PPL","country_code":"IN","cc2":"","admin1_code":"25","admin2_code":"619","admin3_code":"","admin4_code":"","population":"21568","elevation":"","dem":"8","timezone":"Asia/Kolkata","modification_date":"2014-10-14"},{"geonameid":"1262380","name":"Musiri","asciiname":"Musiri","alternatenames":["Musiri"],"latitude":"10.95299","longitude":"78.44427","feature_class":"P","feature_code":"PPL","country_code":"IN","cc2":"","admin1_code":"25","admin2_code":"614","admin3_code":"","admin4_code":"","population":"30209","elevation":"","dem":"95","timezone":"Asia/Kolkata","modification_date":"2014-10-14"},{"geonameid":"1262567","name":"Mūlanūr","asciiname":"Mulanur","alternatenames":["Mulanur","Mūlanūr"],"latitude":"10.79436","longitude":"77.71175","feature_class":"P","feature_code":"PPL","country_code":"IN","cc2":"","admin1_code":"25","admin2_code":"633","admin3_code":"","admin4_code":"","population":"12264","elevation":"","dem":"223","timezone":"Asia/Kolkata","modification_date":"2014-10-14"},{"geonameid":"1262648","name":"Mudukulattūr","asciiname":"Mudukulattur","alternatenames":[""],"latitude":"9.34169","longitude":"78.51388","feature_class":"P","feature_code":"PPL","country_code":"IN","cc2":"","admin1_code":"25","admin2_code":"626","admin3_code":"","admin4_code":"","population":"14229","elevation":"","dem":"28","timezone":"Asia/Kolkata","modification_date":"2014-10-14"},{"geonameid":"1262905","name":"Mohanūr","asciiname":"Mohanur","alternatenames":["Mohanur","Mohanūr"],"latitude":"11.05896","longitude":"78.13992","feature_class":"P","feature_code":"PPL","country_code":"IN","cc2":"","admin1_code":"25","admin2_code":"609","admin3_code":"","admin4_code":"","population":"12846","elevation":"","dem":"122","timezone":"Asia/Kolkata","modification_date":"2014-10-14"},{"geonameid":"1263034","name":"Mīnjūr","asciiname":"Minjur","alternatenames":["Minjur","Mīnjūr"],"latitude":"13.27918","longitude":"80.25899","feature_class":"P","feature_code":"PPL","country_code":"IN","cc2":"","admin1_code":"25","admin2_code":"602","admin3_code":"","admin4_code":"","population":"24674","elevation":"","dem":"12","timezone":"Asia/Kolkata","modification_date":"2014-10-14"},{"geonameid":"1263101","name":"Mettur","asciiname":"Mettur","alternatenames":["Mettur","Mettūr"],"latitude":"11.78796","longitude":"77.8008","feature_class":"P","feature_code":"PPL","country_code":"IN","cc2":"","admin1_code":"25","admin2_code":"608","admin3_code":"","admin4_code":"","population":"56743","elevation":"","dem":"205","timezone":"Asia/Kolkata","modification_date":"2014-10-14"},{"geonameid":"1263103","name":"Mettupalayam","asciiname":"Mettupalayam","alternatenames":["Mettupalaiyam","Mettupalayam-Coimbatore","Mettuppalaiyam","Mettuppālaiyam","Mettupālaiyam","mettuppalaiyam","மேட்டுப்பாளையம்"],"latitude":"11.29971","longitude":"76.93485","feature_class":"P","feature_code":"PPL","country_code":"IN","cc2":"","admin1_code":"25","admin2_code":"632","admin3_code":"","admin4_code":"","population":"66944","elevation":"","dem":"331","timezone":"Asia/Kolkata","modification_date":"2014-10-14"},{"geonameid":"1263104","name":"Mettuppālaiyam","asciiname":"Mettuppalaiyam","alternatenames":["Mettupalayam","Mettuppalaiyam","Mettuppālaiyam"],"latitude":"11.16812","longitude":"78.45232","feature_class":"P","feature_code":"PPL","country_code":"IN","cc2":"","admin1_code":"25","admin2_code":"614","admin3_code":"","admin4_code":"","population":"9587","elevation":"","dem":"160","timezone":"Asia/Kolkata","modification_date":"2014-10-14"},{"geonameid":"1263151","name":"Melur","asciiname":"Melur","alternatenames":["Mailore","Melur","Melūr"],"latitude":"10.03241","longitude":"78.3393","feature_class":"P","feature_code":"PPL","country_code":"IN","cc2":"","admin1_code":"25","admin2_code":"623","admin3_code":"","admin4_code":"","population":"33839","elevation":"","dem":"154","timezone":"Asia/Kolkata","modification_date":"2014-10-14"},{"geonameid":"1263247","name":"Mayiladuthurai","asciiname":"Mayiladuthurai","alternatenames":["Mayavaram","Mayaveram","Mayuram","Māyavaram","Māyuram","Māyūram","ma yi la du tu lai","mailadutturai","mayalanduthura'i","mayiladuthuraya","mayiladuturai","mayilatuturai","मयिलदुथुराय","मयीलाडूतुरै","মায়লান্দুথুরাই","மயிலாடுதுறை","మైలాదుత్తురై","马伊拉杜图赖"],"latitude":"11.10354","longitude":"79.655","feature_class":"P","feature_code":"PPL","country_code":"IN","cc2":"","admin1_code":"25","admin2_code":"618","admin3_code":"","admin4_code":"","population":"86660","elevation":"","dem":"16","timezone":"Asia/Kolkata","modification_date":"2014-10-14"},{"geonameid":"1263324","name":"Māttūr","asciiname":"Mattur","alternatenames":["Mattur","Māttūr"],"latitude":"11.31881","longitude":"79.20724","feature_class":"P","feature_code":"PPL","country_code":"IN","cc2":"","admin1_code":"25","admin2_code":"616","admin3_code":"","admin4_code":"","population":"5605","elevation":"","dem":"64","timezone":"Asia/Kolkata","modification_date":"2014-10-14"},{"geonameid":"1263418","name":"Masinigudi","asciiname":"Masinigudi","alternatenames":["Masinigudi","Masnigudi"],"latitude":"11.56791","longitude":"76.64081","feature_class":"P","feature_code":"PPL","country_code":"IN","cc2":"","admin1_code":"25","admin2_code":"611","admin3_code":"","admin4_code":"","population":"9642","elevation":"","dem":"939","timezone":"Asia/Kolkata","modification_date":"2014-10-14"},{"geonameid":"1263557","name":"Mārāndahalli","asciiname":"Marandahalli","alternatenames":["Marandahalli","Marandahally","Mārāndahalli"],"latitude":"12.38895","longitude":"78.00332","feature_class":"P","feature_code":"PPL","country_code":"IN","cc2":"","admin1_code":"25","admin2_code":"630","admin3_code":"","admin4_code":"","population":"10480","elevation":"","dem":"585","timezone":"Asia/Kolkata","modification_date":"2014-10-14"},{"geonameid":"1263564","name":"Marakkanam","asciiname":"Marakkanam","alternatenames":["Marakkanam","Marakkānam","Markanum","Merkanam","Merkānam"],"latitude":"12.19214","longitude":"79.94193","feature_class":"P","feature_code":"PPL","country_code":"IN","cc2":"","admin1_code":"25","admin2_code":"607","admin3_code":"","admin4_code":"","population":"19734","elevation":"","dem":"13","timezone":"Asia/Kolkata","modification_date":"2014-10-14"},{"geonameid":"1263659","name":"Mannargudi","asciiname":"Mannargudi","alternatenames":["Mannargudi","Mannārgudi","ma na er gu di","mannaraguri","mannargudi","mannarkuti","मन्नर्गुडी","মান্নারগুড়ি","மன்னார்குடி","马纳尔古迪"],"latitude":"10.66626","longitude":"79.45064","feature_class":"P","feature_code":"PPL","country_code":"IN","cc2":"","admin1_code":"25","admin2_code":"619","admin3_code":"","admin4_code":"","population":"63148","elevation":"","dem":"23","timezone":"Asia/Kolkata","modification_date":"2014-10-14"},{"geonameid":"1263795","name":"Mangalam","asciiname":"Mangalam","alternatenames":["Mangalam","Mungalum"],"latitude":"9.76572","longitude":"78.63969","feature_class":"P","feature_code":"PPL","country_code":"IN","cc2":"","admin1_code":"25","admin2_code":"622","admin3_code":"","admin4_code":"","population":"11379","elevation":"","dem":"52","timezone":"Asia/Kolkata","modification_date":"2014-10-14"},{"geonameid":"1263900","name":"Mandapam","asciiname":"Mandapam","alternatenames":["Mandapam"],"latitude":"9.27571","longitude":"79.12362","feature_class":"P","feature_code":"PPL","country_code":"IN","cc2":"","admin1_code":"25","admin2_code":"626","admin3_code":"","admin4_code":"","population":"15073","elevation":"","dem":"6","timezone":"Asia/Kolkata","modification_date":"2014-10-14"},{"geonameid":"1263942","name":"Manavalakurichi","asciiname":"Manavalakurichi","alternatenames":["Manavalakurichi"],"latitude":"8.14812","longitude":"77.30634","feature_class":"P","feature_code":"PPL","country_code":"IN","cc2":"","admin1_code":"25","admin2_code":"629","admin3_code":"","admin4_code":"","population":"10720","elevation":"","dem":"19","timezone":"Asia/Kolkata","modification_date":"2014-10-14"},{"geonameid":"1263952","name":"Manapparai","asciiname":"Manapparai","alternatenames":["Manaparai","Manapparai","Manappārai"],"latitude":"10.60772","longitude":"78.42582","feature_class":"P","feature_code":"PPL","country_code":"IN","cc2":"","admin1_code":"25","admin2_code":"614","admin3_code":"","admin4_code":"","population":"36926","elevation":"","dem":"167","timezone":"Asia/Kolkata","modification_date":"2014-10-14"},{"geonameid":"1263965","name":"Manamadurai","asciiname":"Manamadurai","alternatenames":["Manamadura","Manamadurai","Mānāmadurai"],"latitude":"9.67318","longitude":"78.47096","feature_class":"P","feature_code":"PPL","country_code":"IN","cc2":"","admin1_code":"25","admin2_code":"622","admin3_code":"","admin4_code":"","population":"27493","elevation":"","dem":"72","timezone":"Asia/Kolkata","modification_date":"2014-10-14"},{"geonameid":"1263966","name":"Manalūrpettai","asciiname":"Manalurpettai","alternatenames":["Manalurpet","Manalurpettai","Manalūrpettai"],"latitude":"12.00825","longitude":"79.09153","feature_class":"P","feature_code":"PPL","country_code":"IN","cc2":"","admin1_code":"25","admin2_code":"607","admin3_code":"","admin4_code":"","population":"7626","elevation":"","dem":"124","timezone":"Asia/Kolkata","modification_date":"2014-10-14"},{"geonameid":"1263968","name":"Manali","asciiname":"Manali","alternatenames":["Manali"],"latitude":"13.16667","longitude":"80.26667","feature_class":"P","feature_code":"PPL","country_code":"IN","cc2":"","admin1_code":"25","admin2_code":"602","admin3_code":"","admin4_code":"","population":"32363","elevation":"","dem":"6","timezone":"Asia/Kolkata","modification_date":"2014-10-14"},{"geonameid":"1263997","name":"Māmallapuram","asciiname":"Mamallapuram","alternatenames":["Mahabalipur","Mahabalipuram","Mahaballipuram","Mahapalipuram","Mahâballipuram","Mahābalipūr","Makhabalipuram","Mamallapuram","Māmallapuram","Seven Pagodas","mamallapuram","Махабалипурам","மாமல்லபுரம்"],"latitude":"12.61914","longitude":"80.1942","feature_class":"P","feature_code":"PPL","country_code":"IN","cc2":"","admin1_code":"25","admin2_code":"604","admin3_code":"","admin4_code":"","population":"12415","elevation":"","dem":"12","timezone":"Asia/Kolkata","modification_date":"2014-10-14"},{"geonameid":"1264041","name":"Māllur","asciiname":"Mallur","alternatenames":["Mallur","Māllur"],"latitude":"11.54299","longitude":"78.14017","feature_class":"P","feature_code":"PPL","country_code":"IN","cc2":"","admin1_code":"25","admin2_code":"608","admin3_code":"","admin4_code":"","population":"10524","elevation":"","dem":"280","timezone":"Asia/Kolkata","modification_date":"2014-10-14"},{"geonameid":"1264047","name":"Mallasamudram","asciiname":"Mallasamudram","alternatenames":["Mallasamudram"],"latitude":"11.4892","longitude":"78.03277","feature_class":"P","feature_code":"PPL","country_code":"IN","cc2":"","admin1_code":"25","admin2_code":"609","admin3_code":"","admin4_code":"","population":"18820","elevation":"","dem":"222","timezone":"Asia/Kolkata","modification_date":"2014-10-14"},{"geonameid":"1264050","name":"Mallāpuram","asciiname":"Mallapuram","alternatenames":["Mallapuram","Mallāpuram","Manapuram"],"latitude":"11.98123","longitude":"78.24829","feature_class":"P","feature_code":"PPL","country_code":"IN","cc2":"","admin1_code":"25","admin2_code":"630","admin3_code":"","admin4_code":"","population":"11837","elevation":"","dem":"427","timezone":"Asia/Kolkata","modification_date":"2014-10-14"},{"geonameid":"1264520","name":"Madurāntakam","asciiname":"Madurantakam","alternatenames":["Madurantakam","Madurāntakam"],"latitude":"12.51167","longitude":"79.88485","feature_class":"P","feature_code":"PPL","country_code":"IN","cc2":"","admin1_code":"25","admin2_code":"604","admin3_code":"","admin4_code":"","population":"29743","elevation":"","dem":"30","timezone":"Asia/Kolkata","modification_date":"2014-10-14"},{"geonameid":"1264521","name":"Madurai","asciiname":"Madurai","alternatenames":["IXM","Madura","Madurai","Maduraj","Madurajus","Mathurai","m thu ri","ma du lai","madhura","madhurai","mado~urai","madulai","madura'i","madurai","maduraya","madwray","maturai","Мадурай","Мадурај","مادورائ","مادوراي","مادورای","मदुरई","मदुराय","मदुरै","मधुरै","মদুরাই","ਮਦੁਰਈ","મદુરાઇ","மதுரை","మదురై","ಮಧುರೈ","മധുര","มทุไร","მადურაი","マドゥライ","马杜赖","마두라이"],"latitude":"9.91735","longitude":"78.11962","feature_class":"P","feature_code":"PPL","country_code":"IN","cc2":"","admin1_code":"25","admin2_code":"623","admin3_code":"","admin4_code":"","population":"909908","elevation":"","dem":"144","timezone":"Asia/Kolkata","modification_date":"2014-10-14"},{"geonameid":"1264523","name":"Madukkūr","asciiname":"Madukkur","alternatenames":["Madukkur","Madukkūr"],"latitude":"10.48134","longitude":"79.39681","feature_class":"P","feature_code":"PPL","country_code":"IN","cc2":"","admin1_code":"25","admin2_code":"620","admin3_code":"","admin4_code":"","population":"15631","elevation":"","dem":"22","timezone":"Asia/Kolkata","modification_date":"2014-10-14"},{"geonameid":"1264524","name":"Madukkarai","asciiname":"Madukkarai","alternatenames":["Madukarai","Madukkarai","Mudukarai"],"latitude":"10.90481","longitude":"76.96461","feature_class":"P","feature_code":"PPL","country_code":"IN","cc2":"","admin1_code":"25","admin2_code":"632","admin3_code":"","admin4_code":"","population":"29144","elevation":"","dem":"351","timezone":"Asia/Kolkata","modification_date":"2014-10-14"},{"geonameid":"1264527","name":"Chennai","asciiname":"Chennai","alternatenames":["Cenaj","Cenajo","Cenajus","Cenay","Cennai","Cennaj","Chenaj","Chennai","Chennai - cennai","Chennai - சென்னை","Chennaj","Chinapatana","Csennai","Gorad Chehnai","MAA","Madras","Madrás","Tamizhagam","Tamulinadu","Tsennai","cen ni","cena'i","cenna'i","cennai","chen'nai","chenai","chennai","chnay","chnayy","jin nai","tshynay","znʼy","Çenay","Çennai","Ćennaj","Ĉenajo","Čenaj","Čenajus","Čennai","Čennaj","Τσεννάι","Горад Чэнаі","Ченай","Ченај","Ченнаи","Ченнай","Ченнаї","Չեննայ","צנאי","تشيناي","چنائی","چنائے","چنای","चेन्नई","चेन्नै","চেন্নাই","ਚੇਨੱਈ","ચેન્નઈ","ଚେନ୍ନାଇ","சென்னை","చెన్నై","ಚೆನ್ನೈ","ചെന്നൈ","เจนไน","ချန်နိုင်းမြို့","ჩენაი","チェンナイ","金奈","첸나이"],"latitude":"13.08784","longitude":"80.27847","feature_class":"P","feature_code":"PPLA","country_code":"IN","cc2":"","admin1_code":"25","admin2_code":"603","admin3_code":"","admin4_code":"","population":"4328063","elevation":"","dem":"14","timezone":"Asia/Kolkata","modification_date":"2014-10-14"},{"geonameid":"1265163","name":"Lalgudi","asciiname":"Lalgudi","alternatenames":["Lalgudi","Lālgudi"],"latitude":"10.87419","longitude":"78.81935","feature_class":"P","feature_code":"PPL","country_code":"IN","cc2":"","admin1_code":"25","admin2_code":"614","admin3_code":"","admin4_code":"","population":"20916","elevation":"","dem":"66","timezone":"Asia/Kolkata","modification_date":"2014-10-14"},{"geonameid":"1265387","name":"Kuzhithurai","asciiname":"Kuzhithurai","alternatenames":["Kuzhithurai","Kuzhittura"],"latitude":"8.31792","longitude":"77.19192","feature_class":"P","feature_code":"PPL","country_code":"IN","cc2":"","admin1_code":"25","admin2_code":"629","admin3_code":"","admin4_code":"","population":"20611","elevation":"","dem":"57","timezone":"Asia/Kolkata","modification_date":"2014-10-14"},{"geonameid":"1265400","name":"Koothanallur","asciiname":"Koothanallur","alternatenames":["Koothanallur","Kuttanallur","Kūttānallūr"],"latitude":"10.7199","longitude":"79.5157","feature_class":"P","feature_code":"PPL","country_code":"IN","cc2":"","admin1_code":"25","admin2_code":"619","admin3_code":"","admin4_code":"","population":"23257","elevation":"","dem":"14","timezone":"Asia/Kolkata","modification_date":"2014-10-14"},{"geonameid":"1265403","name":"Kuttālam","asciiname":"Kuttalam","alternatenames":["Courtalam","Courtallam","Kurralam","Kuttalam","Kuttālam"],"latitude":"8.9303","longitude":"77.26951","feature_class":"P","feature_code":"PPL","country_code":"IN","cc2":"","admin1_code":"25","admin2_code":"628","admin3_code":"","admin4_code":"","population":"2440","elevation":"","dem":"217","timezone":"Asia/Kolkata","modification_date":"2014-10-14"},{"geonameid":"1265504","name":"Kurinjippādi","asciiname":"Kurinjippadi","alternatenames":["Kurinjipadi","Kurinjippadi","Kurinjippādi"],"latitude":"11.55028","longitude":"79.59066","feature_class":"P","feature_code":"PPL","country_code":"IN","cc2":"","admin1_code":"25","admin2_code":"617","admin3_code":"","admin4_code":"","population":"23017","elevation":"","dem":"22","timezone":"Asia/Kolkata","modification_date":"2014-10-14"},{"geonameid":"1265577","name":"Kunnattūr","asciiname":"Kunnattur","alternatenames":["Kunnattur","Kunnattūr","Kunnatur"],"latitude":"12.34898","longitude":"78.5094","feature_class":"P","feature_code":"PPL","country_code":"IN","cc2":"","admin1_code":"25","admin2_code":"631","admin3_code":"","admin4_code":"","population":"7326","elevation":"","dem":"361","timezone":"Asia/Kolkata","modification_date":"2014-10-14"},{"geonameid":"1265683","name":"Kumbakonam","asciiname":"Kumbakonam","alternatenames":["Kumbakonam","ku mu ba ke na mu","kumbakonama","kumbhakeanam","kumbhakonam","kumbhakonama","kumpakonam","Кумбаконам","कुंभकोणम","कुम्बकोनाम","কুম্ভকোনম","கும்பகோணம்","కుంభకోణం","കുംഭകോണം","库姆巴科纳姆"],"latitude":"10.96209","longitude":"79.39124","feature_class":"P","feature_code":"PPL","country_code":"IN","cc2":"","admin1_code":"25","admin2_code":"620","admin3_code":"","admin4_code":"","population":"139264","elevation":"","dem":"31","timezone":"Asia/Kolkata","modification_date":"2014-10-14"},{"geonameid":"1265697","name":"Kumaralingam","asciiname":"Kumaralingam","alternatenames":[""],"latitude":"10.48801","longitude":"77.35053","feature_class":"P","feature_code":"PPL","country_code":"IN","cc2":"","admin1_code":"25","admin2_code":"633","admin3_code":"","admin4_code":"","population":"12093","elevation":"","dem":"322","timezone":"Asia/Kolkata","modification_date":"2014-10-14"},{"geonameid":"1265723","name":"Kulittalai","asciiname":"Kulittalai","alternatenames":["Kulittalai"],"latitude":"10.93487","longitude":"78.41251","feature_class":"P","feature_code":"PPL","country_code":"IN","cc2":"","admin1_code":"25","admin2_code":"613","admin3_code":"","admin4_code":"","population":"26822","elevation":"","dem":"87","timezone":"Asia/Kolkata","modification_date":"2014-10-14"},{"geonameid":"1265740","name":"Kulattūr","asciiname":"Kulattur","alternatenames":["Kulathur","Kulattur","Kulattūr"],"latitude":"9.00234","longitude":"78.1925","feature_class":"P","feature_code":"PPL","country_code":"IN","cc2":"","admin1_code":"25","admin2_code":"627","admin3_code":"","admin4_code":"","population":"10632","elevation":"","dem":"15","timezone":"Asia/Kolkata","modification_date":"2014-10-14"},{"geonameid":"1265863","name":"Krishnagiri","asciiname":"Krishnagiri","alternatenames":["Krishnagiri","ke li si he na ji li","kiruttinakiri","krsnagiri","kurishunagiri","Кришнагири","कृष्णगिरि","कृष्णगिरी","কৃষ্ণগিরি","કૃષ્ણાગિરિ","கிருட்டினகிரி","クリシュナギリ","克里斯赫纳吉里"],"latitude":"12.51921","longitude":"78.21382","feature_class":"P","feature_code":"PPL","country_code":"IN","cc2":"","admin1_code":"25","admin2_code":"631","admin3_code":"","admin4_code":"","population":"66419","elevation":"","dem":"492","timezone":"Asia/Kolkata","modification_date":"2014-10-14"},{"geonameid":"1265891","name":"Kovilpatti","asciiname":"Kovilpatti","alternatenames":["Koilpatti","Kovilpatti"],"latitude":"9.17167","longitude":"77.86989","feature_class":"P","feature_code":"PPL","country_code":"IN","cc2":"","admin1_code":"25","admin2_code":"627","admin3_code":"","admin4_code":"","population":"90296","elevation":"","dem":"106","timezone":"Asia/Kolkata","modification_date":"2014-10-14"},{"geonameid":"1265933","name":"Kottaiyūr","asciiname":"Kottaiyur","alternatenames":["Kottaiyur","Kottaiyūr"],"latitude":"10.11007","longitude":"78.79555","feature_class":"P","feature_code":"PPL","country_code":"IN","cc2":"","admin1_code":"25","admin2_code":"622","admin3_code":"","admin4_code":"","population":"11519","elevation":"","dem":"102","timezone":"Asia/Kolkata","modification_date":"2014-10-14"},{"geonameid":"1266038","name":"Kotagiri","asciiname":"Kotagiri","alternatenames":["Kotagiri"],"latitude":"11.42072","longitude":"76.86035","feature_class":"P","feature_code":"PPL","country_code":"IN","cc2":"","admin1_code":"25","admin2_code":"611","admin3_code":"","admin4_code":"","population":"28848","elevation":"","dem":"1902","timezone":"Asia/Kolkata","modification_date":"2014-10-14"},{"geonameid":"1266135","name":"Korampallam","asciiname":"Korampallam","alternatenames":[""],"latitude":"8.77506","longitude":"78.09158","feature_class":"P","feature_code":"PPL","country_code":"IN","cc2":"","admin1_code":"25","admin2_code":"627","admin3_code":"","admin4_code":"","population":"3228","elevation":"","dem":"9","timezone":"Asia/Kolkata","modification_date":"2014-10-14"},{"geonameid":"1266144","name":"Koradāchcheri","asciiname":"Koradachcheri","alternatenames":["Koradachcheri","Koradacheri","Koradāchcheri"],"latitude":"10.76987","longitude":"79.49209","feature_class":"P","feature_code":"PPL","country_code":"IN","cc2":"","admin1_code":"25","admin2_code":"619","admin3_code":"","admin4_code":"","population":"6151","elevation":"","dem":"20","timezone":"Asia/Kolkata","modification_date":"2014-10-14"},{"geonameid":"1266189","name":"Konganāpuram","asciiname":"Konganapuram","alternatenames":["Konganapuram","Konganāpuram"],"latitude":"11.58333","longitude":"77.91667","feature_class":"P","feature_code":"PPL","country_code":"IN","cc2":"","admin1_code":"25","admin2_code":"608","admin3_code":"","admin4_code":"","population":"8331","elevation":"","dem":"243","timezone":"Asia/Kolkata","modification_date":"2014-10-14"},{"geonameid":"1266240","name":"Kombai","asciiname":"Kombai","alternatenames":["Kombai","Komebai"],"latitude":"9.84672","longitude":"77.29577","feature_class":"P","feature_code":"PPL","country_code":"IN","cc2":"","admin1_code":"25","admin2_code":"624","admin3_code":"","admin4_code":"","population":"13209","elevation":"","dem":"431","timezone":"Asia/Kolkata","modification_date":"2014-10-14"},{"geonameid":"1266322","name":"Colachel","asciiname":"Colachel","alternatenames":[""],"latitude":"8.17938","longitude":"77.25818","feature_class":"P","feature_code":"PPL","country_code":"IN","cc2":"","admin1_code":"25","admin2_code":"629","admin3_code":"","admin4_code":"","population":"23095","elevation":"","dem":"36","timezone":"Asia/Kolkata","modification_date":"2014-10-14"},{"geonameid":"1266387","name":"Kodumudi","asciiname":"Kodumudi","alternatenames":["Kodumudi"],"latitude":"11.07751","longitude":"77.88363","feature_class":"P","feature_code":"PPL","country_code":"IN","cc2":"","admin1_code":"25","admin2_code":"610","admin3_code":"","admin4_code":"","population":"13053","elevation":"","dem":"135","timezone":"Asia/Kolkata","modification_date":"2014-10-14"},{"geonameid":"1266425","name":"Kodaikānāl","asciiname":"Kodaikanal","alternatenames":["Kodaikan","Kodaikanal","Kodaikān","Kodaikānāl","Kodajkanal","Кодайканал"],"latitude":"10.23925","longitude":"77.48932","feature_class":"P","feature_code":"PPL","country_code":"IN","cc2":"","admin1_code":"25","admin2_code":"612","admin3_code":"","admin4_code":"","population":"35021","elevation":"","dem":"2098","timezone":"Asia/Kolkata","modification_date":"2014-10-14"},{"geonameid":"1266512","name":"Kīranūr","asciiname":"Kiranur","alternatenames":[""],"latitude":"10.59358","longitude":"77.5028","feature_class":"P","feature_code":"PPL","country_code":"IN","cc2":"","admin1_code":"25","admin2_code":"612","admin3_code":"","admin4_code":"","population":"6487","elevation":"","dem":"282","timezone":"Asia/Kolkata","modification_date":"2014-10-14"},{"geonameid":"1266540","name":"Kilvelur","asciiname":"Kilvelur","alternatenames":["Kil Valur","Kilvelur","Kilvelure","Kīl Vālur"],"latitude":"10.76721","longitude":"79.74186","feature_class":"P","feature_code":"PPL","country_code":"IN","cc2":"","admin1_code":"25","admin2_code":"618","admin3_code":"","admin4_code":"","population":"7629","elevation":"","dem":"13","timezone":"Asia/Kolkata","modification_date":"2014-10-14"},{"geonameid":"1267331","name":"Kelamangalam","asciiname":"Kelamangalam","alternatenames":["Kelamangalam","Kelamnagalam"],"latitude":"12.60294","longitude":"77.85214","feature_class":"P","feature_code":"PPL","country_code":"IN","cc2":"","admin1_code":"25","admin2_code":"631","admin3_code":"","admin4_code":"","population":"11328","elevation":"","dem":"794","timezone":"Asia/Kolkata","modification_date":"2014-10-14"},{"geonameid":"1267357","name":"Kayattār","asciiname":"Kayattar","alternatenames":["Kayatar","Kayattar","Kayattār"],"latitude":"8.94708","longitude":"77.77206","feature_class":"P","feature_code":"PPL","country_code":"IN","cc2":"","admin1_code":"25","admin2_code":"627","admin3_code":"","admin4_code":"","population":"10007","elevation":"","dem":"61","timezone":"Asia/Kolkata","modification_date":"2014-10-14"},{"geonameid":"1267361","name":"Kayalpattinam","asciiname":"Kayalpattinam","alternatenames":["Aramaganori","Coilnapatam","Kayalpatnam","Kayalpattinam","Kayalpatuam","Kāyalpatnam","Kāyalpattinam"],"latitude":"8.57143","longitude":"78.11992","feature_class":"P","feature_code":"PPL","country_code":"IN","cc2":"","admin1_code":"25","admin2_code":"627","admin3_code":"","admin4_code":"","population":"36175","elevation":"","dem":"4","timezone":"Asia/Kolkata","modification_date":"2014-10-14"},{"geonameid":"1267385","name":"Kāverippattanam","asciiname":"Kaverippattanam","alternatenames":["Kaveripatnam","Kaveripattinam","Kaverippattanam","Kāveripatnam","Kāverippattanam"],"latitude":"12.41957","longitude":"78.21628","feature_class":"P","feature_code":"PPL","country_code":"IN","cc2":"","admin1_code":"25","admin2_code":"631","admin3_code":"","admin4_code":"","population":"14208","elevation":"","dem":"465","timezone":"Asia/Kolkata","modification_date":"2014-10-14"},{"geonameid":"1267428","name":"Kāttuputtūr","asciiname":"Kattuputtur","alternatenames":["Kattupputtur","Kattuputtur","Katuputur","Kāttupputtūr","Kāttuputtūr"],"latitude":"10.99367","longitude":"78.21929","feature_class":"P","feature_code":"PPL","country_code":"IN","cc2":"","admin1_code":"25","admin2_code":"614","admin3_code":"","admin4_code":"","population":"11040","elevation":"","dem":"115","timezone":"Asia/Kolkata","modification_date":"2014-10-14"},{"geonameid":"1267433","name":"Kattivākkam","asciiname":"Kattivakkam","alternatenames":["Kattivakkam","Kattivākkam"],"latitude":"13.21667","longitude":"80.31667","feature_class":"P","feature_code":"PPL","country_code":"IN","cc2":"","admin1_code":"25","admin2_code":"602","admin3_code":"","admin4_code":"","population":"34595","elevation":"","dem":"2","timezone":"Asia/Kolkata","modification_date":"2014-10-14"},{"geonameid":"1267456","name":"Kātpādi","asciiname":"Katpadi","alternatenames":["Katpadi","Kātpādi"],"latitude":"12.96951","longitude":"79.14552","feature_class":"P","feature_code":"PPL","country_code":"IN","cc2":"","admin1_code":"25","admin2_code":"605","admin3_code":"","admin4_code":"","population":"16408","elevation":"","dem":"213","timezone":"Asia/Kolkata","modification_date":"2014-10-14"},{"geonameid":"1267648","name":"Karur","asciiname":"Karur","alternatenames":["Karur","Karūr","ka lu er","kaluleu","karur","karura","karuru","krwr","Карур","كرور","करुर","करूर","কারুর","કરુર","கரூர்","കരൂർ","カルール","卡鲁尔","카루르"],"latitude":"10.95771","longitude":"78.08095","feature_class":"P","feature_code":"PPL","country_code":"IN","cc2":"","admin1_code":"25","admin2_code":"613","admin3_code":"","admin4_code":"","population":"76915","elevation":"","dem":"126","timezone":"Asia/Kolkata","modification_date":"2014-10-14"},{"geonameid":"1267660","name":"Karumbākkam","asciiname":"Karumbakkam","alternatenames":["Karumbakham","Karumbakkam","Karumbākkam"],"latitude":"12.70326","longitude":"80.09231","feature_class":"P","feature_code":"PPL","country_code":"IN","cc2":"","admin1_code":"25","admin2_code":"604","admin3_code":"","admin4_code":"","population":"11992","elevation":"","dem":"34","timezone":"Asia/Kolkata","modification_date":"2014-10-14"},{"geonameid":"1267745","name":"Kariapatti","asciiname":"Kariapatti","alternatenames":["Kariapatti","Kariyapatti","Kariyapattinam","Kāriyāpatti"],"latitude":"9.67505","longitude":"78.09992","feature_class":"P","feature_code":"PPL","country_code":"IN","cc2":"","admin1_code":"25","admin2_code":"625","admin3_code":"","admin4_code":"","population":"14398","elevation":"","dem":"91","timezone":"Asia/Kolkata","modification_date":"2014-10-14"},{"geonameid":"1267867","name":"Karambakkudi","asciiname":"Karambakkudi","alternatenames":["Karambakkudi","Karambakuduy"],"latitude":"10.45787","longitude":"79.13971","feature_class":"P","feature_code":"PPL","country_code":"IN","cc2":"","admin1_code":"25","admin2_code":"621","admin3_code":"","admin4_code":"","population":"12371","elevation":"","dem":"50","timezone":"Asia/Kolkata","modification_date":"2014-10-14"},{"geonameid":"1267869","name":"Kāramadai","asciiname":"Karamadai","alternatenames":["Karamadai","Kāramadai","karamatai","காரமடை"],"latitude":"11.24058","longitude":"76.96009","feature_class":"P","feature_code":"PPL","country_code":"IN","cc2":"","admin1_code":"25","admin2_code":"632","admin3_code":"","admin4_code":"","population":"31188","elevation":"","dem":"367","timezone":"Asia/Kolkata","modification_date":"2014-10-14"},{"geonameid":"1267885","name":"Kāraikkudi","asciiname":"Karaikkudi","alternatenames":["Karaikkudi","Karaikudi","Kāraikkudi"],"latitude":"10.0661","longitude":"78.76787","feature_class":"P","feature_code":"PPL","country_code":"IN","cc2":"","admin1_code":"25","admin2_code":"622","admin3_code":"","admin4_code":"","population":"91908","elevation":"","dem":"85","timezone":"Asia/Kolkata","modification_date":"2014-10-14"},