{"region_data":{"countryId":"1269750","adminCode1":"26","countryName":"India","fclName":"country, state, region,...","countryCode":"IN","lng":"92","fcodeName":"first-order administrative division","toponymName":"Tripura","fcl":"A","numberOfChildren":4,"name":"Tripura","fcode":"ADM1","geonameId":1254169,"lat":"24","adminName1":"Tripura","population":3673917},"country_data":{"ISO":"IN","ISO3":"IND","ISO_Numeric":"356","fips":"IN","country":"India","capital":"New Delhi","area":"3287590","Population":"1173108018","Continent":"AS","tld":".in","CurrencyCode":"INR","CurrencyName":"Rupee","Phone":"91","Postal_Code_Format":"######","Postal_Code_Regex":"^(\\d{6})$","Languages":"en-IN,hi,bn,te,mr,ta,ur,gu,kn,ml,or,pa,as,bh,sat,ks,ne,sd,kok,doi,mni,sit,sa,fr,lus,inc","geonameid":"1269750","neighbours":"CN,NP,MM,BT,PK,BD","EquivalentFipsCode":""},"cities":[{"geonameid":"1253987","name":"Udaipur","asciiname":"Udaipur","alternatenames":["Udaipur","Udajpur","Удайпур"],"latitude":"23.53333","longitude":"91.48333","feature_class":"P","feature_code":"PPL","country_code":"IN","cc2":"","admin1_code":"26","admin2_code":"290","admin3_code":"","admin4_code":"","population":"23290","elevation":"","dem":"28","timezone":"Asia/Kolkata","modification_date":"2014-10-14"},{"geonameid":"1255791","name":"Sonāmura","asciiname":"Sonamura","alternatenames":["Sonamura","Sonāmura"],"latitude":"23.47547","longitude":"91.2659","feature_class":"P","feature_code":"PPL","country_code":"IN","cc2":"","admin1_code":"26","admin2_code":"289","admin3_code":"","admin4_code":"","population":"10821","elevation":"","dem":"23","timezone":"Asia/Kolkata","modification_date":"2014-10-14"},{"geonameid":"1257908","name":"Sabrūm","asciiname":"Sabrum","alternatenames":["Sabroom","Sabrum","Sabrūm"],"latitude":"23.00153","longitude":"91.72427","feature_class":"P","feature_code":"PPL","country_code":"IN","cc2":"","admin1_code":"26","admin2_code":"290","admin3_code":"","admin4_code":"","population":"6205","elevation":"","dem":"26","timezone":"Asia/Kolkata","modification_date":"2014-10-14"},{"geonameid":"1258447","name":"Rānīr Bāzār","asciiname":"Ranir Bazar","alternatenames":[""],"latitude":"23.83463","longitude":"91.36614","feature_class":"P","feature_code":"PPL","country_code":"IN","cc2":"","admin1_code":"26","admin2_code":"289","admin3_code":"","admin4_code":"","population":"11810","elevation":"","dem":"23","timezone":"Asia/Kolkata","modification_date":"2014-10-14"},{"geonameid":"1266649","name":"Khowai","asciiname":"Khowai","alternatenames":["IXN","Khowai"],"latitude":"24.07964","longitude":"91.59972","feature_class":"P","feature_code":"PPL","country_code":"IN","cc2":"","admin1_code":"26","admin2_code":"","admin3_code":"","admin4_code":"","population":"20046","elevation":"","dem":"33","timezone":"Asia/Kolkata","modification_date":"2013-10-30"},{"geonameid":"1268271","name":"Kamalpur","asciiname":"Kamalpur","alternatenames":["Kamalpur"],"latitude":"24.19593","longitude":"91.83438","feature_class":"P","feature_code":"PPL","country_code":"IN","cc2":"","admin1_code":"26","admin2_code":"291","admin3_code":"","admin4_code":"","population":"5508","elevation":"","dem":"40","timezone":"Asia/Kolkata","modification_date":"2014-10-14"},{"geonameid":"1268622","name":"Kailāshahar","asciiname":"Kailashahar","alternatenames":["Kailasahar","Kailashahar","Kailāshahar"],"latitude":"24.33199","longitude":"92.00391","feature_class":"P","feature_code":"PPL","country_code":"IN","cc2":"","admin1_code":"26","admin2_code":"292","admin3_code":"","admin4_code":"","population":"22120","elevation":"","dem":"32","timezone":"Asia/Kolkata","modification_date":"2014-10-14"},{"geonameid":"1272852","name":"Dharmanagar","asciiname":"Dharmanagar","alternatenames":["Dharmanagar"],"latitude":"24.36667","longitude":"92.16667","feature_class":"P","feature_code":"PPL","country_code":"IN","cc2":"","admin1_code":"26","admin2_code":"292","admin3_code":"","admin4_code":"","population":"32912","elevation":"","dem":"32","timezone":"Asia/Kolkata","modification_date":"2014-10-14"},{"geonameid":"1276502","name":"Belonia","asciiname":"Belonia","alternatenames":["Belonia","Beloniya"],"latitude":"23.25178","longitude":"91.45407","feature_class":"P","feature_code":"PPL","country_code":"IN","cc2":"","admin1_code":"26","admin2_code":"290","admin3_code":"","admin4_code":"","population":"16735","elevation":"","dem":"21","timezone":"Asia/Kolkata","modification_date":"2014-10-14"},{"geonameid":"1276938","name":"Barjala","asciiname":"Barjala","alternatenames":[""],"latitude":"23.6182","longitude":"91.35596","feature_class":"P","feature_code":"PPL","country_code":"IN","cc2":"","admin1_code":"26","admin2_code":"289","admin3_code":"","admin4_code":"","population":"17998","elevation":"","dem":"43","timezone":"Asia/Kolkata","modification_date":"2014-10-14"},{"geonameid":"1278842","name":"Āmbāsa","asciiname":"Ambasa","alternatenames":[""],"latitude":"23.936","longitude":"91.85436","feature_class":"P","feature_code":"PPL","country_code":"IN","cc2":"","admin1_code":"26","admin2_code":"291","admin3_code":"","admin4_code":"","population":"6373","elevation":"","dem":"81","timezone":"Asia/Kolkata","modification_date":"2014-10-14"},{"geonameid":"1278897","name":"Amarpur","asciiname":"Amarpur","alternatenames":["Amarpur"],"latitude":"23.5257","longitude":"91.65879","feature_class":"P","feature_code":"PPL","country_code":"IN","cc2":"","admin1_code":"26","admin2_code":"290","admin3_code":"","admin4_code":"","population":"11906","elevation":"","dem":"42","timezone":"Asia/Kolkata","modification_date":"2014-10-14"},{"geonameid":"1279290","name":"Agartala","asciiname":"Agartala","alternatenames":["Agartala","Agratala","Ajarthala","Ankartala","Aqartala","IXA","a jia er ta la","agaleutalla","agaratala","agartala","agarutara","agrtla","akartala","Αγκαρτάλα","Агартала","اگارتالا","اگرتلا","अगरतला","अगरताल","अगर्तला","আগরতলা","ਅਗਰਤਲਾ","અગરતલા","ଅଗରତାଲା","அகர்தலா","అగర్తలా","ಅಗರ್ತಲ","അഗർത്തല","აგარტალა","アガルタラ","阿加尔塔拉","아가르탈라"],"latitude":"23.83605","longitude":"91.27939","feature_class":"P","feature_code":"PPLA","country_code":"IN","cc2":"","admin1_code":"26","admin2_code":"289","admin3_code":"","admin4_code":"","population":"203264","elevation":"","dem":"15","timezone":"Asia/Kolkata","modification_date":"2014-10-14"}]}