{"region_data":{"countryId":"3625428","adminCode1":"03","countryName":"Venezuela","fclName":"country, state, region,...","countryCode":"VE","lng":"-68.83333","fcodeName":"first-order administrative division","toponymName":"Estado Apure","fcl":"A","numberOfChildren":7,"name":"Apure","fcode":"ADM1","geonameId":3649151,"lat":"7.16667","adminName1":"Apure","population":473900},"country_data":{"ISO":"VE","ISO3":"VEN","ISO_Numeric":"862","fips":"VE","country":"Venezuela","capital":"Caracas","area":"912050","Population":"27223228","Continent":"SA","tld":".ve","CurrencyCode":"VEF","CurrencyName":"Bolivar","Phone":"58","Postal_Code_Format":"####","Postal_Code_Regex":"^(\\d{4})$","Languages":"es-VE","geonameid":"3625428","neighbours":"GY,BR,CO","EquivalentFipsCode":""},"cities":[{"geonameid":"3642390","name":"Elorza","asciiname":"Elorza","alternatenames":["EOZ","Elorza","Paso del Viento"],"latitude":"7.06088","longitude":"-69.49765","feature_class":"P","feature_code":"PPLA2","country_code":"VE","cc2":"","admin1_code":"03","admin2_code":"0406","admin3_code":"","admin4_code":"","population":"0","elevation":"","dem":"94","timezone":"America/Caracas","modification_date":"2012-01-03"},{"geonameid":"3647931","name":"Bruzual","asciiname":"Bruzual","alternatenames":["Bruzual"],"latitude":"8.05052","longitude":"-69.33257","feature_class":"P","feature_code":"PPLA2","country_code":"VE","cc2":"","admin1_code":"03","admin2_code":"0403","admin3_code":"","admin4_code":"","population":"0","elevation":"","dem":"85","timezone":"America/Caracas","modification_date":"2012-01-03"},{"geonameid":"3648279","name":"Biruaca","asciiname":"Biruaca","alternatenames":["Biruaca"],"latitude":"7.84483","longitude":"-67.51679","feature_class":"P","feature_code":"PPLA2","country_code":"VE","cc2":"","admin1_code":"03","admin2_code":"0402","admin3_code":"","admin4_code":"","population":"0","elevation":"","dem":"51","timezone":"America/Caracas","modification_date":"2012-01-03"},{"geonameid":"3804949","name":"Guasdualito","asciiname":"Guasdualito","alternatenames":["GDO","Guasdalito","Guasdualito"],"latitude":"7.24241","longitude":"-70.73235","feature_class":"P","feature_code":"PPL","country_code":"VE","cc2":"","admin1_code":"03","admin2_code":"","admin3_code":"","admin4_code":"","population":"30860","elevation":"","dem":"130","timezone":"America/Caracas","modification_date":"2013-05-16"},{"geonameid":"3805673","name":"San Fernando Apure","asciiname":"San Fernando Apure","alternatenames":["San Fernando Apure","San Fernando de Apure"],"latitude":"7.88782","longitude":"-67.47236","feature_class":"P","feature_code":"PPLA","country_code":"VE","cc2":"","admin1_code":"03","admin2_code":"","admin3_code":"","admin4_code":"","population":"78779","elevation":"","dem":"51","timezone":"America/Caracas","modification_date":"2012-01-03"},{"geonameid":"3805700","name":"San Juan de Payara","asciiname":"San Juan de Payara","alternatenames":["San Juan de Payara"],"latitude":"7.6456","longitude":"-67.60674","feature_class":"P","feature_code":"PPLA2","country_code":"VE","cc2":"","admin1_code":"03","admin2_code":"0405","admin3_code":"","admin4_code":"","population":"0","elevation":"","dem":"53","timezone":"America/Caracas","modification_date":"2012-01-03"}]}