{"region_data":{"adminCode1":"07","lng":"75","geonameId":1168878,"toponymName":"Northern Areas","countryId":"1168579","fcl":"A","population":0,"numberOfChildren":7,"countryCode":"PK","name":"Gilgit-Baltistan","fclName":"country, state, region,...","countryName":"Pakistan","fcodeName":"first-order administrative division","adminName1":"Gilgit-Baltistan","lat":"36","fcode":"ADM1"},"country_data":{"ISO":"PK","ISO3":"PAK","ISO_Numeric":"586","fips":"PK","country":"Pakistan","capital":"Islamabad","area":"803940","Population":"184404791","Continent":"AS","tld":".pk","CurrencyCode":"PKR","CurrencyName":"Rupee","Phone":"92","Postal_Code_Format":"#####","Postal_Code_Regex":"^(\\d{5})$","Languages":"ur-PK,en-PK,pa,sd,ps,brh","geonameid":"1168579","neighbours":"CN,AF,IR,IN","EquivalentFipsCode":""},"cities":[{"geonameid":"1164709","name":"Skārdu","asciiname":"Skardu","alternatenames":["Shardu","Skardo","Skardu","Skārdu"],"latitude":"35.28851","longitude":"75.63334","feature_class":"P","feature_code":"PPLA2","country_code":"PK","cc2":"","admin1_code":"07","admin2_code":"","admin3_code":"","admin4_code":"","population":"2100","elevation":"","dem":"2257","timezone":"Asia/Karachi","modification_date":"2012-01-17"},{"geonameid":"1174094","name":"Khapalu","asciiname":"Khapalu","alternatenames":[""],"latitude":"35.15268","longitude":"76.34404","feature_class":"P","feature_code":"PPLA2","country_code":"PK","cc2":"","admin1_code":"07","admin2_code":"","admin3_code":"","admin4_code":"","population":"0","elevation":"","dem":"2591","timezone":"Asia/Karachi","modification_date":"2011-07-09"},{"geonameid":"1178338","name":"Gilgit","asciiname":"Gilgit","alternatenames":["GIL","Gilghit","Gilgit","glgt","گلگت"],"latitude":"35.91869","longitude":"74.31245","feature_class":"P","feature_code":"PPLA","country_code":"PK","cc2":"","admin1_code":"07","admin2_code":"","admin3_code":"","admin4_code":"","population":"10414","elevation":"","dem":"1467","timezone":"Asia/Karachi","modification_date":"2013-11-12"},{"geonameid":"1179082","name":"Gākuch","asciiname":"Gakuch","alternatenames":["Gakuch","Gākuch"],"latitude":"36.17683","longitude":"73.76383","feature_class":"P","feature_code":"PPLA2","country_code":"PK","cc2":"","admin1_code":"07","admin2_code":"","admin3_code":"","admin4_code":"","population":"0","elevation":"","dem":"1892","timezone":"Asia/Karachi","modification_date":"2012-01-17"},{"geonameid":"1181138","name":"Chilas","asciiname":"Chilas","alternatenames":["CHB","Chilas","chlas","چلاس"],"latitude":"35.41172","longitude":"74.10352","feature_class":"P","feature_code":"PPLA2","country_code":"PK","cc2":"","admin1_code":"07","admin2_code":"","admin3_code":"","admin4_code":"","population":"0","elevation":"1141","dem":"1278","timezone":"Asia/Karachi","modification_date":"2013-05-09"},{"geonameid":"1184701","name":"Alīābad","asciiname":"Aliabad","alternatenames":[""],"latitude":"36.30703","longitude":"74.61545","feature_class":"P","feature_code":"PPLA2","country_code":"PK","cc2":"","admin1_code":"07","admin2_code":"","admin3_code":"","admin4_code":"","population":"0","elevation":"","dem":"2217","timezone":"Asia/Karachi","modification_date":"2011-07-09"},{"geonameid":"7423730","name":"Īdgāh","asciiname":"Idgah","alternatenames":[""],"latitude":"35.3447","longitude":"74.8561","feature_class":"P","feature_code":"PPLA2","country_code":"PK","cc2":"","admin1_code":"07","admin2_code":"","admin3_code":"","admin4_code":"","population":"0","elevation":"","dem":"2352","timezone":"Asia/Karachi","modification_date":"2010-08-07"},{"geonameid":"7427939","name":"Barishāl","asciiname":"Barishal","alternatenames":[""],"latitude":"36.3163","longitude":"74.6786","feature_class":"P","feature_code":"PPL","country_code":"PK","cc2":"","admin1_code":"07","admin2_code":"","admin3_code":"","admin4_code":"","population":"2005","elevation":"","dem":"2230","timezone":"Asia/Karachi","modification_date":"2011-02-05"}]}