{"region_data":{"countryId":"3595528","adminCode1":"14","countryName":"Guatemala","fclName":"country, state, region,...","countryCode":"GT","lng":"-90.91667","fcodeName":"first-order administrative division","toponymName":"Departamento del Quiché","fcl":"A","numberOfChildren":21,"name":"Departamento del Quiché","fcode":"ADM1","geonameId":3590964,"lat":"15.5","adminName1":"Quiché","population":0},"country_data":{"ISO":"GT","ISO3":"GTM","ISO_Numeric":"320","fips":"GT","country":"Guatemala","capital":"Guatemala City","area":"108890","Population":"13550440","Continent":"NA","tld":".gt","CurrencyCode":"GTQ","CurrencyName":"Quetzal","Phone":"502","Postal_Code_Format":"#####","Postal_Code_Regex":"^(\\d{5})$","Languages":"es-GT","geonameid":"3595528","neighbours":"MX,HN,BZ,SV","EquivalentFipsCode":""},"cities":[{"geonameid":"3587578","name":"Zacualpa","asciiname":"Zacualpa","alternatenames":["Zacualpa"],"latitude":"15.08333","longitude":"-90.83333","feature_class":"P","feature_code":"PPLA2","country_code":"GT","cc2":"","admin1_code":"14","admin2_code":"","admin3_code":"","admin4_code":"","population":"9241","elevation":"","dem":"1920","timezone":"America/Guatemala","modification_date":"2015-02-06"},{"geonameid":"3588043","name":"Uspantán","asciiname":"Uspantan","alternatenames":["San Miguel Uspantan","San Miguel Uspantán","Uspantan","Uspantán"],"latitude":"15.38333","longitude":"-90.83333","feature_class":"P","feature_code":"PPLA2","country_code":"GT","cc2":"","admin1_code":"14","admin2_code":"","admin3_code":"","admin4_code":"","population":"4714","elevation":"","dem":"2349","timezone":"America/Guatemala","modification_date":"2015-02-06"},{"geonameid":"3589404","name":"Santa Cruz del Quiché","asciiname":"Santa Cruz del Quiche","alternatenames":["AQB","Santa Cruz del Quiche","Santa Cruz del Quiché","Santa-Krus-del'-Kiche","Санта-Крус-дель-Киче"],"latitude":"15.03056","longitude":"-91.14889","feature_class":"P","feature_code":"PPLA","country_code":"GT","cc2":"","admin1_code":"14","admin2_code":"","admin3_code":"","admin4_code":"","population":"23618","elevation":"","dem":"2020","timezone":"America/Guatemala","modification_date":"2013-05-08"},{"geonameid":"3589640","name":"San Pedro Jocopilas","asciiname":"San Pedro Jocopilas","alternatenames":["San Pedro Jocopilas"],"latitude":"15.09444","longitude":"-91.15139","feature_class":"P","feature_code":"PPLA2","country_code":"GT","cc2":"","admin1_code":"14","admin2_code":"","admin3_code":"","admin4_code":"","population":"1040","elevation":"","dem":"2134","timezone":"America/Guatemala","modification_date":"2015-02-06"},{"geonameid":"3589824","name":"San Luis Ixcán","asciiname":"San Luis Ixcan","alternatenames":[""],"latitude":"15.78722","longitude":"-91.095","feature_class":"P","feature_code":"PPL","country_code":"GT","cc2":"","admin1_code":"14","admin2_code":"","admin3_code":"","admin4_code":"","population":"7850","elevation":"","dem":"294","timezone":"America/Guatemala","modification_date":"2006-01-17"},{"geonameid":"3589913","name":"San Juan Cotzal","asciiname":"San Juan Cotzal","alternatenames":["San Juan Cotzal"],"latitude":"15.43417","longitude":"-91.03417","feature_class":"P","feature_code":"PPLA2","country_code":"GT","cc2":"","admin1_code":"14","admin2_code":"","admin3_code":"","admin4_code":"","population":"11046","elevation":"","dem":"1765","timezone":"America/Guatemala","modification_date":"2015-02-06"},{"geonameid":"3590395","name":"San Bartolomé Jocotenango","asciiname":"San Bartolome Jocotenango","alternatenames":["San Bartolome Jocotenango","San Bartolomé Jocotenango"],"latitude":"15.19278","longitude":"-91.07722","feature_class":"P","feature_code":"PPLA2","country_code":"GT","cc2":"","admin1_code":"14","admin2_code":"","admin3_code":"","admin4_code":"","population":"1620","elevation":"","dem":"1538","timezone":"America/Guatemala","modification_date":"2015-02-06"},{"geonameid":"3590456","name":"San Antonio Ilotenango","asciiname":"San Antonio Ilotenango","alternatenames":["San Antonio Ilotenango"],"latitude":"15.05472","longitude":"-91.22972","feature_class":"P","feature_code":"PPLA2","country_code":"GT","cc2":"","admin1_code":"14","admin2_code":"","admin3_code":"","admin4_code":"","population":"2021","elevation":"","dem":"1946","timezone":"America/Guatemala","modification_date":"2015-02-06"},{"geonameid":"3590526","name":"San Andrés Sajcabajá","asciiname":"San Andres Sajcabaja","alternatenames":["San Andres Sajcabaja","San Andrés Sajcabajá"],"latitude":"15.21667","longitude":"-90.91667","feature_class":"P","feature_code":"PPLA2","country_code":"GT","cc2":"","admin1_code":"14","admin2_code":"","admin3_code":"","admin4_code":"","population":"1988","elevation":"","dem":"1373","timezone":"America/Guatemala","modification_date":"2015-02-06"},{"geonameid":"3590690","name":"Sacapulas","asciiname":"Sacapulas","alternatenames":["Sacapulas"],"latitude":"15.28667","longitude":"-91.08722","feature_class":"P","feature_code":"PPLA2","country_code":"GT","cc2":"","admin1_code":"14","admin2_code":"","admin3_code":"","admin4_code":"","population":"12088","elevation":"","dem":"1227","timezone":"America/Guatemala","modification_date":"2015-02-06"},{"geonameid":"3591216","name":"Playa Grande","asciiname":"Playa Grande","alternatenames":["PKJ","Playa Grande"],"latitude":"15.93333","longitude":"-90.73333","feature_class":"P","feature_code":"PPLA2","country_code":"GT","cc2":"","admin1_code":"14","admin2_code":"","admin3_code":"","admin4_code":"","population":"0","elevation":"","dem":"185","timezone":"America/Guatemala","modification_date":"2015-02-06"},{"geonameid":"3591517","name":"Patzité","asciiname":"Patzite","alternatenames":["Patzite","Patzité"],"latitude":"14.96667","longitude":"-91.21667","feature_class":"P","feature_code":"PPLA2","country_code":"GT","cc2":"","admin1_code":"14","admin2_code":"","admin3_code":"","admin4_code":"","population":"1003","elevation":"","dem":"2313","timezone":"America/Guatemala","modification_date":"2015-02-06"},{"geonameid":"3591955","name":"Pachalun","asciiname":"Pachalun","alternatenames":["Pachalum","Pachalun"],"latitude":"14.92472","longitude":"-90.66278","feature_class":"P","feature_code":"PPLA2","country_code":"GT","cc2":"","admin1_code":"14","admin2_code":"","admin3_code":"","admin4_code":"","population":"2344","elevation":"","dem":"1227","timezone":"America/Guatemala","modification_date":"2015-02-06"},{"geonameid":"3592237","name":"Nebaj","asciiname":"Nebaj","alternatenames":["Nebaj"],"latitude":"15.40583","longitude":"-91.14611","feature_class":"P","feature_code":"PPLA2","country_code":"GT","cc2":"","admin1_code":"14","admin2_code":"","admin3_code":"","admin4_code":"","population":"23301","elevation":"","dem":"1906","timezone":"America/Guatemala","modification_date":"2015-02-06"},{"geonameid":"3595148","name":"Joyabaj","asciiname":"Joyabaj","alternatenames":["Joyabaj"],"latitude":"14.995","longitude":"-90.80611","feature_class":"P","feature_code":"PPLA2","country_code":"GT","cc2":"","admin1_code":"14","admin2_code":"","admin3_code":"","admin4_code":"","population":"13164","elevation":"","dem":"1432","timezone":"America/Guatemala","modification_date":"2015-02-06"},{"geonameid":"3597772","name":"Cunén","asciiname":"Cunen","alternatenames":["Cunen","Cunén"],"latitude":"15.3375","longitude":"-91.02694","feature_class":"P","feature_code":"PPLA2","country_code":"GT","cc2":"","admin1_code":"14","admin2_code":"","admin3_code":"","admin4_code":"","population":"8400","elevation":"","dem":"1829","timezone":"America/Guatemala","modification_date":"2015-02-06"},{"geonameid":"3598513","name":"Chinique","asciiname":"Chinique","alternatenames":["Chinique"],"latitude":"15.04472","longitude":"-91.02583","feature_class":"P","feature_code":"PPLA2","country_code":"GT","cc2":"","admin1_code":"14","admin2_code":"","admin3_code":"","admin4_code":"","population":"2693","elevation":"","dem":"1920","timezone":"America/Guatemala","modification_date":"2015-02-06"},{"geonameid":"3598655","name":"Chichicastenango","asciiname":"Chichicastenango","alternatenames":["Chichicastenango","Chichikastenango","Santo Tomas Chichicastenango","Santo Tomás Chichicastenango","Чичикастенанго"],"latitude":"14.93333","longitude":"-91.11667","feature_class":"P","feature_code":"PPLA2","country_code":"GT","cc2":"","admin1_code":"14","admin2_code":"","admin3_code":"","admin4_code":"","population":"79759","elevation":"","dem":"2139","timezone":"America/Guatemala","modification_date":"2015-02-06"},{"geonameid":"3598659","name":"Chiché","asciiname":"Chiche","alternatenames":["Chiche","Chiché"],"latitude":"15.00861","longitude":"-91.065","feature_class":"P","feature_code":"PPLA2","country_code":"GT","cc2":"","admin1_code":"14","admin2_code":"","admin3_code":"","admin4_code":"","population":"2406","elevation":"","dem":"2004","timezone":"America/Guatemala","modification_date":"2015-02-06"},{"geonameid":"3598670","name":"Chicamán","asciiname":"Chicaman","alternatenames":["Chicaman","Chicamán"],"latitude":"15.4","longitude":"-90.76667","feature_class":"P","feature_code":"PPLA2","country_code":"GT","cc2":"","admin1_code":"14","admin2_code":"","admin3_code":"","admin4_code":"","population":"2090","elevation":"","dem":"1528","timezone":"America/Guatemala","modification_date":"2015-02-06"},{"geonameid":"3598804","name":"Chajul","asciiname":"Chajul","alternatenames":["Chajul"],"latitude":"15.48528","longitude":"-91.03417","feature_class":"P","feature_code":"PPLA2","country_code":"GT","cc2":"","admin1_code":"14","admin2_code":"3598803","admin3_code":"","admin4_code":"","population":"11657","elevation":"","dem":"1983","timezone":"America/Guatemala","modification_date":"2012-02-07"},{"geonameid":"3599094","name":"Canillá","asciiname":"Canilla","alternatenames":["Canilla","Canillá","Caniya","Caniyá"],"latitude":"15.16667","longitude":"-90.85","feature_class":"P","feature_code":"PPLA2","country_code":"GT","cc2":"","admin1_code":"14","admin2_code":"","admin3_code":"","admin4_code":"","population":"1698","elevation":"","dem":"1216","timezone":"America/Guatemala","modification_date":"2015-02-06"}]}