{"region_data":{"countryId":"1512440","adminCode1":"10","countryName":"Uzbekistan","fclName":"country, state, region,...","countryCode":"UZ","lng":"66.58333","fcodeName":"first-order administrative division","toponymName":"Samarqand Viloyati","fcl":"A","numberOfChildren":22,"name":"Samarqand Viloyati","fcode":"ADM1","geonameId":1114927,"lat":"39.58333","adminName1":"Samarqand","population":0},"country_data":{"ISO":"UZ","ISO3":"UZB","ISO_Numeric":"860","fips":"UZ","country":"Uzbekistan","capital":"Tashkent","area":"447400","Population":"27865738","Continent":"AS","tld":".uz","CurrencyCode":"UZS","CurrencyName":"Som","Phone":"998","Postal_Code_Format":"######","Postal_Code_Regex":"^(\\d{6})$","Languages":"uz,ru,tg","geonameid":"1512440","neighbours":"TM,AF,KG,TJ,KZ","EquivalentFipsCode":""},"cities":[{"geonameid":"1215839","name":"Urgut","asciiname":"Urgut","alternatenames":["Urgut","Ургут"],"latitude":"39.40222","longitude":"67.24306","feature_class":"P","feature_code":"PPL","country_code":"UZ","cc2":"","admin1_code":"10","admin2_code":"","admin3_code":"","admin4_code":"","population":"47373","elevation":"","dem":"1013","timezone":"Asia/Samarkand","modification_date":"2012-01-17"},{"geonameid":"1216265","name":"Samarqand","asciiname":"Samarqand","alternatenames":["SKD","Samarcanda","Samarcande","Samarkand","Samarkanda","Samarkandas","Samarkando","Samarqand","Semerkant","Semerqend","sa ma er han","samaleukanteu","samarukando","smrqnd","Самарканд","סמרקנד","سمرقند","サマルカンド","撒馬爾罕","撒马尔罕","사마르칸트"],"latitude":"39.65417","longitude":"66.95972","feature_class":"P","feature_code":"PPLA","country_code":"UZ","cc2":"","admin1_code":"10","admin2_code":"","admin3_code":"","admin4_code":"","population":"319366","elevation":"","dem":"719","timezone":"Asia/Samarkand","modification_date":"2012-01-17"},{"geonameid":"1216982","name":"Kattaqo’rg’on","asciiname":"Kattaqo'rg'on","alternatenames":["Kattakurgan","Kattaqo'rg'on","Kattaqo’rg’on","Kattaqurghon","Kattaqŭrghon"],"latitude":"39.89889","longitude":"66.25611","feature_class":"P","feature_code":"PPL","country_code":"UZ","cc2":"","admin1_code":"10","admin2_code":"","admin3_code":"","admin4_code":"","population":"59382","elevation":"","dem":"486","timezone":"Asia/Samarkand","modification_date":"2012-01-17"},{"geonameid":"1217215","name":"Ishtixon","asciiname":"Ishtixon","alternatenames":["Ishtihon","Ishtikhon","Ishtixon","Ishtykhan"],"latitude":"39.96639","longitude":"66.48611","feature_class":"P","feature_code":"PPL","country_code":"UZ","cc2":"","admin1_code":"10","admin2_code":"","admin3_code":"","admin4_code":"","population":"13024","elevation":"","dem":"516","timezone":"Asia/Samarkand","modification_date":"2012-01-17"},{"geonameid":"1217362","name":"Juma","asciiname":"Juma","alternatenames":["Dzhuma","Juma"],"latitude":"39.71611","longitude":"66.66417","feature_class":"P","feature_code":"PPL","country_code":"UZ","cc2":"","admin1_code":"10","admin2_code":"","admin3_code":"","admin4_code":"","population":"19920","elevation":"","dem":"626","timezone":"Asia/Samarkand","modification_date":"2012-01-17"},{"geonameid":"1217414","name":"Jomboy","asciiname":"Jomboy","alternatenames":["Dzhambay","Jomboy","Khashdala","Khoshdala"],"latitude":"39.69889","longitude":"67.09333","feature_class":"P","feature_code":"PPL","country_code":"UZ","cc2":"","admin1_code":"10","admin2_code":"","admin3_code":"","admin4_code":"","population":"14429","elevation":"","dem":"708","timezone":"Asia/Samarkand","modification_date":"2012-01-17"},{"geonameid":"1217512","name":"Daxbet","asciiname":"Daxbet","alternatenames":["Dagbid","Dagbit","Dakhbed","Dakhbet","Daxbet"],"latitude":"39.76389","longitude":"66.9125","feature_class":"P","feature_code":"PPL","country_code":"UZ","cc2":"","admin1_code":"10","admin2_code":"","admin3_code":"","admin4_code":"","population":"8044","elevation":"","dem":"644","timezone":"Asia/Samarkand","modification_date":"2012-01-17"},{"geonameid":"1217569","name":"Chelak","asciiname":"Chelak","alternatenames":["Chelak","Chelek","Payaryk"],"latitude":"39.92028","longitude":"66.86111","feature_class":"P","feature_code":"PPL","country_code":"UZ","cc2":"","admin1_code":"10","admin2_code":"","admin3_code":"","admin4_code":"","population":"16727","elevation":"","dem":"605","timezone":"Asia/Samarkand","modification_date":"2012-01-17"},{"geonameid":"1217595","name":"Charxin","asciiname":"Charxin","alternatenames":["Charkhin","Charxin"],"latitude":"39.69667","longitude":"66.76861","feature_class":"P","feature_code":"PPL","country_code":"UZ","cc2":"","admin1_code":"10","admin2_code":"","admin3_code":"","admin4_code":"","population":"13791","elevation":"","dem":"651","timezone":"Asia/Samarkand","modification_date":"2012-01-17"},{"geonameid":"1217658","name":"Bulung’ur","asciiname":"Bulung'ur","alternatenames":["Bulung'ur","Bulunghur","Bulung’ur","Krasnogvardeiskoye","Krasnogvardeysk","Krasnogvardeyskaya","Krasnogvardeyskoye","Krasnogvardskiy","Rostovtsevo"],"latitude":"39.76472","longitude":"67.27139","feature_class":"P","feature_code":"PPL","country_code":"UZ","cc2":"","admin1_code":"10","admin2_code":"","admin3_code":"","admin4_code":"","population":"26815","elevation":"","dem":"758","timezone":"Asia/Samarkand","modification_date":"2012-01-17"},{"geonameid":"1217926","name":"Oqtosh","asciiname":"Oqtosh","alternatenames":["Aktash","Oqtosh"],"latitude":"39.92139","longitude":"65.92528","feature_class":"P","feature_code":"PPL","country_code":"UZ","cc2":"","admin1_code":"10","admin2_code":"","admin3_code":"","admin4_code":"","population":"38307","elevation":"","dem":"462","timezone":"Asia/Samarkand","modification_date":"2012-01-17"},{"geonameid":"1513011","name":"Payshanba","asciiname":"Payshanba","alternatenames":["Pajshanba","Payshanba","Payshmba","Пайшанба"],"latitude":"40.00778","longitude":"66.23694","feature_class":"P","feature_code":"PPL","country_code":"UZ","cc2":"","admin1_code":"10","admin2_code":"","admin3_code":"","admin4_code":"","population":"24772","elevation":"","dem":"468","timezone":"Asia/Samarkand","modification_date":"2012-01-17"}]}