{"region_data":{"countryId":"2264397","adminCode1":"19","countryName":"Portugal","fclName":"country, state, region,...","countryCode":"PT","lng":"-8.58651","fcodeName":"first-order administrative division","toponymName":"Distrito de Setúbal","fcl":"A","numberOfChildren":13,"name":"Setúbal","fcode":"ADM1","geonameId":2262961,"lat":"38.34957","adminName1":"Setúbal","population":0},"country_data":{"ISO":"PT","ISO3":"PRT","ISO_Numeric":"620","fips":"PO","country":"Portugal","capital":"Lisbon","area":"92391","Population":"10676000","Continent":"EU","tld":".pt","CurrencyCode":"EUR","CurrencyName":"Euro","Phone":"351","Postal_Code_Format":"####-###","Postal_Code_Regex":"^(\\d{7})$","Languages":"pt-PT,mwl","geonameid":"2264397","neighbours":"ES","EquivalentFipsCode":""},"cities":[{"geonameid":"2262544","name":"Trafaria","asciiname":"Trafaria","alternatenames":["Trafaria"],"latitude":"38.67222","longitude":"-9.23268","feature_class":"P","feature_code":"PPL","country_code":"PT","cc2":"","admin1_code":"19","admin2_code":"1503","admin3_code":"150305","admin4_code":"","population":"5603","elevation":"","dem":"12","timezone":"Europe/Lisbon","modification_date":"2012-02-01"},{"geonameid":"2262865","name":"Sobreda","asciiname":"Sobreda","alternatenames":["Sobreda"],"latitude":"38.64961","longitude":"-9.18977","feature_class":"P","feature_code":"PPL","country_code":"PT","cc2":"","admin1_code":"19","admin2_code":"1503","admin3_code":"150308","admin4_code":"","population":"11146","elevation":"","dem":"58","timezone":"Europe/Lisbon","modification_date":"2012-08-04"},{"geonameid":"2262917","name":"Sines","asciiname":"Sines","alternatenames":["SIE","Sines","Sines Municipality","Sinesh","Sinish","sayns  prtghal","shinesu","sinesi","xi ni shen","Синес","Синиш","Сінеш","ساینس، پرتغال","სინესი","シーネス","锡尼什"],"latitude":"37.95622","longitude":"-8.86979","feature_class":"P","feature_code":"PPLA2","country_code":"PT","cc2":"","admin1_code":"19","admin2_code":"1513","admin3_code":"151301","admin4_code":"","population":"12791","elevation":"","dem":"40","timezone":"Europe/Lisbon","modification_date":"2014-04-06"},{"geonameid":"2262957","name":"Sesimbra","asciiname":"Sesimbra","alternatenames":["Cezimbra","Sesimbra","Сесимбра"],"latitude":"38.44451","longitude":"-9.10149","feature_class":"P","feature_code":"PPL","country_code":"PT","cc2":"","admin1_code":"19","admin2_code":"1511","admin3_code":"151102","admin4_code":"","population":"41134","elevation":"","dem":"26","timezone":"Europe/Lisbon","modification_date":"2015-02-20"},{"geonameid":"2262963","name":"Setúbal","asciiname":"Setubal","alternatenames":["Caetobriga","Gorad Setubal","Setoumpal","Setubal","Setubala","Setubalis","Setúbal","sai tu ba er","se tu bal","seto~ubaru","setubal","stwbal","stwbl","sytwbal","Σετούμπαλ","Горад Сетубал","Сетубал","סטובל","ستوبال","سيتوبال","سیتوبال","เซตูบัล","სეტუბალი","ሴቱባል","セトゥーバル","塞图巴尔","세투발"],"latitude":"38.5244","longitude":"-8.8882","feature_class":"P","feature_code":"PPLA","country_code":"PT","cc2":"","admin1_code":"19","admin2_code":"1512","admin3_code":"151202","admin4_code":"","population":"117110","elevation":"","dem":"16","timezone":"Europe/Lisbon","modification_date":"2012-09-18"},{"geonameid":"2263115","name":"Seixal","asciiname":"Seixal","alternatenames":["Seixal"],"latitude":"38.64008","longitude":"-9.10141","feature_class":"P","feature_code":"PPLA2","country_code":"PT","cc2":"","admin1_code":"19","admin2_code":"1510","admin3_code":"151004","admin4_code":"","population":"0","elevation":"","dem":"20","timezone":"Europe/Lisbon","modification_date":"2014-04-06"},{"geonameid":"2263426","name":"Santo António da Charneca","asciiname":"Santo Antonio da Charneca","alternatenames":[""],"latitude":"38.62561","longitude":"-9.03043","feature_class":"P","feature_code":"PPL","country_code":"PT","cc2":"","admin1_code":"19","admin2_code":"1504","admin3_code":"150407","admin4_code":"","population":"11143","elevation":"","dem":"49","timezone":"Europe/Lisbon","modification_date":"2011-08-28"},{"geonameid":"2263439","name":"Santo André","asciiname":"Santo Andre","alternatenames":[""],"latitude":"38.05445","longitude":"-8.75211","feature_class":"P","feature_code":"PPL","country_code":"PT","cc2":"","admin1_code":"19","admin2_code":"1509","admin3_code":"150907","admin4_code":"","population":"10601","elevation":"","dem":"56","timezone":"Europe/Lisbon","modification_date":"2011-08-28"},{"geonameid":"2263458","name":"Santiago do Cacém","asciiname":"Santiago do Cacem","alternatenames":["Santiago do Cacem","Santiago do Cacém","Sao Tiago de Cacem","Sao Tiago do Cacem","São Tiago de Caçem","São Tiago do Cacém"],"latitude":"38.01693","longitude":"-8.69475","feature_class":"P","feature_code":"PPLA2","country_code":"PT","cc2":"","admin1_code":"19","admin2_code":"1509","admin3_code":"150906","admin4_code":"","population":"7797","elevation":"","dem":"220","timezone":"Europe/Lisbon","modification_date":"2014-04-06"},{"geonameid":"2264169","name":"Quinta do Anjo","asciiname":"Quinta do Anjo","alternatenames":["Quinta da Anjo","Quinta do Anjo"],"latitude":"38.56753","longitude":"-8.94228","feature_class":"P","feature_code":"PPL","country_code":"PT","cc2":"","admin1_code":"19","admin2_code":"1508","admin3_code":"150804","admin4_code":"","population":"9124","elevation":"","dem":"94","timezone":"Europe/Lisbon","modification_date":"2012-01-17"},{"geonameid":"2264341","name":"Pragal","asciiname":"Pragal","alternatenames":["Pragal"],"latitude":"38.67459","longitude":"-9.16981","feature_class":"P","feature_code":"PPL","country_code":"PT","cc2":"","admin1_code":"19","admin2_code":"1503","admin3_code":"150307","admin4_code":"","population":"7701","elevation":"","dem":"96","timezone":"Europe/Lisbon","modification_date":"2012-08-04"},{"geonameid":"2264442","name":"Porto Covo","asciiname":"Porto Covo","alternatenames":["Portu-Kovu","Порту-Кову"],"latitude":"37.85256","longitude":"-8.79018","feature_class":"P","feature_code":"PPL","country_code":"PT","cc2":"","admin1_code":"19","admin2_code":"1513","admin3_code":"151302","admin4_code":"","population":"1400","elevation":"","dem":"31","timezone":"Europe/Lisbon","modification_date":"2011-08-28"},{"geonameid":"2264718","name":"Pinhal Novo","asciiname":"Pinhal Novo","alternatenames":["Pinhal Novo"],"latitude":"38.63106","longitude":"-8.91376","feature_class":"P","feature_code":"PPL","country_code":"PT","cc2":"","admin1_code":"19","admin2_code":"1508","admin3_code":"150803","admin4_code":"","population":"23510","elevation":"","dem":"41","timezone":"Europe/Lisbon","modification_date":"2012-01-17"},{"geonameid":"2264736","name":"Piedade","asciiname":"Piedade","alternatenames":["Cova da Piedade","Piedade"],"latitude":"38.66667","longitude":"-9.15","feature_class":"P","feature_code":"PPL","country_code":"PT","cc2":"","admin1_code":"19","admin2_code":"1503","admin3_code":"150310","admin4_code":"","population":"19472","elevation":"","dem":"10","timezone":"Europe/Lisbon","modification_date":"2012-01-17"},{"geonameid":"2265223","name":"Palmela","asciiname":"Palmela","alternatenames":["Palmela"],"latitude":"38.56902","longitude":"-8.90126","feature_class":"P","feature_code":"PPLA2","country_code":"PT","cc2":"","admin1_code":"19","admin2_code":"1508","admin3_code":"150802","admin4_code":"","population":"16934","elevation":"","dem":"190","timezone":"Europe/Lisbon","modification_date":"2014-04-06"},{"geonameid":"2265788","name":"Montijo","asciiname":"Montijo","alternatenames":["Montijo","Montikho","Монтихо"],"latitude":"38.70675","longitude":"-8.97388","feature_class":"P","feature_code":"PPLA2","country_code":"PT","cc2":"","admin1_code":"19","admin2_code":"1507","admin3_code":"150702","admin4_code":"","population":"30011","elevation":"","dem":"9","timezone":"Europe/Lisbon","modification_date":"2014-04-06"},{"geonameid":"2266319","name":"Moita","asciiname":"Moita","alternatenames":["Moita"],"latitude":"38.65078","longitude":"-8.99038","feature_class":"P","feature_code":"PPLA2","country_code":"PT","cc2":"","admin1_code":"19","admin2_code":"1506","admin3_code":"150603","admin4_code":"","population":"17795","elevation":"","dem":"10","timezone":"Europe/Lisbon","modification_date":"2014-04-06"},{"geonameid":"2267538","name":"Grândola","asciiname":"Grandola","alternatenames":["Grandola","Grândola"],"latitude":"38.17718","longitude":"-8.56675","feature_class":"P","feature_code":"PPLA2","country_code":"PT","cc2":"","admin1_code":"19","admin2_code":"1505","admin3_code":"150502","admin4_code":"","population":"10737","elevation":"","dem":"102","timezone":"Europe/Lisbon","modification_date":"2014-04-06"},{"geonameid":"2268916","name":"Costa de Caparica","asciiname":"Costa de Caparica","alternatenames":[""],"latitude":"38.64458","longitude":"-9.23556","feature_class":"P","feature_code":"PPL","country_code":"PT","cc2":"","admin1_code":"19","admin2_code":"1503","admin3_code":"150303","admin4_code":"","population":"14231","elevation":"","dem":"11","timezone":"Europe/Lisbon","modification_date":"2011-08-28"},{"geonameid":"2269041","name":"Corroios","asciiname":"Corroios","alternatenames":["Corroios"],"latitude":"38.64502","longitude":"-9.14843","feature_class":"P","feature_code":"PPL","country_code":"PT","cc2":"","admin1_code":"19","admin2_code":"1510","admin3_code":"151005","admin4_code":"","population":"52520","elevation":"","dem":"19","timezone":"Europe/Lisbon","modification_date":"2012-02-01"},{"geonameid":"2269282","name":"Charneca","asciiname":"Charneca","alternatenames":["Charneca","Charneca de Caparica","Sharneka","Шарнека"],"latitude":"38.62059","longitude":"-9.19149","feature_class":"P","feature_code":"PPL","country_code":"PT","cc2":"","admin1_code":"19","admin2_code":"1503","admin3_code":"150309","admin4_code":"","population":"23714","elevation":"","dem":"75","timezone":"Europe/Lisbon","modification_date":"2012-01-17"},{"geonameid":"2269413","name":"Cercal","asciiname":"Cercal","alternatenames":["Cercal","Cercal do Alentejo"],"latitude":"37.80601","longitude":"-8.67153","feature_class":"P","feature_code":"PPL","country_code":"PT","cc2":"","admin1_code":"19","admin2_code":"1509","admin3_code":"150903","admin4_code":"","population":"3772","elevation":"","dem":"150","timezone":"Europe/Lisbon","modification_date":"2012-01-17"},{"geonameid":"2270229","name":"Caparica","asciiname":"Caparica","alternatenames":["Caparica"],"latitude":"38.66667","longitude":"-9.2","feature_class":"P","feature_code":"PPL","country_code":"PT","cc2":"","admin1_code":"19","admin2_code":"1503","admin3_code":"150302","admin4_code":"","population":"21167","elevation":"","dem":"107","timezone":"Europe/Lisbon","modification_date":"2012-02-01"},{"geonameid":"2270486","name":"Cacilhas","asciiname":"Cacilhas","alternatenames":["Cacilhas"],"latitude":"38.68773","longitude":"-9.14663","feature_class":"P","feature_code":"PPL","country_code":"PT","cc2":"","admin1_code":"19","admin2_code":"1503","admin3_code":"150306","admin4_code":"","population":"6494","elevation":"","dem":"2","timezone":"Europe/Lisbon","modification_date":"2012-02-01"},{"geonameid":"2271071","name":"Barreiro","asciiname":"Barreiro","alternatenames":["Barreiro","Barrejru","ba lei lu","Баррейру","巴雷鲁"],"latitude":"38.66314","longitude":"-9.0724","feature_class":"P","feature_code":"PPLA2","country_code":"PT","cc2":"","admin1_code":"19","admin2_code":"1504","admin3_code":"150401","admin4_code":"","population":"51280","elevation":"","dem":"7","timezone":"Europe/Lisbon","modification_date":"2014-04-06"},{"geonameid":"2271473","name":"Arrentela","asciiname":"Arrentela","alternatenames":["Arrentela","Arrentella","Аррентела"],"latitude":"38.61667","longitude":"-9.1","feature_class":"P","feature_code":"PPL","country_code":"PT","cc2":"","admin1_code":"19","admin2_code":"1510","admin3_code":"151003","admin4_code":"","population":"30156","elevation":"","dem":"23","timezone":"Europe/Lisbon","modification_date":"2012-01-17"},{"geonameid":"2271680","name":"Amora","asciiname":"Amora","alternatenames":["Amora"],"latitude":"38.62961","longitude":"-9.11557","feature_class":"P","feature_code":"PPL","country_code":"PT","cc2":"","admin1_code":"19","admin2_code":"1510","admin3_code":"151002","admin4_code":"","population":"52577","elevation":"","dem":"12","timezone":"Europe/Lisbon","modification_date":"2012-02-01"},{"geonameid":"2271961","name":"Almada","asciiname":"Almada","alternatenames":["Almada","Almanta","Αλμάντα","Алмада"],"latitude":"38.67902","longitude":"-9.1569","feature_class":"P","feature_code":"PPLA2","country_code":"PT","cc2":"","admin1_code":"19","admin2_code":"1503","admin3_code":"150301","admin4_code":"","population":"34008","elevation":"","dem":"58","timezone":"Europe/Lisbon","modification_date":"2014-04-06"},{"geonameid":"2271970","name":"Alhos Vedros","asciiname":"Alhos Vedros","alternatenames":["Alhos Vedros"],"latitude":"38.65486","longitude":"-9.02368","feature_class":"P","feature_code":"PPL","country_code":"PT","cc2":"","admin1_code":"19","admin2_code":"1506","admin3_code":"150601","admin4_code":"","population":"13384","elevation":"","dem":"14","timezone":"Europe/Lisbon","modification_date":"2012-08-04"},{"geonameid":"2272091","name":"Aldeia de Paio Pires","asciiname":"Aldeia de Paio Pires","alternatenames":["Aldea de Paio Pires","Aldeia de Paio Pires","Paio Pires"],"latitude":"38.61667","longitude":"-9.08333","feature_class":"P","feature_code":"PPL","country_code":"PT","cc2":"","admin1_code":"19","admin2_code":"1510","admin3_code":"151001","admin4_code":"","population":"12179","elevation":"","dem":"33","timezone":"Europe/Lisbon","modification_date":"2012-01-17"},{"geonameid":"2272144","name":"Alcochete","asciiname":"Alcochete","alternatenames":["Alcochete"],"latitude":"38.75534","longitude":"-8.96086","feature_class":"P","feature_code":"PPLA2","country_code":"PT","cc2":"","admin1_code":"19","admin2_code":"1502","admin3_code":"150201","admin4_code":"","population":"9705","elevation":"","dem":"11","timezone":"Europe/Lisbon","modification_date":"2014-04-06"},{"geonameid":"2272212","name":"Alcácer do Sal","asciiname":"Alcacer do Sal","alternatenames":["Alcacer da Sal","Alcacer do Sal","Alcácer da Sal","Alcácer do Sal","Alkaser-du-Sal","Beuibum","Beuipum","Bevipo","Cantnipo","Eviam","Evion","Keition","Ketivion","Ketouibon","Ketovibon","Ketovion","alkasr dw sal","alkasr dwsal","Алкасер-ду-Сал","آلکاسر دوسال","الكاسر دو سال","ალკასერ-დუ-სალი","アルカセル・ド・サル"],"latitude":"38.37326","longitude":"-8.51444","feature_class":"P","feature_code":"PPLA2","country_code":"PT","cc2":"","admin1_code":"19","admin2_code":"1501","admin3_code":"150101","admin4_code":"","population":"9198","elevation":"","dem":"49","timezone":"Europe/Lisbon","modification_date":"2014-04-06"}]}