{"region_data":{"adminCode1":"04","lng":"6.75","geonameId":2755249,"toponymName":"Provincie Groningen","countryId":"2750405","fcl":"A","population":609768,"numberOfChildren":23,"countryCode":"NL","name":"Groningen","fclName":"country, state, region,...","countryName":"Netherlands","fcodeName":"first-order administrative division","adminName1":"Groningen","lat":"53.25","fcode":"ADM1"},"country_data":{"ISO":"NL","ISO3":"NLD","ISO_Numeric":"528","fips":"NL","country":"Netherlands","capital":"Amsterdam","area":"41526","Population":"16645000","Continent":"EU","tld":".nl","CurrencyCode":"EUR","CurrencyName":"Euro","Phone":"31","Postal_Code_Format":"#### @@","Postal_Code_Regex":"^(\\d{4}[A-Z]{2})$","Languages":"nl-NL,fy-NL","geonameid":"2750405","neighbours":"DE,BE","EquivalentFipsCode":""},"cities":[{"geonameid":"2743694","name":"Zuidhorn","asciiname":"Zuidhorn","alternatenames":[""],"latitude":"53.24667","longitude":"6.40278","feature_class":"P","feature_code":"PPL","country_code":"NL","cc2":"","admin1_code":"04","admin2_code":"0056","admin3_code":"","admin4_code":"","population":"6559","elevation":"","dem":"4","timezone":"Europe/Amsterdam","modification_date":"2008-12-22"},{"geonameid":"2744337","name":"Winsum","asciiname":"Winsum","alternatenames":[""],"latitude":"53.33","longitude":"6.52083","feature_class":"P","feature_code":"PPL","country_code":"NL","cc2":"","admin1_code":"04","admin2_code":"0053","admin3_code":"","admin4_code":"","population":"14310","elevation":"","dem":"3","timezone":"Europe/Amsterdam","modification_date":"2007-06-03"},{"geonameid":"2744344","name":"Winschoten","asciiname":"Winschoten","alternatenames":["Vinskhoten","Winschoten","Wynskoat","wen si huo teng","Винсхотен","溫斯霍滕"],"latitude":"53.14417","longitude":"7.03472","feature_class":"P","feature_code":"PPL","country_code":"NL","cc2":"","admin1_code":"04","admin2_code":"1895","admin3_code":"","admin4_code":"","population":"18506","elevation":"","dem":"3","timezone":"Europe/Amsterdam","modification_date":"2010-09-17"},{"geonameid":"2745461","name":"Vlagtwedde","asciiname":"Vlagtwedde","alternatenames":["Vlachtwedde","Vlagtwedde"],"latitude":"53.0275","longitude":"7.10833","feature_class":"P","feature_code":"PPL","country_code":"NL","cc2":"","admin1_code":"04","admin2_code":"0048","admin3_code":"","admin4_code":"","population":"17286","elevation":"","dem":"3","timezone":"Europe/Amsterdam","modification_date":"2007-06-03"},{"geonameid":"2745783","name":"Veendam","asciiname":"Veendam","alternatenames":[""],"latitude":"53.10667","longitude":"6.87917","feature_class":"P","feature_code":"PPL","country_code":"NL","cc2":"","admin1_code":"04","admin2_code":"0047","admin3_code":"","admin4_code":"","population":"28155","elevation":"","dem":"2","timezone":"Europe/Amsterdam","modification_date":"2007-06-03"},{"geonameid":"2745944","name":"Ulrum","asciiname":"Ulrum","alternatenames":[""],"latitude":"53.35917","longitude":"6.33333","feature_class":"P","feature_code":"PPL","country_code":"NL","cc2":"","admin1_code":"04","admin2_code":"1663","admin3_code":"","admin4_code":"","population":"11240","elevation":"","dem":"3","timezone":"Europe/Amsterdam","modification_date":"2007-06-03"},{"geonameid":"2746860","name":"Stadskanaal","asciiname":"Stadskanaal","alternatenames":["Afraai","Stadskanaal"],"latitude":"52.98947","longitude":"6.9504","feature_class":"P","feature_code":"PPL","country_code":"NL","cc2":"NL","admin1_code":"04","admin2_code":"0037","admin3_code":"","admin4_code":"","population":"20000","elevation":"","dem":"5","timezone":"Europe/Amsterdam","modification_date":"2010-04-28"},{"geonameid":"2747143","name":"Slochteren","asciiname":"Slochteren","alternatenames":["Slochteren"],"latitude":"53.22078","longitude":"6.80547","feature_class":"P","feature_code":"PPL","country_code":"NL","cc2":"","admin1_code":"04","admin2_code":"0040","admin3_code":"","admin4_code":"","population":"14696","elevation":"","dem":"-1","timezone":"Europe/Amsterdam","modification_date":"2009-12-05"},{"geonameid":"2747400","name":"Sellingen","asciiname":"Sellingen","alternatenames":[""],"latitude":"52.94583","longitude":"7.15139","feature_class":"P","feature_code":"PPLA2","country_code":"NL","cc2":"","admin1_code":"04","admin2_code":"0048","admin3_code":"","admin4_code":"","population":"1070","elevation":"","dem":"7","timezone":"Europe/Amsterdam","modification_date":"2013-06-30"},{"geonameid":"2747758","name":"Sappemeer","asciiname":"Sappemeer","alternatenames":[""],"latitude":"53.16417","longitude":"6.79028","feature_class":"P","feature_code":"PPL","country_code":"NL","cc2":"","admin1_code":"04","admin2_code":"0018","admin3_code":"","admin4_code":"","population":"8298","elevation":"","dem":"2","timezone":"Europe/Amsterdam","modification_date":"2009-01-09"},{"geonameid":"2749034","name":"Oude Pekela","asciiname":"Oude Pekela","alternatenames":[""],"latitude":"53.10417","longitude":"7.00972","feature_class":"P","feature_code":"PPL","country_code":"NL","cc2":"","admin1_code":"04","admin2_code":"0765","admin3_code":"","admin4_code":"","population":"13386","elevation":"","dem":"0","timezone":"Europe/Amsterdam","modification_date":"2007-06-03"},{"geonameid":"2749423","name":"Oosterpark","asciiname":"Oosterpark","alternatenames":["Oosterpark","Oosterparkwijk"],"latitude":"53.2237","longitude":"6.5853","feature_class":"P","feature_code":"PPLX","country_code":"NL","cc2":"","admin1_code":"04","admin2_code":"0014","admin3_code":"","admin4_code":"","population":"10550","elevation":"","dem":"2","timezone":"Europe/Amsterdam","modification_date":"2012-01-17"},{"geonameid":"2749660","name":"Oldehove","asciiname":"Oldehove","alternatenames":["Oldenhove"],"latitude":"53.30333","longitude":"6.39583","feature_class":"P","feature_code":"PPL","country_code":"NL","cc2":"NL","admin1_code":"04","admin2_code":"0056","admin3_code":"","admin4_code":"","population":"1648","elevation":"","dem":"2","timezone":"Europe/Amsterdam","modification_date":"2008-12-22"},{"geonameid":"2749875","name":"Noordhorn","asciiname":"Noordhorn","alternatenames":[""],"latitude":"53.26167","longitude":"6.39583","feature_class":"P","feature_code":"PPL","country_code":"NL","cc2":"","admin1_code":"04","admin2_code":"0056","admin3_code":"","admin4_code":"","population":"1584","elevation":"","dem":"6","timezone":"Europe/Amsterdam","modification_date":"2008-12-22"},{"geonameid":"2751834","name":"Leek","asciiname":"Leek","alternatenames":["De Leek","De Like","Leek","Lek","Leyk","lei ke","Лек","Լեյկ","雷克"],"latitude":"53.1625","longitude":"6.37639","feature_class":"P","feature_code":"PPL","country_code":"NL","cc2":"","admin1_code":"04","admin2_code":"0022","admin3_code":"","admin4_code":"","population":"19651","elevation":"","dem":"2","timezone":"Europe/Amsterdam","modification_date":"2007-06-03"},{"geonameid":"2752420","name":"Korrewegwijk","asciiname":"Korrewegwijk","alternatenames":[""],"latitude":"53.23235","longitude":"6.56804","feature_class":"P","feature_code":"PPLX","country_code":"NL","cc2":"","admin1_code":"04","admin2_code":"0014","admin3_code":"","admin4_code":"","population":"16710","elevation":"","dem":"0","timezone":"Europe/Amsterdam","modification_date":"2011-04-19"},{"geonameid":"2753706","name":"Hoogezand","asciiname":"Hoogezand","alternatenames":[""],"latitude":"53.16167","longitude":"6.76111","feature_class":"P","feature_code":"PPL","country_code":"NL","cc2":"","admin1_code":"04","admin2_code":"0018","admin3_code":"","admin4_code":"","population":"21480","elevation":"","dem":"2","timezone":"Europe/Amsterdam","modification_date":"2009-01-09"},{"geonameid":"2754841","name":"Haren","asciiname":"Haren","alternatenames":["Haren","Kharen","ha lun","Харен","Հարեն","哈伦"],"latitude":"53.17209","longitude":"6.60931","feature_class":"P","feature_code":"PPL","country_code":"NL","cc2":"","admin1_code":"04","admin2_code":"0017","admin3_code":"","admin4_code":"","population":"19088","elevation":"","dem":"5","timezone":"Europe/Amsterdam","modification_date":"2012-07-19"},{"geonameid":"2755204","name":"Grootegast","asciiname":"Grootegast","alternatenames":["Grootegast"],"latitude":"53.2125","longitude":"6.27361","feature_class":"P","feature_code":"PPL","country_code":"NL","cc2":"","admin1_code":"04","admin2_code":"0015","admin3_code":"","admin4_code":"","population":"11623","elevation":"","dem":"2","timezone":"Europe/Amsterdam","modification_date":"2007-06-03"},{"geonameid":"2755251","name":"Groningen","asciiname":"Groningen","alternatenames":["Chronin'nken","GRQ","Gorad Groningen","Greunienge","Grins","Groninga","Groninge","Groningen","Groningena","Groningenas","Groningue","Grunneng","Gròninga","Qroningen","Vilojati Groningen","furoningen","furoningen shi","ge luo ning gen","groningeni","heuloning-eon","hrwnyngn","khrwnyngn","Χρόνινγκεν","Вилояти Гронинген","Горад Гронінген","Гронинген","Гронінген","חרונינגן","خرونینگن","گروننگن شہر","გრონინგენი","フローニンゲン","フローニンゲン市","格罗宁根","흐로닝언"],"latitude":"53.21917","longitude":"6.56667","feature_class":"P","feature_code":"PPLA","country_code":"NL","cc2":"","admin1_code":"04","admin2_code":"0014","admin3_code":"","admin4_code":"","population":"181194","elevation":"","dem":"16","timezone":"Europe/Amsterdam","modification_date":"2007-06-03"},{"geonameid":"2755317","name":"Grijpskerk","asciiname":"Grijpskerk","alternatenames":["Gryptsjerk"],"latitude":"53.2625","longitude":"6.30833","feature_class":"P","feature_code":"PPL","country_code":"NL","cc2":"","admin1_code":"04","admin2_code":"0056","admin3_code":"","admin4_code":"","population":"2809","elevation":"","dem":"2","timezone":"Europe/Amsterdam","modification_date":"2008-12-22"},{"geonameid":"2757340","name":"Delfzijl","asciiname":"Delfzijl","alternatenames":["Delfzejl","Delfzijl","Delfzyl","Делфзейл"],"latitude":"53.33","longitude":"6.91806","feature_class":"P","feature_code":"PPL","country_code":"NL","cc2":"","admin1_code":"04","admin2_code":"0010","admin3_code":"","admin4_code":"","population":"28649","elevation":"","dem":"0","timezone":"Europe/Amsterdam","modification_date":"2010-01-29"},{"geonameid":"2759356","name":"Bedum","asciiname":"Bedum","alternatenames":["Bedum"],"latitude":"53.30083","longitude":"6.60278","feature_class":"P","feature_code":"PPL","country_code":"NL","cc2":"","admin1_code":"04","admin2_code":"0005","admin3_code":"","admin4_code":"","population":"10750","elevation":"","dem":"1","timezone":"Europe/Amsterdam","modification_date":"2007-06-03"},{"geonameid":"2759687","name":"Appingedam","asciiname":"Appingedam","alternatenames":[""],"latitude":"53.32167","longitude":"6.85833","feature_class":"P","feature_code":"PPL","country_code":"NL","cc2":"","admin1_code":"04","admin2_code":"0003","admin3_code":"","admin4_code":"","population":"12364","elevation":"","dem":"2","timezone":"Europe/Amsterdam","modification_date":"2007-06-03"},{"geonameid":"2759961","name":"Aduard","asciiname":"Aduard","alternatenames":["Adeward","Adewardervoorwerk"],"latitude":"53.25667","longitude":"6.45972","feature_class":"P","feature_code":"PPL","country_code":"NL","cc2":"NL","admin1_code":"04","admin2_code":"0056","admin3_code":"","admin4_code":"","population":"2360","elevation":"","dem":"3","timezone":"Europe/Amsterdam","modification_date":"2008-12-22"}]}