{"region_data":{"countryId":"2361809","adminCode1":"06","countryName":"Burkina Faso","fclName":"country, state, region,...","countryCode":"BF","lng":"-2.36876","fcodeName":"first-order administrative division","toponymName":"Centre-Ouest","fcl":"A","numberOfChildren":4,"name":"Centre-Ouest","fcode":"ADM1","geonameId":6930707,"lat":"12.25488","adminName1":"Centre-Ouest","population":1348784},"country_data":{"ISO":"BF","ISO3":"BFA","ISO_Numeric":"854","fips":"UV","country":"Burkina Faso","capital":"Ouagadougou","area":"274200","Population":"16241811","Continent":"AF","tld":".bf","CurrencyCode":"XOF","CurrencyName":"Franc","Phone":"226","Postal_Code_Format":"","Postal_Code_Regex":"","Languages":"fr-BF","geonameid":"2361809","neighbours":"NE,BJ,GH,CI,TG,ML","EquivalentFipsCode":""},"cities":[{"geonameid":"2355869","name":"Sapouy","asciiname":"Sapouy","alternatenames":["Sapoui","Sapouy","Sapui"],"latitude":"11.55444","longitude":"-1.77361","feature_class":"P","feature_code":"PPLA2","country_code":"BF","cc2":"","admin1_code":"06","admin2_code":"77","admin3_code":"","admin4_code":"","population":"3837","elevation":"","dem":"336","timezone":"Africa/Ouagadougou","modification_date":"2012-06-05"},{"geonameid":"2356228","name":"Réo","asciiname":"Reo","alternatenames":["Reo","Réo","Рео"],"latitude":"12.31963","longitude":"-2.47094","feature_class":"P","feature_code":"PPLA2","country_code":"BF","cc2":"","admin1_code":"06","admin2_code":"36","admin3_code":"","admin4_code":"","population":"37535","elevation":"","dem":"300","timezone":"Africa/Ouagadougou","modification_date":"2013-02-08"},{"geonameid":"2356459","name":"Pitmoaga","asciiname":"Pitmoaga","alternatenames":["Pitmoaga"],"latitude":"12.23972","longitude":"-1.87667","feature_class":"P","feature_code":"PPL","country_code":"BF","cc2":"","admin1_code":"06","admin2_code":"19","admin3_code":"","admin4_code":"","population":"7991","elevation":"","dem":"340","timezone":"Africa/Ouagadougou","modification_date":"2012-01-18"},{"geonameid":"2358382","name":"Léo","asciiname":"Leo","alternatenames":["Leo","Lev","Léo","Лев"],"latitude":"11.10033","longitude":"-2.10654","feature_class":"P","feature_code":"PPLA2","country_code":"BF","cc2":"","admin1_code":"06","admin2_code":"72","admin3_code":"","admin4_code":"","population":"26884","elevation":"","dem":"349","timezone":"Africa/Ouagadougou","modification_date":"2013-01-10"},{"geonameid":"2358946","name":"Koudougou","asciiname":"Koudougou","alternatenames":["Kondougou","Koudougou","Kudugu","Kuduguo","khu du ku","ku du gu","kudo~ugu","kudugu","kwdwgw","Кудугу","کودوگو","คูดูกู","クドゥグ","库杜古","쿠두구"],"latitude":"12.25263","longitude":"-2.36272","feature_class":"P","feature_code":"PPLA","country_code":"BF","cc2":"","admin1_code":"06","admin2_code":"19","admin3_code":"","admin4_code":"","population":"87347","elevation":"","dem":"303","timezone":"Africa/Ouagadougou","modification_date":"2013-02-08"},{"geonameid":"2359317","name":"Kokologo","asciiname":"Kokologo","alternatenames":["Kokolgho","Kokologo"],"latitude":"12.18972","longitude":"-1.88556","feature_class":"P","feature_code":"PPL","country_code":"BF","cc2":"","admin1_code":"06","admin2_code":"19","admin3_code":"","admin4_code":"","population":"25958","elevation":"","dem":"322","timezone":"Africa/Ouagadougou","modification_date":"2012-01-18"},{"geonameid":"2360286","name":"Goulouré","asciiname":"Gouloure","alternatenames":[""],"latitude":"12.2276","longitude":"-1.92922","feature_class":"P","feature_code":"PPL","country_code":"BF","cc2":"","admin1_code":"06","admin2_code":"19","admin3_code":"","admin4_code":"","population":"6677","elevation":"","dem":"331","timezone":"Africa/Ouagadougou","modification_date":"2013-02-08"}]}