{"region_data":{"countryId":"2658434","adminCode1":"BE","countryName":"Switzerland","fclName":"country, state, region,...","countryCode":"CH","lng":"7.59563","fcodeName":"first-order administrative division","toponymName":"Canton de Berne","fcl":"A","numberOfChildren":10,"name":"Bern","fcode":"ADM1","geonameId":2661551,"lat":"46.87251","adminName1":"Bern","population":955658},"country_data":{"ISO":"CH","ISO3":"CHE","ISO_Numeric":"756","fips":"SZ","country":"Switzerland","capital":"Berne","area":"41290","Population":"7581000","Continent":"EU","tld":".ch","CurrencyCode":"CHF","CurrencyName":"Franc","Phone":"41","Postal_Code_Format":"####","Postal_Code_Regex":"^(\\d{4})$","Languages":"de-CH,fr-CH,it-CH,rm","geonameid":"2658434","neighbours":"DE,IT,LI,FR,AT","EquivalentFipsCode":""},"cities":[{"geonameid":"2657887","name":"Zweisimmen","asciiname":"Zweisimmen","alternatenames":["Cvajzimmen","Zweisimmen","Zweisimmeni vald","ci wei xi men","Цвайзиммен","茨韋西門"],"latitude":"46.55452","longitude":"7.37385","feature_class":"P","feature_code":"PPL","country_code":"CH","cc2":"","admin1_code":"BE","admin2_code":"248","admin3_code":"794","admin4_code":"","population":"2813","elevation":"","dem":"944","timezone":"Europe/Zurich","modification_date":"2013-02-28"},{"geonameid":"2657913","name":"Zollikofen","asciiname":"Zollikofen","alternatenames":["Colikofen","Collikofen","cuo li ke fen","Цолликофен","Цолікофен","措利科芬"],"latitude":"46.99905","longitude":"7.45809","feature_class":"P","feature_code":"PPL","country_code":"CH","cc2":"","admin1_code":"BE","admin2_code":"246","admin3_code":"361","admin4_code":"","population":"9121","elevation":"","dem":"558","timezone":"Europe/Zurich","modification_date":"2013-02-27"},{"geonameid":"2657935","name":"Zäziwil","asciiname":"Zaziwil","alternatenames":[""],"latitude":"46.90196","longitude":"7.66185","feature_class":"P","feature_code":"PPL","country_code":"CH","cc2":"","admin1_code":"BE","admin2_code":"246","admin3_code":"628","admin4_code":"","population":"1535","elevation":"","dem":"686","timezone":"Europe/Zurich","modification_date":"2013-02-28"},{"geonameid":"2657943","name":"Wyssachen","asciiname":"Wyssachen","alternatenames":["Wyssachen"],"latitude":"47.07851","longitude":"7.82922","feature_class":"P","feature_code":"PPL","country_code":"CH","cc2":"","admin1_code":"BE","admin2_code":"244","admin3_code":"960","admin4_code":"","population":"1251","elevation":"","dem":"710","timezone":"Europe/Zurich","modification_date":"2013-03-01"},{"geonameid":"2657944","name":"Wynigen","asciiname":"Wynigen","alternatenames":["Vinigen","Wynigen","wei ni gen","Виниген","維尼根"],"latitude":"47.10586","longitude":"7.66681","feature_class":"P","feature_code":"PPL","country_code":"CH","cc2":"","admin1_code":"BE","admin2_code":"245","admin3_code":"424","admin4_code":"","population":"2090","elevation":"","dem":"532","timezone":"Europe/Zurich","modification_date":"2013-02-28"},{"geonameid":"2657945","name":"Wynau","asciiname":"Wynau","alternatenames":[""],"latitude":"47.2557","longitude":"7.81626","feature_class":"P","feature_code":"PPL","country_code":"CH","cc2":"","admin1_code":"BE","admin2_code":"244","admin3_code":"345","admin4_code":"","population":"1610","elevation":"","dem":"448","timezone":"Europe/Zurich","modification_date":"2013-03-01"},{"geonameid":"2657953","name":"Worben","asciiname":"Worben","alternatenames":[""],"latitude":"47.10279","longitude":"7.29518","feature_class":"P","feature_code":"PPL","country_code":"CH","cc2":"","admin1_code":"BE","admin2_code":"243","admin3_code":"755","admin4_code":"","population":"2042","elevation":"","dem":"439","timezone":"Europe/Zurich","modification_date":"2013-02-28"},{"geonameid":"2657954","name":"Worb","asciiname":"Worb","alternatenames":["Vorb","Worb","wo er bu","wrb","Ворб","ورب","沃爾布"],"latitude":"46.92984","longitude":"7.56306","feature_class":"P","feature_code":"PPL","country_code":"CH","cc2":"","admin1_code":"BE","admin2_code":"246","admin3_code":"627","admin4_code":"","population":"11053","elevation":"","dem":"585","timezone":"Europe/Zurich","modification_date":"2013-02-27"},{"geonameid":"2657964","name":"Wohlen","asciiname":"Wohlen","alternatenames":[""],"latitude":"46.97118","longitude":"7.35685","feature_class":"P","feature_code":"PPL","country_code":"CH","cc2":"","admin1_code":"BE","admin2_code":"246","admin3_code":"360","admin4_code":"","population":"9159","elevation":"","dem":"546","timezone":"Europe/Zurich","modification_date":"2015-06-08"},{"geonameid":"2657977","name":"Wimmis","asciiname":"Wimmis","alternatenames":["Vimmis","Wimmis","wei mi si","Виммис","維米斯"],"latitude":"46.67587","longitude":"7.63972","feature_class":"P","feature_code":"PPL","country_code":"CH","cc2":"","admin1_code":"BE","admin2_code":"249","admin3_code":"769","admin4_code":"","population":"2237","elevation":"","dem":"638","timezone":"Europe/Zurich","modification_date":"2013-02-28"},{"geonameid":"2657989","name":"Wilderswil","asciiname":"Wilderswil","alternatenames":["Vil'dersvil'","Wilderswil","vu~irudasuvu~iru","wei er de si wei er","Вильдерсвиль","ヴィルダースヴィル","維爾德斯維爾"],"latitude":"46.66369","longitude":"7.86175","feature_class":"P","feature_code":"PPL","country_code":"CH","cc2":"","admin1_code":"BE","admin2_code":"250","admin3_code":"594","admin4_code":"","population":"2303","elevation":"","dem":"598","timezone":"Europe/Zurich","modification_date":"2013-02-28"},{"geonameid":"2658006","name":"Wiedlisbach","asciiname":"Wiedlisbach","alternatenames":["Wiedlisbach"],"latitude":"47.25194","longitude":"7.6461","feature_class":"P","feature_code":"PPL","country_code":"CH","cc2":"","admin1_code":"BE","admin2_code":"244","admin3_code":"995","admin4_code":"","population":"2213","elevation":"","dem":"471","timezone":"Europe/Zurich","modification_date":"2013-03-01"},{"geonameid":"2658043","name":"Wattenwil","asciiname":"Wattenwil","alternatenames":["Wattenwil"],"latitude":"46.76973","longitude":"7.50835","feature_class":"P","feature_code":"PPL","country_code":"CH","cc2":"","admin1_code":"BE","admin2_code":"247","admin3_code":"886","admin4_code":"","population":"2788","elevation":"","dem":"598","timezone":"Europe/Zurich","modification_date":"2013-02-28"},{"geonameid":"2658052","name":"Wangen an der Aare","asciiname":"Wangen an der Aare","alternatenames":["Vangen-na-Are","Wangen","Wangen an der Aare","Wangen ce Aro","Wangen ĉe Aro","a lei he pan wang gen","wazhan an dr ar","Ванген-на-Аре","واژان آن در ار","阿勒河畔旺根"],"latitude":"47.23199","longitude":"7.65448","feature_class":"P","feature_code":"PPLA2","country_code":"CH","cc2":"","admin1_code":"BE","admin2_code":"244","admin3_code":"992","admin4_code":"","population":"1944","elevation":"","dem":"421","timezone":"Europe/Zurich","modification_date":"2014-03-06"},{"geonameid":"2658064","name":"Walkringen","asciiname":"Walkringen","alternatenames":["Walkringen"],"latitude":"46.94856","longitude":"7.6204","feature_class":"P","feature_code":"PPL","country_code":"CH","cc2":"","admin1_code":"BE","admin2_code":"246","admin3_code":"626","admin4_code":"","population":"1817","elevation":"","dem":"693","timezone":"Europe/Zurich","modification_date":"2013-02-28"},{"geonameid":"2658074","name":"Wald","asciiname":"Wald","alternatenames":[""],"latitude":"46.81667","longitude":"7.85","feature_class":"P","feature_code":"PPL","country_code":"CH","cc2":"","admin1_code":"BE","admin2_code":"245","admin3_code":"906","admin4_code":"","population":"1074","elevation":"","dem":"940","timezone":"Europe/Zurich","modification_date":"2012-04-21"},{"geonameid":"2658076","name":"Wahlern","asciiname":"Wahlern","alternatenames":["Wahlern","Walern"],"latitude":"46.82806","longitude":"7.35318","feature_class":"P","feature_code":"PPL","country_code":"CH","cc2":"","admin1_code":"BE","admin2_code":"246","admin3_code":"855","admin4_code":"","population":"6225","elevation":"","dem":"835","timezone":"Europe/Zurich","modification_date":"2015-06-08"},{"geonameid":"2658176","name":"Vechigen","asciiname":"Vechigen","alternatenames":["Vechigen"],"latitude":"46.94616","longitude":"7.56065","feature_class":"P","feature_code":"PPL","country_code":"CH","cc2":"","admin1_code":"BE","admin2_code":"246","admin3_code":"359","admin4_code":"","population":"4619","elevation":"","dem":"605","timezone":"Europe/Zurich","modification_date":"2015-06-08"},{"geonameid":"2658211","name":"Utzenstorf","asciiname":"Utzenstorf","alternatenames":["Utzenstorf"],"latitude":"47.12981","longitude":"7.55838","feature_class":"P","feature_code":"PPL","country_code":"CH","cc2":"","admin1_code":"BE","admin2_code":"245","admin3_code":"552","admin4_code":"","population":"3625","elevation":"","dem":"475","timezone":"Europe/Zurich","modification_date":"2013-02-28"},{"geonameid":"2658213","name":"Uttigen","asciiname":"Uttigen","alternatenames":["Uttigen"],"latitude":"46.79435","longitude":"7.57789","feature_class":"P","feature_code":"PPL","country_code":"CH","cc2":"","admin1_code":"BE","admin2_code":"247","admin3_code":"944","admin4_code":"","population":"1673","elevation":"","dem":"543","timezone":"Europe/Zurich","modification_date":"2013-02-28"},{"geonameid":"2658217","name":"Urtenen","asciiname":"Urtenen","alternatenames":["Urtenen"],"latitude":"47.02667","longitude":"7.50081","feature_class":"P","feature_code":"PPL","country_code":"CH","cc2":"","admin1_code":"BE","admin2_code":"246","admin3_code":"551","admin4_code":"","population":"5258","elevation":"","dem":"528","timezone":"Europe/Zurich","modification_date":"2015-07-03"},{"geonameid":"2658240","name":"Unterseen","asciiname":"Unterseen","alternatenames":["Unterseen","Unterzeen","Unterzen","antrsyan","xia sen","Унтерзеен","Унтерзен","انترسئان","下森"],"latitude":"46.6853","longitude":"7.84722","feature_class":"P","feature_code":"PPL","country_code":"CH","cc2":"","admin1_code":"BE","admin2_code":"250","admin3_code":"593","admin4_code":"","population":"5150","elevation":"","dem":"570","timezone":"Europe/Zurich","modification_date":"2015-05-25"},{"geonameid":"2658277","name":"Uetendorf","asciiname":"Uetendorf","alternatenames":["Uetendorf","Utendorf","Ütendorf"],"latitude":"46.77392","longitude":"7.57251","feature_class":"P","feature_code":"PPL","country_code":"CH","cc2":"","admin1_code":"BE","admin2_code":"247","admin3_code":"944","admin4_code":"","population":"5654","elevation":"","dem":"557","timezone":"Europe/Zurich","modification_date":"2013-02-28"},{"geonameid":"2658303","name":"Trubschachen","asciiname":"Trubschachen","alternatenames":["Trubschachen"],"latitude":"46.92228","longitude":"7.8452","feature_class":"P","feature_code":"PPL","country_code":"CH","cc2":"","admin1_code":"BE","admin2_code":"245","admin3_code":"909","admin4_code":"","population":"1530","elevation":"","dem":"731","timezone":"Europe/Zurich","modification_date":"2013-02-28"},{"geonameid":"2658305","name":"Trub","asciiname":"Trub","alternatenames":["Trub"],"latitude":"46.94168","longitude":"7.87996","feature_class":"P","feature_code":"PPL","country_code":"CH","cc2":"","admin1_code":"BE","admin2_code":"245","admin3_code":"908","admin4_code":"","population":"1503","elevation":"","dem":"795","timezone":"Europe/Zurich","modification_date":"2013-02-28"},{"geonameid":"2658331","name":"Tramelan","asciiname":"Tramelan","alternatenames":["Tramelan","Tramlan","te la mei lan","Трамлан","特拉梅蘭"],"latitude":"47.22393","longitude":"7.0995","feature_class":"P","feature_code":"PPL","country_code":"CH","cc2":"","admin1_code":"BE","admin2_code":"241","admin3_code":"446","admin4_code":"","population":"4186","elevation":"","dem":"936","timezone":"Europe/Zurich","modification_date":"2013-02-27"},{"geonameid":"2658332","name":"Trachselwald","asciiname":"Trachselwald","alternatenames":["Trachselwald"],"latitude":"47.01699","longitude":"7.73639","feature_class":"P","feature_code":"PPL","country_code":"CH","cc2":"","admin1_code":"BE","admin2_code":"245","admin3_code":"955","admin4_code":"","population":"1068","elevation":"","dem":"683","timezone":"Europe/Zurich","modification_date":"2013-02-28"},{"geonameid":"2658353","name":"Toffen","asciiname":"Toffen","alternatenames":["Toffen"],"latitude":"46.86031","longitude":"7.49216","feature_class":"P","feature_code":"PPL","country_code":"CH","cc2":"","admin1_code":"BE","admin2_code":"246","admin3_code":"884","admin4_code":"","population":"2277","elevation":"","dem":"531","timezone":"Europe/Zurich","modification_date":"2013-02-27"},{"geonameid":"2658377","name":"Thun","asciiname":"Thun","alternatenames":["Thoune","Thun","Timium","Tun","Tunas","Tune","ZTK","thwn","to~un","tu en","tun","tuni","twn","Тун","תון","تون","تھن","ثون","ടൂൺ","თუნი","トゥーン","图恩","툰"],"latitude":"46.75118","longitude":"7.62166","feature_class":"P","feature_code":"PPLA2","country_code":"CH","cc2":"","admin1_code":"BE","admin2_code":"247","admin3_code":"942","admin4_code":"","population":"42136","elevation":"560","dem":"565","timezone":"Europe/Zurich","modification_date":"2014-03-06"},{"geonameid":"2658382","name":"Thierachern","asciiname":"Thierachern","alternatenames":["Thierachern","Tierachern"],"latitude":"46.75319","longitude":"7.57442","feature_class":"P","feature_code":"PPL","country_code":"CH","cc2":"","admin1_code":"BE","admin2_code":"247","admin3_code":"941","admin4_code":"","population":"2040","elevation":"","dem":"572","timezone":"Europe/Zurich","modification_date":"2013-02-28"},{"geonameid":"2658415","name":"Tavannes","asciiname":"Tavannes","alternatenames":["Tavan","Tavann","ta wa ne","Таван","Таванн","塔瓦訥"],"latitude":"47.22079","longitude":"7.19759","feature_class":"P","feature_code":"PPL","country_code":"CH","cc2":"","admin1_code":"BE","admin2_code":"241","admin3_code":"713","admin4_code":"","population":"3367","elevation":"","dem":"763","timezone":"Europe/Zurich","modification_date":"2013-02-27"},{"geonameid":"2658417","name":"Täuffelen","asciiname":"Tauffelen","alternatenames":["Tauffelen","Täuffelen"],"latitude":"47.06524","longitude":"7.19704","feature_class":"P","feature_code":"PPL","country_code":"CH","cc2":"","admin1_code":"BE","admin2_code":"243","admin3_code":"751","admin4_code":"","population":"2492","elevation":"","dem":"487","timezone":"Europe/Zurich","modification_date":"2013-02-27"},{"geonameid":"2658449","name":"Sumiswald","asciiname":"Sumiswald","alternatenames":["Sumiswald"],"latitude":"47.02747","longitude":"7.74526","feature_class":"P","feature_code":"PPL","country_code":"CH","cc2":"","admin1_code":"BE","admin2_code":"245","admin3_code":"957","admin4_code":"","population":"5159","elevation":"","dem":"703","timezone":"Europe/Zurich","modification_date":"2013-02-28"},{"geonameid":"2658478","name":"Stettlen","asciiname":"Stettlen","alternatenames":["Stettlen"],"latitude":"46.95835","longitude":"7.52508","feature_class":"P","feature_code":"PPL","country_code":"CH","cc2":"","admin1_code":"BE","admin2_code":"246","admin3_code":"358","admin4_code":"","population":"2884","elevation":"","dem":"563","timezone":"Europe/Zurich","modification_date":"2013-02-27"},{"geonameid":"2658494","name":"Steffisburg","asciiname":"Steffisburg","alternatenames":["Steffisburg"],"latitude":"46.77807","longitude":"7.63249","feature_class":"P","feature_code":"PPL","country_code":"CH","cc2":"","admin1_code":"BE","admin2_code":"247","admin3_code":"939","admin4_code":"","population":"15191","elevation":"","dem":"584","timezone":"Europe/Zurich","modification_date":"2013-02-28"},{"geonameid":"2658536","name":"Spiez","asciiname":"Spiez","alternatenames":["Shpic","Spiez","shi pi ci","spyh","Шпиц","سپیه","施皮茨"],"latitude":"46.68473","longitude":"7.69111","feature_class":"P","feature_code":"PPL","country_code":"CH","cc2":"","admin1_code":"BE","admin2_code":"249","admin3_code":"768","admin4_code":"","population":"12594","elevation":"","dem":"595","timezone":"Europe/Zurich","modification_date":"2013-02-28"},{"geonameid":"2658597","name":"Sigriswil","asciiname":"Sigriswil","alternatenames":["Sigriswil"],"latitude":"46.71656","longitude":"7.71335","feature_class":"P","feature_code":"PPL","country_code":"CH","cc2":"","admin1_code":"BE","admin2_code":"247","admin3_code":"938","admin4_code":"","population":"4341","elevation":"","dem":"797","timezone":"Europe/Zurich","modification_date":"2013-02-28"},{"geonameid":"2658600","name":"Signau","asciiname":"Signau","alternatenames":["Signau"],"latitude":"46.91944","longitude":"7.72418","feature_class":"P","feature_code":"PPL","country_code":"CH","cc2":"","admin1_code":"BE","admin2_code":"245","admin3_code":"907","admin4_code":"","population":"2821","elevation":"","dem":"689","timezone":"Europe/Zurich","modification_date":"2013-02-28"},{"geonameid":"2658642","name":"Seftigen","asciiname":"Seftigen","alternatenames":["Seftigen"],"latitude":"46.78765","longitude":"7.53937","feature_class":"P","feature_code":"PPL","country_code":"CH","cc2":"","admin1_code":"BE","admin2_code":"247","admin3_code":"883","admin4_code":"","population":"2014","elevation":"","dem":"582","timezone":"Europe/Zurich","modification_date":"2013-02-28"},{"geonameid":"2658653","name":"Seedorf","asciiname":"Seedorf","alternatenames":["Seedorf"],"latitude":"47.03445","longitude":"7.31249","feature_class":"P","feature_code":"PPL","country_code":"CH","cc2":"","admin1_code":"BE","admin2_code":"243","admin3_code":"312","admin4_code":"","population":"2920","elevation":"","dem":"566","timezone":"Europe/Zurich","modification_date":"2013-02-28"},{"geonameid":"2658655","name":"Seeberg","asciiname":"Seeberg","alternatenames":["Seeberg"],"latitude":"47.14434","longitude":"7.66541","feature_class":"P","feature_code":"PPL","country_code":"CH","cc2":"","admin1_code":"BE","admin2_code":"244","admin3_code":"988","admin4_code":"","population":"1321","elevation":"","dem":"524","timezone":"Europe/Zurich","modification_date":"2013-02-28"},{"geonameid":"2658691","name":"Schüpfen","asciiname":"Schupfen","alternatenames":["Schupfen","Schüpfen"],"latitude":"47.03661","longitude":"7.37723","feature_class":"P","feature_code":"PPL","country_code":"CH","cc2":"","admin1_code":"BE","admin2_code":"243","admin3_code":"311","admin4_code":"","population":"3248","elevation":"","dem":"532","timezone":"Europe/Zurich","modification_date":"2013-02-27"},{"geonameid":"2658806","name":"Sankt Stephan","asciiname":"Sankt Stephan","alternatenames":["Sankt Stephan","St. Stephan"],"latitude":"46.51168","longitude":"7.39386","feature_class":"P","feature_code":"PPL","country_code":"CH","cc2":"","admin1_code":"BE","admin2_code":"248","admin3_code":"793","admin4_code":"","population":"1352","elevation":"","dem":"1011","timezone":"Europe/Zurich","modification_date":"2013-02-28"},{"geonameid":"2658871","name":"Saint-Imier","asciiname":"Saint-Imier","alternatenames":["Saint-Imier","Sankt Immer","Sent-Im'e","sheng yi mi ye","Сент-Имье","聖伊米耶"],"latitude":"47.15284","longitude":"6.99692","feature_class":"P","feature_code":"PPL","country_code":"CH","cc2":"","admin1_code":"BE","admin2_code":"241","admin3_code":"443","admin4_code":"","population":"5220","elevation":"","dem":"814","timezone":"Europe/Zurich","modification_date":"2013-02-27"},{"geonameid":"2658904","name":"Saanen","asciiname":"Saanen","alternatenames":["Saanen","Zanen","sa nen","Занен","萨嫩"],"latitude":"46.48956","longitude":"7.25961","feature_class":"P","feature_code":"PPLA2","country_code":"CH","cc2":"","admin1_code":"BE","admin2_code":"248","admin3_code":"843","admin4_code":"","population":"6621","elevation":"","dem":"1010","timezone":"Europe/Zurich","modification_date":"2014-03-06"},{"geonameid":"2658922","name":"Rüschegg","asciiname":"Ruschegg","alternatenames":["Rueschegg","Ruschegg","Rüeschegg","Rüschegg"],"latitude":"46.77977","longitude":"7.39167","feature_class":"P","feature_code":"PPL","country_code":"CH","cc2":"","admin1_code":"BE","admin2_code":"246","admin3_code":"853","admin4_code":"","population":"1697","elevation":"","dem":"933","timezone":"Europe/Zurich","modification_date":"2015-06-08"},{"geonameid":"2658935","name":"Rüeggisberg","asciiname":"Rueggisberg","alternatenames":["Rueggisberg","Rüeggisberg"],"latitude":"46.82216","longitude":"7.4389","feature_class":"P","feature_code":"PPL","country_code":"CH","cc2":"","admin1_code":"BE","admin2_code":"246","admin3_code":"880","admin4_code":"","population":"1933","elevation":"","dem":"944","timezone":"Europe/Zurich","modification_date":"2013-02-27"},{"geonameid":"2658939","name":"Rüderswil","asciiname":"Ruderswil","alternatenames":["Ruderswil","Rüderswil"],"latitude":"46.98415","longitude":"7.72061","feature_class":"P","feature_code":"PPL","country_code":"CH","cc2":"","admin1_code":"BE","admin2_code":"245","admin3_code":"905","admin4_code":"","population":"2329","elevation":"","dem":"647","timezone":"Europe/Zurich","modification_date":"2013-02-28"},{"geonameid":"2658940","name":"Rubigen","asciiname":"Rubigen","alternatenames":[""],"latitude":"46.89868","longitude":"7.5446","feature_class":"P","feature_code":"PPL","country_code":"CH","cc2":"","admin1_code":"BE","admin2_code":"246","admin3_code":"623","admin4_code":"","population":"2426","elevation":"","dem":"549","timezone":"Europe/Zurich","modification_date":"2013-02-27"},{"geonameid":"2658991","name":"Rohrbach","asciiname":"Rohrbach","alternatenames":[""],"latitude":"47.13521","longitude":"7.81334","feature_class":"P","feature_code":"PPL","country_code":"CH","cc2":"","admin1_code":"BE","admin2_code":"244","admin3_code":"338","admin4_code":"","population":"1386","elevation":"","dem":"580","timezone":"Europe/Zurich","modification_date":"2013-03-01"},{"geonameid":"2658994","name":"Roggwil","asciiname":"Roggwil","alternatenames":[""],"latitude":"47.24119","longitude":"7.82141","feature_class":"P","feature_code":"PPL","country_code":"CH","cc2":"","admin1_code":"BE","admin2_code":"244","admin3_code":"337","admin4_code":"","population":"3673","elevation":"","dem":"450","timezone":"Europe/Zurich","modification_date":"2013-03-01"},{"geonameid":"2659021","name":"Ringgenberg","asciiname":"Ringgenberg","alternatenames":["Ringgenberg","Ringgenberg BE"],"latitude":"46.70114","longitude":"7.89445","feature_class":"P","feature_code":"PPL","country_code":"CH","cc2":"","admin1_code":"BE","admin2_code":"250","admin3_code":"590","admin4_code":"","population":"2514","elevation":"","dem":"603","timezone":"Europe/Zurich","modification_date":"2013-02-28"},{"geonameid":"2659028","name":"Riggisberg","asciiname":"Riggisberg","alternatenames":["Riggisberg","li ji si bei ge","Риггисберг","里吉斯貝格"],"latitude":"46.81028","longitude":"7.48014","feature_class":"P","feature_code":"PPL","country_code":"CH","cc2":"","admin1_code":"BE","admin2_code":"246","admin3_code":"879","admin4_code":"","population":"2001","elevation":"","dem":"764","timezone":"Europe/Zurich","modification_date":"2013-02-27"},{"geonameid":"2659085","name":"Reconvilier","asciiname":"Reconvilier","alternatenames":["Rekonvil'e","lei kong wei li ye","Реконвилье","雷孔維利耶"],"latitude":"47.23431","longitude":"7.22239","feature_class":"P","feature_code":"PPL","country_code":"CH","cc2":"","admin1_code":"BE","admin2_code":"241","admin3_code":"703","admin4_code":"","population":"2291","elevation":"","dem":"734","timezone":"Europe/Zurich","modification_date":"2013-02-27"},{"geonameid":"2659115","name":"Radelfingen","asciiname":"Radelfingen","alternatenames":["Radelfingen","Radelfingen b. Aarberg"],"latitude":"47.02146","longitude":"7.27178","feature_class":"P","feature_code":"PPL","country_code":"CH","cc2":"","admin1_code":"BE","admin2_code":"243","admin3_code":"309","admin4_code":"","population":"1218","elevation":"","dem":"501","timezone":"Europe/Zurich","modification_date":"2013-02-28"},{"geonameid":"2659203","name":"Pieterlen","asciiname":"Pieterlen","alternatenames":[""],"latitude":"47.17501","longitude":"7.33791","feature_class":"P","feature_code":"PPL","country_code":"CH","cc2":"","admin1_code":"BE","admin2_code":"242","admin3_code":"392","admin4_code":"","population":"3317","elevation":"","dem":"440","timezone":"Europe/Zurich","modification_date":"2013-02-27"},{"geonameid":"2659228","name":"Péry","asciiname":"Pery","alternatenames":[""],"latitude":"47.19398","longitude":"7.24913","feature_class":"P","feature_code":"PPL","country_code":"CH","cc2":"","admin1_code":"BE","admin2_code":"241","admin3_code":"439","admin4_code":"","population":"1342","elevation":"","dem":"634","timezone":"Europe/Zurich","modification_date":"2013-02-27"},{"geonameid":"2659277","name":"Orvin","asciiname":"Orvin","alternatenames":[""],"latitude":"47.16068","longitude":"7.21368","feature_class":"P","feature_code":"PPL","country_code":"CH","cc2":"","admin1_code":"BE","admin2_code":"241","admin3_code":"438","admin4_code":"","population":"1181","elevation":"","dem":"673","timezone":"Europe/Zurich","modification_date":"2013-02-27"},{"geonameid":"2659282","name":"Orpund","asciiname":"Orpund","alternatenames":["Orpond"],"latitude":"47.13891","longitude":"7.30775","feature_class":"P","feature_code":"PPL","country_code":"CH","cc2":"","admin1_code":"BE","admin2_code":"242","admin3_code":"744","admin4_code":"","population":"2488","elevation":"","dem":"437","timezone":"Europe/Zurich","modification_date":"2013-02-27"},{"geonameid":"2659402","name":"Oberdiessbach","asciiname":"Oberdiessbach","alternatenames":["Oberdisbakh","shang di si ba he","Обердисбах","上迪斯巴赫"],"latitude":"46.84117","longitude":"7.6173","feature_class":"P","feature_code":"PPL","country_code":"CH","cc2":"","admin1_code":"BE","admin2_code":"246","admin3_code":"619","admin4_code":"","population":"2860","elevation":"","dem":"626","timezone":"Europe/Zurich","modification_date":"2015-06-08"},{"geonameid":"2659404","name":"Oberburg","asciiname":"Oberburg","alternatenames":["Oberburg"],"latitude":"47.03774","longitude":"7.62652","feature_class":"P","feature_code":"PPL","country_code":"CH","cc2":"","admin1_code":"BE","admin2_code":"245","admin3_code":"418","admin4_code":"","population":"2901","elevation":"","dem":"550","timezone":"Europe/Zurich","modification_date":"2013-02-28"},{"geonameid":"2659408","name":"Oberbipp","asciiname":"Oberbipp","alternatenames":[""],"latitude":"47.25296","longitude":"7.6658","feature_class":"P","feature_code":"PPL","country_code":"CH","cc2":"","admin1_code":"BE","admin2_code":"244","admin3_code":"983","admin4_code":"","population":"1440","elevation":"","dem":"472","timezone":"Europe/Zurich","modification_date":"2013-03-01"},{"geonameid":"2659447","name":"Niederwichtrach","asciiname":"Niederwichtrach","alternatenames":["Wichtrach"],"latitude":"46.8501","longitude":"7.57748","feature_class":"P","feature_code":"PPL","country_code":"CH","cc2":"","admin1_code":"BE","admin2_code":"246","admin3_code":"632","admin4_code":"","population":"3843","elevation":"","dem":"548","timezone":"Europe/Zurich","modification_date":"2015-06-08"},{"geonameid":"2659470","name":"Niederbipp","asciiname":"Niederbipp","alternatenames":["Niederbipp"],"latitude":"47.26613","longitude":"7.69461","feature_class":"P","feature_code":"PPL","country_code":"CH","cc2":"","admin1_code":"BE","admin2_code":"244","admin3_code":"981","admin4_code":"","population":"3862","elevation":"","dem":"462","timezone":"Europe/Zurich","modification_date":"2013-03-01"},{"geonameid":"2659474","name":"Nidau","asciiname":"Nidau","alternatenames":["Nidau","ni dao","nydw","Нидау","نیدو","尼道"],"latitude":"47.12545","longitude":"7.24033","feature_class":"P","feature_code":"PPL","country_code":"CH","cc2":"","admin1_code":"BE","admin2_code":"242","admin3_code":"743","admin4_code":"","population":"6696","elevation":"","dem":"437","timezone":"Europe/Zurich","modification_date":"2013-02-27"},{"geonameid":"2659532","name":"Muri","asciiname":"Muri","alternatenames":["Muri","Muri b. Bern","Muri bei Bern"],"latitude":"46.93122","longitude":"7.48658","feature_class":"P","feature_code":"PPL","country_code":"CH","cc2":"","admin1_code":"BE","admin2_code":"246","admin3_code":"356","admin4_code":"","population":"12374","elevation":"","dem":"558","timezone":"Europe/Zurich","modification_date":"2013-02-27"},{"geonameid":"2659546","name":"Münsingen","asciiname":"Munsingen","alternatenames":[""],"latitude":"46.87298","longitude":"7.561","feature_class":"P","feature_code":"PPL","country_code":"CH","cc2":"","admin1_code":"BE","admin2_code":"246","admin3_code":"616","admin4_code":"","population":"10928","elevation":"","dem":"539","timezone":"Europe/Zurich","modification_date":"2013-02-27"},{"geonameid":"2659552","name":"Münchenbuchsee","asciiname":"Munchenbuchsee","alternatenames":["Mjunkhenbukhzee","Mjunkhenbukse","ming xing bu he sai","Мюнхенбуксе","Мюнхенбухзее","明興布赫塞"],"latitude":"47.02175","longitude":"7.45036","feature_class":"P","feature_code":"PPL","country_code":"CH","cc2":"","admin1_code":"BE","admin2_code":"246","admin3_code":"546","admin4_code":"","population":"9801","elevation":"","dem":"556","timezone":"Europe/Zurich","modification_date":"2013-02-27"},{"geonameid":"2659558","name":"Mühlethurnen","asciiname":"Muhlethurnen","alternatenames":["Muehlethurnen","Mühlethurnen"],"latitude":"46.81345","longitude":"7.50881","feature_class":"P","feature_code":"PPL","country_code":"CH","cc2":"","admin1_code":"BE","admin2_code":"246","admin3_code":"876","admin4_code":"","population":"1265","elevation":"","dem":"565","timezone":"Europe/Zurich","modification_date":"2013-02-27"},{"geonameid":"2659561","name":"Mühleberg","asciiname":"Muhleberg","alternatenames":["Mjuleberg","Muehleberg BE","Mühleberg BE","mi lei bei ge","Мюлеберг","米勒貝格"],"latitude":"46.95466","longitude":"7.26102","feature_class":"P","feature_code":"PPL","country_code":"CH","cc2":"","admin1_code":"BE","admin2_code":"246","admin3_code":"668","admin4_code":"","population":"2739","elevation":"","dem":"553","timezone":"Europe/Zurich","modification_date":"2013-02-28"},{"geonameid":"2659568","name":"Moutier","asciiname":"Moutier","alternatenames":["Moutier","Mut'e","Picswiss BE-97-04 Moutier.jpg|thumb|left|300px|Vy oever Moutier","Picswiss BE-97-04 Moutier.jpg|thumb|left|300px|Vy över Moutier","mu jie","mwtyh","Мутье","موتیه","穆捷"],"latitude":"47.27818","longitude":"7.36951","feature_class":"P","feature_code":"PPL","country_code":"CH","cc2":"","admin1_code":"BE","admin2_code":"241","admin3_code":"700","admin4_code":"","population":"7721","elevation":"","dem":"536","timezone":"Europe/Zurich","modification_date":"2013-02-27"},{"geonameid":"2659695","name":"Melchnau","asciiname":"Melchnau","alternatenames":["Melchnau"],"latitude":"47.18213","longitude":"7.85128","feature_class":"P","feature_code":"PPL","country_code":"CH","cc2":"","admin1_code":"BE","admin2_code":"244","admin3_code":"333","admin4_code":"","population":"1467","elevation":"","dem":"531","timezone":"Europe/Zurich","modification_date":"2013-03-01"},{"geonameid":"2659700","name":"Meiringen","asciiname":"Meiringen","alternatenames":["Majringen","Meiringen","Meyringen","mai lin gen","Майринген","迈林根"],"latitude":"46.72709","longitude":"8.1872","feature_class":"P","feature_code":"PPL","country_code":"CH","cc2":"","admin1_code":"BE","admin2_code":"250","admin3_code":"785","admin4_code":"","population":"4652","elevation":"","dem":"599","timezone":"Europe/Zurich","modification_date":"2013-02-28"},{"geonameid":"2659701","name":"Meinisberg","asciiname":"Meinisberg","alternatenames":["Montmenil","Montménil"],"latitude":"47.15965","longitude":"7.34801","feature_class":"P","feature_code":"PPL","country_code":"CH","cc2":"","admin1_code":"BE","admin2_code":"242","admin3_code":"390","admin4_code":"","population":"1198","elevation":"","dem":"446","timezone":"Europe/Zurich","modification_date":"2013-02-27"},{"geonameid":"2659731","name":"Matten","asciiname":"Matten","alternatenames":["Matten","Matten b.I.","Matten bei Interlaken"],"latitude":"46.67833","longitude":"7.86889","feature_class":"P","feature_code":"PPL","country_code":"CH","cc2":"","admin1_code":"BE","admin2_code":"250","admin3_code":"594","admin4_code":"","population":"3676","elevation":"","dem":"576","timezone":"Europe/Zurich","modification_date":"2015-06-08"},{"geonameid":"2659781","name":"Malleray","asciiname":"Malleray","alternatenames":["Malleray-Bevilard","Malleray-Bévilard"],"latitude":"47.23839","longitude":"7.27286","feature_class":"P","feature_code":"PPL","country_code":"CH","cc2":"","admin1_code":"BE","admin2_code":"241","admin3_code":"697","admin4_code":"","population":"1918","elevation":"","dem":"700","timezone":"Europe/Zurich","modification_date":"2013-02-27"},{"geonameid":"2659805","name":"Madiswil","asciiname":"Madiswil","alternatenames":["Madisvil'","ma di si wei er","Мадисвиль","馬迪斯維爾"],"latitude":"47.16463","longitude":"7.79858","feature_class":"P","feature_code":"PPL","country_code":"CH","cc2":"","admin1_code":"BE","admin2_code":"244","admin3_code":"332","admin4_code":"","population":"1991","elevation":"","dem":"538","timezone":"Europe/Zurich","modification_date":"2013-03-01"},{"geonameid":"2659807","name":"Lyssach","asciiname":"Lyssach","alternatenames":[""],"latitude":"47.06445","longitude":"7.58228","feature_class":"P","feature_code":"PPL","country_code":"CH","cc2":"","admin1_code":"BE","admin2_code":"245","admin3_code":"415","admin4_code":"","population":"1375","elevation":"","dem":"519","timezone":"Europe/Zurich","modification_date":"2013-02-28"},{"geonameid":"2659808","name":"Lyss","asciiname":"Lyss","alternatenames":["Lis","Lyss","ZJL","li si","lys","Лис","لیس","利斯"],"latitude":"47.0741","longitude":"7.30655","feature_class":"P","feature_code":"PPL","country_code":"CH","cc2":"","admin1_code":"BE","admin2_code":"243","admin3_code":"306","admin4_code":"","population":"10937","elevation":"","dem":"445","timezone":"Europe/Zurich","modification_date":"2013-02-28"},{"geonameid":"2659814","name":"Lützelflüh","asciiname":"Lutzelfluh","alternatenames":["Luetzelflueh","Luetzelflueh-Goldbach","Lutzelfluh","Lützelflüh","Lützelflüh-Goldbach"],"latitude":"47.00757","longitude":"7.69165","feature_class":"P","feature_code":"PPL","country_code":"CH","cc2":"","admin1_code":"BE","admin2_code":"245","admin3_code":"955","admin4_code":"","population":"4035","elevation":"","dem":"608","timezone":"Europe/Zurich","modification_date":"2013-02-28"},{"geonameid":"2659845","name":"Lotzwil","asciiname":"Lotzwil","alternatenames":[""],"latitude":"47.19135","longitude":"7.79102","feature_class":"P","feature_code":"PPL","country_code":"CH","cc2":"","admin1_code":"BE","admin2_code":"244","admin3_code":"331","admin4_code":"","population":"2391","elevation":"","dem":"500","timezone":"Europe/Zurich","modification_date":"2013-03-01"},{"geonameid":"2659883","name":"Linden","asciiname":"Linden","alternatenames":["Linden","Linden bei Oberdiessbach"],"latitude":"46.84872","longitude":"7.67491","feature_class":"P","feature_code":"PPL","country_code":"CH","cc2":"","admin1_code":"BE","admin2_code":"246","admin3_code":"614","admin4_code":"","population":"1315","elevation":"","dem":"903","timezone":"Europe/Zurich","modification_date":"2013-02-28"},{"geonameid":"2659904","name":"Leuzigen","asciiname":"Leuzigen","alternatenames":["Leuzigen"],"latitude":"47.17458","longitude":"7.45775","feature_class":"P","feature_code":"PPL","country_code":"CH","cc2":"","admin1_code":"BE","admin2_code":"243","admin3_code":"388","admin4_code":"","population":"1167","elevation":"","dem":"455","timezone":"Europe/Zurich","modification_date":"2013-02-28"},{"geonameid":"2659956","name":"Lenk","asciiname":"Lenk","alternatenames":["Lenk im Simmental"],"latitude":"46.45826","longitude":"7.44298","feature_class":"P","feature_code":"PPL","country_code":"CH","cc2":"","admin1_code":"BE","admin2_code":"248","admin3_code":"792","admin4_code":"","population":"2268","elevation":"","dem":"1067","timezone":"Europe/Zurich","modification_date":"2013-02-28"},{"geonameid":"2659957","name":"Lengnau","asciiname":"Lengnau","alternatenames":["Lengnau"],"latitude":"47.18155","longitude":"7.36814","feature_class":"P","feature_code":"PPL","country_code":"CH","cc2":"","admin1_code":"BE","admin2_code":"242","admin3_code":"387","admin4_code":"","population":"7336","elevation":"","dem":"442","timezone":"Europe/Zurich","modification_date":"2013-02-27"},{"geonameid":"2659992","name":"Lauterbrunnen","asciiname":"Lauterbrunnen","alternatenames":["Lauterbrunnen","lauteobeulunen","lu da ben na","rautaburun'nen","Лаутербруннен","ラウターブルンネン","盧達本納","라우터브루넨"],"latitude":"46.59568","longitude":"7.90765","feature_class":"P","feature_code":"PPL","country_code":"CH","cc2":"","admin1_code":"BE","admin2_code":"250","admin3_code":"584","admin4_code":"","population":"2646","elevation":"","dem":"813","timezone":"Europe/Zurich","modification_date":"2013-02-28"},{"geonameid":"2659996","name":"Lauperswil","asciiname":"Lauperswil","alternatenames":["Lauperswil"],"latitude":"46.96564","longitude":"7.74214","feature_class":"P","feature_code":"PPL","country_code":"CH","cc2":"","admin1_code":"BE","admin2_code":"245","admin3_code":"903","admin4_code":"","population":"2700","elevation":"","dem":"643","timezone":"Europe/Zurich","modification_date":"2013-02-28"},{"geonameid":"2659998","name":"Laupen","asciiname":"Laupen","alternatenames":["Laupen","Laupen BE","Laupen i Bern","lao peng","lwpan  brn","Лаупен","لوپان، برن","勞彭"],"latitude":"46.90214","longitude":"7.23973","feature_class":"P","feature_code":"PPL","country_code":"CH","cc2":"","admin1_code":"BE","admin2_code":"246","admin3_code":"667","admin4_code":"","population":"2774","elevation":"","dem":"495","timezone":"Europe/Zurich","modification_date":"2013-02-28"},{"geonameid":"2660032","name":"Langnau","asciiname":"Langnau","alternatenames":["Langnau","Langnau im Emmental"],"latitude":"46.93936","longitude":"7.78738","feature_class":"P","feature_code":"PPLA2","country_code":"CH","cc2":"","admin1_code":"BE","admin2_code":"245","admin3_code":"902","admin4_code":"","population":"8784","elevation":"","dem":"677","timezone":"Europe/Zurich","modification_date":"2014-03-06"},{"geonameid":"2660034","name":"Langenthal","asciiname":"Langenthal","alternatenames":["Langental","Langental'","Langenthal","Langenthal BE","ZHW","lang gen ta er","lanzhantl  swyys","Лангенталь","لانژانتل، سوئیس","朗根塔爾"],"latitude":"47.21526","longitude":"7.79607","feature_class":"P","feature_code":"PPL","country_code":"CH","cc2":"","admin1_code":"BE","admin2_code":"244","admin3_code":"329","admin4_code":"","population":"14184","elevation":"","dem":"478","timezone":"Europe/Zurich","modification_date":"2013-03-01"},{"geonameid":"2660038","name":"La Neuveville","asciiname":"La Neuveville","alternatenames":["La Neuveville","La-Njovvil'","la nuo yi wei wei er","lnww wyl","Ла-Нёввиль","لنوو ویل","拉諾伊韋維爾"],"latitude":"47.0684","longitude":"7.09955","feature_class":"P","feature_code":"PPL","country_code":"CH","cc2":"","admin1_code":"BE","admin2_code":"241","admin3_code":"723","admin4_code":"","population":"3495","elevation":"","dem":"467","timezone":"Europe/Zurich","modification_date":"2013-02-27"},{"geonameid":"2660112","name":"Krauchthal","asciiname":"Krauchthal","alternatenames":["Krauchtal"],"latitude":"47.00964","longitude":"7.5664","feature_class":"P","feature_code":"PPL","country_code":"CH","cc2":"","admin1_code":"BE","admin2_code":"245","admin3_code":"414","admin4_code":"","population":"2339","elevation":"","dem":"583","timezone":"Europe/Zurich","modification_date":"2013-02-28"},{"geonameid":"2660115","name":"Koppigen","asciiname":"Koppigen","alternatenames":["Koppigen","ke pi gen","Коппиген","科皮根"],"latitude":"47.13385","longitude":"7.59875","feature_class":"P","feature_code":"PPL","country_code":"CH","cc2":"","admin1_code":"BE","admin2_code":"245","admin3_code":"413","admin4_code":"","population":"1977","elevation":"","dem":"479","timezone":"Europe/Zurich","modification_date":"2013-02-28"},{"geonameid":"2660117","name":"Konolfingen","asciiname":"Konolfingen","alternatenames":["Konol'fingen","Konolfingen","ke nuo er fen gen","konorufingen","Конольфинген","コノルフィンゲン","科諾爾芬根"],"latitude":"46.87909","longitude":"7.62013","feature_class":"P","feature_code":"PPL","country_code":"CH","cc2":"","admin1_code":"BE","admin2_code":"246","admin3_code":"612","admin4_code":"","population":"4562","elevation":"","dem":"662","timezone":"Europe/Zurich","modification_date":"2013-02-28"},{"geonameid":"2660119","name":"Köniz","asciiname":"Koniz","alternatenames":["Chunicis","K'onic","Kenic","Kjonic","Koeniz","Köniz","ke ni ci","kenittsu","kwnyz","Кениц","Кьониц","Кёниц","کونیز","ケーニッツ","克尼茨"],"latitude":"46.92436","longitude":"7.41457","feature_class":"P","feature_code":"PPL","country_code":"CH","cc2":"","admin1_code":"BE","admin2_code":"246","admin3_code":"355","admin4_code":"","population":"37196","elevation":"","dem":"577","timezone":"Europe/Zurich","modification_date":"2013-02-27"},{"geonameid":"2660152","name":"Kirchlindach","asciiname":"Kirchlindach","alternatenames":["Kirchlindach","Kirkhlindakh","Lindenachus","ji er he lin da he","Кирхлиндах","基爾赫林達赫"],"latitude":"46.99965","longitude":"7.41735","feature_class":"P","feature_code":"PPL","country_code":"CH","cc2":"","admin1_code":"BE","admin2_code":"246","admin3_code":"354","admin4_code":"","population":"2553","elevation":"","dem":"593","timezone":"Europe/Zurich","modification_date":"2013-02-27"},{"geonameid":"2660156","name":"Kirchberg","asciiname":"Kirchberg","alternatenames":[""],"latitude":"47.08538","longitude":"7.58288","feature_class":"P","feature_code":"PPL","country_code":"CH","cc2":"","admin1_code":"BE","admin2_code":"245","admin3_code":"412","admin4_code":"","population":"5335","elevation":"","dem":"509","timezone":"Europe/Zurich","modification_date":"2013-02-28"},{"geonameid":"2660177","name":"Kehrsatz","asciiname":"Kehrsatz","alternatenames":["Kehrsatz"],"latitude":"46.91035","longitude":"7.47096","feature_class":"P","feature_code":"PPL","country_code":"CH","cc2":"","admin1_code":"BE","admin2_code":"246","admin3_code":"870","admin4_code":"","population":"3636","elevation":"","dem":"572","timezone":"Europe/Zurich","modification_date":"2013-02-27"},{"geonameid":"2660187","name":"Kappelen","asciiname":"Kappelen","alternatenames":["Kappelen","Kappelen BE"],"latitude":"47.06015","longitude":"7.2686","feature_class":"P","feature_code":"PPL","country_code":"CH","cc2":"","admin1_code":"BE","admin2_code":"243","admin3_code":"302","admin4_code":"","population":"1075","elevation":"","dem":"447","timezone":"Europe/Zurich","modification_date":"2013-02-28"},{"geonameid":"2660191","name":"Kandersteg","asciiname":"Kandersteg","alternatenames":["Kandershteg","Kandersteg","ZHR","kan de si tai ge","Кандерштег","坎德斯泰格"],"latitude":"46.49467","longitude":"7.67326","feature_class":"P","feature_code":"PPL","country_code":"CH","cc2":"","admin1_code":"BE","admin2_code":"249","admin3_code":"565","admin4_code":"","population":"1123","elevation":"","dem":"1172","timezone":"Europe/Zurich","modification_date":"2013-02-28"},{"geonameid":"2660195","name":"Kallnach","asciiname":"Kallnach","alternatenames":["Kallnach"],"latitude":"47.02032","longitude":"7.23545","feature_class":"P","feature_code":"PPL","country_code":"CH","cc2":"","admin1_code":"BE","admin2_code":"243","admin3_code":"304","admin4_code":"","population":"1545","elevation":"","dem":"464","timezone":"Europe/Zurich","modification_date":"2013-02-28"},{"geonameid":"2660228","name":"Jegenstorf","asciiname":"Jegenstorf","alternatenames":["Jegenstorf","ye gen si tuo fu","Йегенсторф","耶根斯托夫"],"latitude":"47.04802","longitude":"7.50787","feature_class":"P","feature_code":"PPL","country_code":"CH","cc2":"","admin1_code":"BE","admin2_code":"246","admin3_code":"540","admin4_code":"","population":"4027","elevation":"","dem":"524","timezone":"Europe/Zurich","modification_date":"2013-02-28"},{"geonameid":"2660253","name":"Interlaken","asciiname":"Interlaken","alternatenames":["Entrelagos","Interlacus","Interlaken","ZIN","antrlakn","intaraken","inteolaken","yin te la ken","Ίντερλακεν","Інтерлакен","Интерлакен","אינטרלאקן","إنترلاكن","インターラーケン","因特拉肯","인터라켄"],"latitude":"46.68387","longitude":"7.86638","feature_class":"P","feature_code":"PPLA2","country_code":"CH","cc2":"","admin1_code":"BE","admin2_code":"250","admin3_code":"593","admin4_code":"","population":"5067","elevation":"","dem":"570","timezone":"Europe/Zurich","modification_date":"2013-02-28"},{"geonameid":"2660254","name":"Ins","asciiname":"Ins","alternatenames":["Anet","Ins","Ins BE","Ins i Sveits","Ins-Anet","yin si","Инс","因斯"],"latitude":"47.00584","longitude":"7.10609","feature_class":"P","feature_code":"PPL","country_code":"CH","cc2":"","admin1_code":"BE","admin2_code":"243","admin3_code":"496","admin4_code":"","population":"2826","elevation":"","dem":"478","timezone":"Europe/Zurich","modification_date":"2013-02-28"},{"geonameid":"2660281","name":"Huttwil","asciiname":"Huttwil","alternatenames":["Huttwil","Khuttvil'","awt wyl","hu te wei er","Хуттвиль","اوت ویل","胡特維爾"],"latitude":"47.11502","longitude":"7.86209","feature_class":"P","feature_code":"PPL","country_code":"CH","cc2":"","admin1_code":"BE","admin2_code":"244","admin3_code":"954","admin4_code":"","population":"4643","elevation":"","dem":"669","timezone":"Europe/Zurich","modification_date":"2013-03-01"},{"geonameid":"2660349","name":"Hindelbank","asciiname":"Hindelbank","alternatenames":[""],"latitude":"47.0427","longitude":"7.54143","feature_class":"P","feature_code":"PPL","country_code":"CH","cc2":"","admin1_code":"BE","admin2_code":"245","admin3_code":"409","admin4_code":"","population":"1994","elevation":"","dem":"523","timezone":"Europe/Zurich","modification_date":"2013-02-28"},{"geonameid":"2660351","name":"Hilterfingen","asciiname":"Hilterfingen","alternatenames":["Hilterfingen"],"latitude":"46.73521","longitude":"7.66185","feature_class":"P","feature_code":"PPL","country_code":"CH","cc2":"","admin1_code":"BE","admin2_code":"247","admin3_code":"929","admin4_code":"","population":"3841","elevation":"","dem":"588","timezone":"Europe/Zurich","modification_date":"2013-02-28"},{"geonameid":"2660355","name":"Herzogenbuchsee","asciiname":"Herzogenbuchsee","alternatenames":["Khercogenbukhze","Khercogenbukse","ZHN","he zuo gen bu he sai","Херцогенбуксе","Херцогенбухзе","赫佐根布赫塞"],"latitude":"47.18795","longitude":"7.7062","feature_class":"P","feature_code":"PPL","country_code":"CH","cc2":"","admin1_code":"BE","admin2_code":"244","admin3_code":"979","admin4_code":"","population":"5522","elevation":"","dem":"474","timezone":"Europe/Zurich","modification_date":"2013-02-28"},{"geonameid":"2660361","name":"Hermiswil","asciiname":"Hermiswil","alternatenames":["Hermiswil"],"latitude":"46.83125","longitude":"7.47775","feature_class":"P","feature_code":"PPL","country_code":"CH","cc2":"","admin1_code":"BE","admin2_code":"246","admin3_code":"880","admin4_code":"","population":"3156","elevation":"","dem":"855","timezone":"Europe/Zurich","modification_date":"2015-05-10"},{"geonameid":"2660388","name":"Heimiswil","asciiname":"Heimiswil","alternatenames":[""],"latitude":"47.06755","longitude":"7.66665","feature_class":"P","feature_code":"PPL","country_code":"CH","cc2":"","admin1_code":"BE","admin2_code":"245","admin3_code":"407","admin4_code":"","population":"1570","elevation":"","dem":"640","timezone":"Europe/Zurich","modification_date":"2013-02-28"},{"geonameid":"2660390","name":"Heimberg","asciiname":"Heimberg","alternatenames":["Heimberg","Heimberg BE"],"latitude":"46.79482","longitude":"7.60433","feature_class":"P","feature_code":"PPL","country_code":"CH","cc2":"","admin1_code":"BE","admin2_code":"247","admin3_code":"928","admin4_code":"","population":"5501","elevation":"","dem":"564","timezone":"Europe/Zurich","modification_date":"2013-02-28"},{"geonameid":"2660452","name":"Guggisberg","asciiname":"Guggisberg","alternatenames":["Guggisberg"],"latitude":"46.76756","longitude":"7.32946","feature_class":"P","feature_code":"PPL","country_code":"CH","cc2":"","admin1_code":"BE","admin2_code":"246","admin3_code":"852","admin4_code":"","population":"1628","elevation":"","dem":"1119","timezone":"Europe/Zurich","modification_date":"2013-02-27"},{"geonameid":"2660461","name":"Gstaad","asciiname":"Gstaad","alternatenames":["Gshtad","Gstadas","Gštadas","ZHK","Гштад","גשטאט"],"latitude":"46.47215","longitude":"7.28685","feature_class":"P","feature_code":"PPL","country_code":"CH","cc2":"","admin1_code":"BE","admin2_code":"248","admin3_code":"843","admin4_code":"","population":"9200","elevation":"","dem":"1055","timezone":"Europe/Zurich","modification_date":"2013-02-28"},{"geonameid":"2660491","name":"Grossaffoltern","asciiname":"Grossaffoltern","alternatenames":["Grossaffoltern"],"latitude":"47.06595","longitude":"7.36232","feature_class":"P","feature_code":"PPL","country_code":"CH","cc2":"","admin1_code":"BE","admin2_code":"243","admin3_code":"303","admin4_code":"","population":"2810","elevation":"","dem":"507","timezone":"Europe/Zurich","modification_date":"2013-02-28"},{"geonameid":"2660498","name":"Grindelwald","asciiname":"Grindelwald","alternatenames":["Grindel'val'd","Grindelvald","Grindelwald","ZHJ","ge lin de wa","gryndlwald","gryndlwwld","gurinderuvu~aruto","gurinderuwaruto","Гринделвалд","Гриндельвальд","גרינדלוולד","گراینڈلوالڈ","گریندلوالد","グリンデルワルト","グリンデルヴァルト","格林德瓦"],"latitude":"46.62396","longitude":"8.03601","feature_class":"P","feature_code":"PPL","country_code":"CH","cc2":"","admin1_code":"BE","admin2_code":"250","admin3_code":"576","admin4_code":"","population":"3730","elevation":"","dem":"1047","timezone":"Europe/Zurich","modification_date":"2013-02-28"},{"geonameid":"2660707","name":"Frutigen","asciiname":"Frutigen","alternatenames":["Frutigen","fu lu di gen","Фрутиген","弗鲁蒂根"],"latitude":"46.58782","longitude":"7.64751","feature_class":"P","feature_code":"PPLA2","country_code":"CH","cc2":"","admin1_code":"BE","admin2_code":"249","admin3_code":"563","admin4_code":"","population":"6671","elevation":"","dem":"788","timezone":"Europe/Zurich","modification_date":"2014-03-06"},{"geonameid":"2660726","name":"Frauenkappelen","asciiname":"Frauenkappelen","alternatenames":[""],"latitude":"46.95425","longitude":"7.33835","feature_class":"P","feature_code":"PPL","country_code":"CH","cc2":"","admin1_code":"BE","admin2_code":"246","admin3_code":"663","admin4_code":"","population":"1281","elevation":"","dem":"602","timezone":"Europe/Zurich","modification_date":"2013-02-28"},{"geonameid":"2660728","name":"Fraubrunnen","asciiname":"Fraubrunnen","alternatenames":["Fraubrunnen","fu lao bu lun nen","Фраубруннен","弗勞布倫嫩"],"latitude":"47.0862","longitude":"7.52727","feature_class":"P","feature_code":"PPL","country_code":"CH","cc2":"","admin1_code":"BE","admin2_code":"246","admin3_code":"538","admin4_code":"","population":"1616","elevation":"","dem":"495","timezone":"Europe/Zurich","modification_date":"2013-02-28"},{"geonameid":"2660798","name":"Ferenbalm","asciiname":"Ferenbalm","alternatenames":[""],"latitude":"46.9488","longitude":"7.21124","feature_class":"P","feature_code":"PPL","country_code":"CH","cc2":"","admin1_code":"BE","admin2_code":"246","admin3_code":"662","admin4_code":"","population":"1310","elevation":"","dem":"492","timezone":"Europe/Zurich","modification_date":"2013-02-28"},{"geonameid":"2660842","name":"Evilard","asciiname":"Evilard","alternatenames":["Evilard","Leubringen"],"latitude":"47.14969","longitude":"7.23755","feature_class":"P","feature_code":"PPL","country_code":"CH","cc2":"","admin1_code":"BE","admin2_code":"242","admin3_code":"372","admin4_code":"","population":"2328","elevation":"","dem":"712","timezone":"Europe/Zurich","modification_date":"2013-01-10"},{"geonameid":"2660864","name":"Ersigen","asciiname":"Ersigen","alternatenames":[""],"latitude":"47.09368","longitude":"7.59507","feature_class":"P","feature_code":"PPL","country_code":"CH","cc2":"","admin1_code":"BE","admin2_code":"245","admin3_code":"405","admin4_code":"","population":"1507","elevation":"","dem":"499","timezone":"Europe/Zurich","modification_date":"2013-02-28"},{"geonameid":"2660871","name":"Erlenbach im Simmental","asciiname":"Erlenbach im Simmental","alternatenames":["Ehrlenbakh","Erlenbach en Simme-Valo","Erlenbach im Simmental","xi men ta er e lun ba he","Эрленбах","錫門塔爾厄倫巴赫"],"latitude":"46.66021","longitude":"7.55445","feature_class":"P","feature_code":"PPL","country_code":"CH","cc2":"","admin1_code":"BE","admin2_code":"249","admin3_code":"763","admin4_code":"","population":"1730","elevation":"","dem":"697","timezone":"Europe/Zurich","modification_date":"2013-02-28"},{"geonameid":"2660874","name":"Erlach","asciiname":"Erlach","alternatenames":["Cerlier","Ehrlakh","Erilachus","Erlach","Erlach BE","Erlach i Sveits","ai la he","arlk  swyys","ayrlash","Эрлах","إيرلاش","ارلک، سوئیس","埃拉赫"],"latitude":"47.04297","longitude":"7.0996","feature_class":"P","feature_code":"PPL","country_code":"CH","cc2":"","admin1_code":"BE","admin2_code":"243","admin3_code":"492","admin4_code":"","population":"1108","elevation":"","dem":"429","timezone":"Europe/Zurich","modification_date":"2013-02-28"},{"geonameid":"2660876","name":"Eriswil","asciiname":"Eriswil","alternatenames":["Eriswil"],"latitude":"47.07816","longitude":"7.85149","feature_class":"P","feature_code":"PPL","country_code":"CH","cc2":"","admin1_code":"BE","admin2_code":"244","admin3_code":"953","admin4_code":"","population":"1414","elevation":"","dem":"751","timezone":"Europe/Zurich","modification_date":"2013-03-01"},{"geonameid":"2660935","name":"Eggiwil","asciiname":"Eggiwil","alternatenames":["Eggiwil"],"latitude":"46.87575","longitude":"7.79567","feature_class":"P","feature_code":"PPL","country_code":"CH","cc2":"","admin1_code":"BE","admin2_code":"245","admin3_code":"901","admin4_code":"","population":"2559","elevation":"","dem":"736","timezone":"Europe/Zurich","modification_date":"2013-02-28"},{"geonameid":"2660960","name":"Dürrenroth","asciiname":"Durrenroth","alternatenames":["Duerrenroth","Durrenroth","Dürrenroth"],"latitude":"47.08816","longitude":"7.7913","feature_class":"P","feature_code":"PPL","country_code":"CH","cc2":"","admin1_code":"BE","admin2_code":"245","admin3_code":"952","admin4_code":"","population":"1037","elevation":"","dem":"709","timezone":"Europe/Zurich","modification_date":"2013-02-28"},{"geonameid":"2661023","name":"Diemtigen","asciiname":"Diemtigen","alternatenames":["Diemtigen","Dimtigen","di mu di gen","Димтиген","迪姆蒂根"],"latitude":"46.64928","longitude":"7.56477","feature_class":"P","feature_code":"PPL","country_code":"CH","cc2":"","admin1_code":"BE","admin2_code":"249","admin3_code":"762","admin4_code":"","population":"2027","elevation":"","dem":"814","timezone":"Europe/Zurich","modification_date":"2013-02-28"},{"geonameid":"2661045","name":"Därligen","asciiname":"Darligen","alternatenames":["Daerligen","Darligen","Därligen"],"latitude":"46.66175","longitude":"7.80808","feature_class":"P","feature_code":"PPLA3","country_code":"CH","cc2":"","admin1_code":"BE","admin2_code":"250","admin3_code":"575","admin4_code":"","population":"390","elevation":"","dem":"571","timezone":"Europe/Zurich","modification_date":"2013-02-28"},{"geonameid":"2661092","name":"Courtelary","asciiname":"Courtelary","alternatenames":["Curtis Alerici","Kurtelari","ku te la li","Куртелари","庫特拉里"],"latitude":"47.17822","longitude":"7.07236","feature_class":"P","feature_code":"PPL","country_code":"CH","cc2":"","admin1_code":"BE","admin2_code":"241","admin3_code":"434","admin4_code":"","population":"1163","elevation":"","dem":"697","timezone":"Europe/Zurich","modification_date":"2013-02-27"},{"geonameid":"2661094","name":"Court","asciiname":"Court","alternatenames":[""],"latitude":"47.23956","longitude":"7.33655","feature_class":"P","feature_code":"PPL","country_code":"CH","cc2":"","admin1_code":"BE","admin2_code":"241","admin3_code":"690","admin4_code":"","population":"1328","elevation":"","dem":"667","timezone":"Europe/Zurich","modification_date":"2013-02-27"},{"geonameid":"2661117","name":"Corgémont","asciiname":"Corgemont","alternatenames":[""],"latitude":"47.19457","longitude":"7.14517","feature_class":"P","feature_code":"PPL","country_code":"CH","cc2":"","admin1_code":"BE","admin2_code":"241","admin3_code":"431","admin4_code":"","population":"1503","elevation":"","dem":"666","timezone":"Europe/Zurich","modification_date":"2013-02-27"},{"geonameid":"2661318","name":"Burgistein","asciiname":"Burgistein","alternatenames":["Burgistein"],"latitude":"46.78464","longitude":"7.49988","feature_class":"P","feature_code":"PPL","country_code":"CH","cc2":"","admin1_code":"BE","admin2_code":"247","admin3_code":"863","admin4_code":"","population":"1058","elevation":"","dem":"765","timezone":"Europe/Zurich","modification_date":"2014-05-01"},{"geonameid":"2661321","name":"Burgdorf","asciiname":"Burgdorf","alternatenames":["Berthoud","Burgdorf","Burgdorf BE","Burgdorf i Bern","Burgdorfas","ZDP","bu ge duo fu","bwrgdwrf  swyys","Бургдорф","بورگدورف، سوئیس","布格多夫"],"latitude":"47.05901","longitude":"7.62786","feature_class":"P","feature_code":"PPL","country_code":"CH","cc2":"","admin1_code":"BE","admin2_code":"245","admin3_code":"404","admin4_code":"","population":"14788","elevation":"","dem":"535","timezone":"Europe/Zurich","modification_date":"2013-02-28"},{"geonameid":"2661352","name":"Buchholterberg","asciiname":"Buchholterberg","alternatenames":["Buchholterberg"],"latitude":"46.81351","longitude":"7.67463","feature_class":"P","feature_code":"PPL","country_code":"CH","cc2":"","admin1_code":"BE","admin2_code":"247","admin3_code":"923","admin4_code":"","population":"1498","elevation":"","dem":"873","timezone":"Europe/Zurich","modification_date":"2015-06-08"},{"geonameid":"2661375","name":"Brügg","asciiname":"Brugg","alternatenames":["Brjugg","Bruegg","Brugg","Brügg","Брюгг"],"latitude":"47.1237","longitude":"7.27887","feature_class":"P","feature_code":"PPL","country_code":"CH","cc2":"","admin1_code":"BE","admin2_code":"242","admin3_code":"733","admin4_code":"","population":"3868","elevation":"","dem":"434","timezone":"Europe/Zurich","modification_date":"2013-02-27"},{"geonameid":"2661398","name":"Brienz","asciiname":"Brienz","alternatenames":["Brienc","Brienz","Brienz BE","Brienzola","beuliencheu","bu li en ci","burientsu","Бриенц","ブリエンツ","布里恩茨","브리엔츠"],"latitude":"46.7545","longitude":"8.03847","feature_class":"P","feature_code":"PPL","country_code":"CH","cc2":"","admin1_code":"BE","admin2_code":"250","admin3_code":"573","admin4_code":"","population":"2899","elevation":"","dem":"563","timezone":"Europe/Zurich","modification_date":"2013-02-28"},{"geonameid":"2661425","name":"Bowil","asciiname":"Bowil","alternatenames":["Bowil"],"latitude":"46.89304","longitude":"7.69757","feature_class":"P","feature_code":"PPL","country_code":"CH","cc2":"","admin1_code":"BE","admin2_code":"246","admin3_code":"605","admin4_code":"","population":"1414","elevation":"","dem":"730","timezone":"Europe/Zurich","modification_date":"2013-02-28"},{"geonameid":"2661450","name":"Bönigen","asciiname":"Bonigen","alternatenames":["Bjonigen","Boenigen b. Interlaken","Bonigen","Bönigen","Bönigen b. Interlaken","bo ni gen","Бёниген","伯尼根"],"latitude":"46.68736","longitude":"7.8935","feature_class":"P","feature_code":"PPL","country_code":"CH","cc2":"","admin1_code":"BE","admin2_code":"250","admin3_code":"572","admin4_code":"","population":"2233","elevation":"","dem":"569","timezone":"Europe/Zurich","modification_date":"2013-02-28"},{"geonameid":"2661455","name":"Boltigen","asciiname":"Boltigen","alternatenames":["Boltigen"],"latitude":"46.6289","longitude":"7.39111","feature_class":"P","feature_code":"PPL","country_code":"CH","cc2":"","admin1_code":"BE","admin2_code":"248","admin3_code":"791","admin4_code":"","population":"1443","elevation":"","dem":"823","timezone":"Europe/Zurich","modification_date":"2013-02-28"},{"geonameid":"2661456","name":"Bolligen","asciiname":"Bolligen","alternatenames":["Bollaigues","Bolligen","Bolligen-Dorf","bo li gen","Боллиген","博利根"],"latitude":"46.9751","longitude":"7.49697","feature_class":"P","feature_code":"PPL","country_code":"CH","cc2":"","admin1_code":"BE","admin2_code":"246","admin3_code":"352","admin4_code":"","population":"6086","elevation":"","dem":"582","timezone":"Europe/Zurich","modification_date":"2013-02-27"},{"geonameid":"2661467","name":"Blumenstein","asciiname":"Blumenstein","alternatenames":["Blumenstein","Blumenstein BE"],"latitude":"46.7421","longitude":"7.52136","feature_class":"P","feature_code":"PPL","country_code":"CH","cc2":"","admin1_code":"BE","admin2_code":"247","admin3_code":"943","admin4_code":"","population":"1154","elevation":"","dem":"663","timezone":"Europe/Zurich","modification_date":"2013-02-28"},{"geonameid":"2661506","name":"Biglen","asciiname":"Biglen","alternatenames":["Biglen"],"latitude":"46.92629","longitude":"7.62508","feature_class":"P","feature_code":"PPL","country_code":"CH","cc2":"","admin1_code":"BE","admin2_code":"246","admin3_code":"603","admin4_code":"","population":"1759","elevation":"","dem":"722","timezone":"Europe/Zurich","modification_date":"2013-02-28"},{"geonameid":"2661513","name":"Biel/Bienne","asciiname":"Biel/Bienne","alternatenames":["Belna","Biel","Biel-Bienne","Biel/Bienne","Bielo","Bienna","Bienne","Bienne/Biel","Bil","Bil'","Bil/Bjen","Bylis","ZDK","bi er","bil","bili","biru","byal","byl/byn","Бил","Бил/Бјен","Биль","Біль","بيال","بیل/بین","ბილი","ビール","比爾","빌"],"latitude":"47.13713","longitude":"7.24608","feature_class":"P","feature_code":"PPL","country_code":"CH","cc2":"","admin1_code":"BE","admin2_code":"242","admin3_code":"371","admin4_code":"","population":"48614","elevation":"434","dem":"439","timezone":"Europe/Zurich","modification_date":"2013-06-22"},{"geonameid":"2661528","name":"Bévilard","asciiname":"Bevilard","alternatenames":[""],"latitude":"47.23711","longitude":"7.28325","feature_class":"P","feature_code":"PPL","country_code":"CH","cc2":"","admin1_code":"BE","admin2_code":"241","admin3_code":"682","admin4_code":"","population":"1736","elevation":"","dem":"696","timezone":"Europe/Zurich","modification_date":"2015-06-08"},{"geonameid":"2661552","name":"Bern","asciiname":"Bern","alternatenames":["BRN","Bann","Beirn","Ben","Bern","Berna","Bernas","Berne","Berno","Bundesstadt","Bèn","Bèrna","Gorad Bern","atharvaveda","ban he na","barana","barna","beirn","beleun","berna","berni","berun","bo en","bo er ni","brn","byrn","pern","Βέρνη","Берн","Горад Берн","Բեռն","בערן","ברן","برن","بيرن","بێرن","بېرن","ܒܪܢ","अथर्ववेद","बर्न","বের্ন","ਬਰਨ","ବର୍ନ","பேர்ன்","ബേൺ","เบิร์น","པེར་ནེ།","ბერნი","ቤርን","ベルン","伯尔尼","伯恩","办合纳","베른"],"latitude":"46.94809","longitude":"7.44744","feature_class":"P","feature_code":"PPLC","country_code":"CH","cc2":"","admin1_code":"BE","admin2_code":"246","admin3_code":"351","admin4_code":"","population":"121631","elevation":"","dem":"549","timezone":"Europe/Zurich","modification_date":"2013-11-08"},{"geonameid":"2661563","name":"Belp","asciiname":"Belp","alternatenames":["Bel'p","Belp","bei er pu","Бельп","貝爾普"],"latitude":"46.89129","longitude":"7.49825","feature_class":"P","feature_code":"PPL","country_code":"CH","cc2":"","admin1_code":"BE","admin2_code":"246","admin3_code":"861","admin4_code":"","population":"9307","elevation":"","dem":"519","timezone":"Europe/Zurich","modification_date":"2013-02-27"},{"geonameid":"2661566","name":"Bellmund","asciiname":"Bellmund","alternatenames":[""],"latitude":"47.10852","longitude":"7.24608","feature_class":"P","feature_code":"PPL","country_code":"CH","cc2":"","admin1_code":"BE","admin2_code":"242","admin3_code":"732","admin4_code":"","population":"1311","elevation":"","dem":"504","timezone":"Europe/Zurich","modification_date":"2013-02-27"},{"geonameid":"2661586","name":"Beatenberg","asciiname":"Beatenberg","alternatenames":["Beatenbeig"],"latitude":"46.69896","longitude":"7.79428","feature_class":"P","feature_code":"PPL","country_code":"CH","cc2":"","admin1_code":"BE","admin2_code":"250","admin3_code":"571","admin4_code":"","population":"1188","elevation":"","dem":"1172","timezone":"Europe/Zurich","modification_date":"2013-02-28"},{"geonameid":"2661596","name":"Bätterkinden","asciiname":"Batterkinden","alternatenames":["Batterkinden","Betterkinden","Bätterkinden","bei te jin deng","Беттеркинден","貝特金登"],"latitude":"47.13363","longitude":"7.54103","feature_class":"P","feature_code":"PPL","country_code":"CH","cc2":"","admin1_code":"BE","admin2_code":"245","admin3_code":"533","admin4_code":"","population":"2748","elevation":"","dem":"472","timezone":"Europe/Zurich","modification_date":"2013-02-28"},{"geonameid":"2661612","name":"Bäriswil","asciiname":"Bariswil","alternatenames":[""],"latitude":"47.01947","longitude":"7.52709","feature_class":"P","feature_code":"PPL","country_code":"CH","cc2":"","admin1_code":"BE","admin2_code":"246","admin3_code":"403","admin4_code":"","population":"1036","elevation":"","dem":"549","timezone":"Europe/Zurich","modification_date":"2013-02-28"},{"geonameid":"2661692","name":"Attiswil","asciiname":"Attiswil","alternatenames":[""],"latitude":"47.24673","longitude":"7.61353","feature_class":"P","feature_code":"PPL","country_code":"CH","cc2":"","admin1_code":"BE","admin2_code":"244","admin3_code":"971","admin4_code":"","population":"1389","elevation":"","dem":"467","timezone":"Europe/Zurich","modification_date":"2013-03-01"},{"geonameid":"2661729","name":"Arch","asciiname":"Arch","alternatenames":[""],"latitude":"47.16533","longitude":"7.43139","feature_class":"P","feature_code":"PPL","country_code":"CH","cc2":"","admin1_code":"BE","admin2_code":"243","admin3_code":"381","admin4_code":"","population":"1574","elevation":"","dem":"475","timezone":"Europe/Zurich","modification_date":"2013-02-28"},{"geonameid":"2661849","name":"Aeschi","asciiname":"Aeschi","alternatenames":["AEschi","Aeschi bei Spiez","Äschi"],"latitude":"46.65848","longitude":"7.6965","feature_class":"P","feature_code":"PPL","country_code":"CH","cc2":"","admin1_code":"BE","admin2_code":"249","admin3_code":"562","admin4_code":"","population":"2000","elevation":"860","dem":"866","timezone":"Europe/Zurich","modification_date":"2015-06-08"},{"geonameid":"2661863","name":"Adelboden","asciiname":"Adelboden","alternatenames":["Adel'boden","Adelboden","a de bo deng","adelboden","aderuboden","Аделбоден","Адельбоден","アーデルボーデン","阿德博登","아델보덴"],"latitude":"46.49142","longitude":"7.56031","feature_class":"P","feature_code":"PPL","country_code":"CH","cc2":"","admin1_code":"BE","admin2_code":"249","admin3_code":"561","admin4_code":"","population":"3541","elevation":"","dem":"1328","timezone":"Europe/Zurich","modification_date":"2013-02-28"},{"geonameid":"2661874","name":"Aarwangen","asciiname":"Aarwangen","alternatenames":["Aarvangen","Aarwangen","Arvangen","a wan gen","Аарванген","Арванген","阿萬根"],"latitude":"47.23845","longitude":"7.76854","feature_class":"P","feature_code":"PPL","country_code":"CH","cc2":"","admin1_code":"BE","admin2_code":"244","admin3_code":"321","admin4_code":"","population":"4171","elevation":"","dem":"454","timezone":"Europe/Zurich","modification_date":"2013-03-01"},{"geonameid":"2661880","name":"Aarberg","asciiname":"Aarberg","alternatenames":["Aarberg","Arberg","a er bei ge","arbrg","Аарберг","Арберг","اربرگ","阿爾貝格"],"latitude":"47.04439","longitude":"7.27578","feature_class":"P","feature_code":"PPL","country_code":"CH","cc2":"","admin1_code":"BE","admin2_code":"243","admin3_code":"301","admin4_code":"","population":"3911","elevation":"","dem":"458","timezone":"Europe/Zurich","modification_date":"2013-02-28"},{"geonameid":"8469000","name":"Tägertschi","asciiname":"Taegertschi","alternatenames":[""],"latitude":"46.87548","longitude":"7.58529","feature_class":"P","feature_code":"PPLA3","country_code":"CH","cc2":"","admin1_code":"BE","admin2_code":"246","admin3_code":"625","admin4_code":"","population":"0","elevation":"","dem":"605","timezone":"Europe/Zurich","modification_date":"2013-02-28"}]}