{"region_data":{"countryId":"2658434","adminCode1":"NW","countryName":"Switzerland","fclName":"country, state, region,...","countryCode":"CH","lng":"8.41028","fcodeName":"first-order administrative division","toponymName":"Kanton Nidwalden","fcl":"A","numberOfChildren":1,"name":"Nidwalden","fcode":"ADM1","geonameId":2659471,"lat":"46.92739","adminName1":"Nidwalden","population":40794},"country_data":{"ISO":"CH","ISO3":"CHE","ISO_Numeric":"756","fips":"SZ","country":"Switzerland","capital":"Berne","area":"41290","Population":"7581000","Continent":"EU","tld":".ch","CurrencyCode":"CHF","CurrencyName":"Franc","Phone":"41","Postal_Code_Format":"####","Postal_Code_Regex":"^(\\d{4})$","Languages":"de-CH,fr-CH,it-CH,rm","geonameid":"2658434","neighbours":"DE,IT,LI,FR,AT","EquivalentFipsCode":""},"cities":[{"geonameid":"2657961","name":"Wolfenschiessen","asciiname":"Wolfenschiessen","alternatenames":["Vol'fenshissen","Wolfenschiessen","Вольфеншиссен"],"latitude":"46.90322","longitude":"8.39423","feature_class":"P","feature_code":"PPL","country_code":"CH","cc2":"","admin1_code":"NW","admin2_code":"700","admin3_code":"1511","admin4_code":"","population":"2080","elevation":"","dem":"517","timezone":"Europe/Zurich","modification_date":"2013-03-05"},{"geonameid":"2658502","name":"Stansstad","asciiname":"Stansstad","alternatenames":["Stansstad"],"latitude":"46.9768","longitude":"8.33553","feature_class":"P","feature_code":"PPL","country_code":"CH","cc2":"","admin1_code":"NW","admin2_code":"700","admin3_code":"1510","admin4_code":"","population":"4471","elevation":"","dem":"435","timezone":"Europe/Zurich","modification_date":"2013-03-05"},{"geonameid":"2658504","name":"Stans","asciiname":"Stans","alternatenames":["Gorad Shtans","Shhans","Shtans","Stannis","Stans","Stansas","shi tan si","shutansu","stan  swyys","syutanseu","Štansas","Горад Штанс","Штанс","Щанс","Շտանս","زٹانز","ستان، سوئیس","シュタンス","施坦斯","슈탄스"],"latitude":"46.95805","longitude":"8.36609","feature_class":"P","feature_code":"PPLA","country_code":"CH","cc2":"","admin1_code":"NW","admin2_code":"700","admin3_code":"1509","admin4_code":"","population":"7475","elevation":"","dem":"453","timezone":"Europe/Zurich","modification_date":"2015-04-08"},{"geonameid":"2660367","name":"Hergiswil","asciiname":"Hergiswil","alternatenames":["Hergiswil","Hergiswil NW","Khergisvil'","Хергисвиль"],"latitude":"46.98429","longitude":"8.30944","feature_class":"P","feature_code":"PPL","country_code":"CH","cc2":"","admin1_code":"NW","admin2_code":"700","admin3_code":"1507","admin4_code":"","population":"5437","elevation":"","dem":"452","timezone":"Europe/Zurich","modification_date":"2013-03-04"},{"geonameid":"2660892","name":"Ennetbürgen","asciiname":"Ennetburgen","alternatenames":["Ennetbuergen","Ennetburgen","Ennetbürgen"],"latitude":"46.98423","longitude":"8.41003","feature_class":"P","feature_code":"PPLA3","country_code":"CH","cc2":"","admin1_code":"NW","admin2_code":"700","admin3_code":"1505","admin4_code":"","population":"4226","elevation":"","dem":"436","timezone":"Europe/Zurich","modification_date":"2013-03-05"},{"geonameid":"2660907","name":"Emmetten","asciiname":"Emmetten","alternatenames":["Emmetten","Emmeuen"],"latitude":"46.95658","longitude":"8.51467","feature_class":"P","feature_code":"PPLA3","country_code":"CH","cc2":"","admin1_code":"NW","admin2_code":"700","admin3_code":"1504","admin4_code":"","population":"1232","elevation":"","dem":"761","timezone":"Europe/Zurich","modification_date":"2013-03-05"},{"geonameid":"2661053","name":"Dallenwil","asciiname":"Dallenwil","alternatenames":["Dallenwil"],"latitude":"46.9242","longitude":"8.38785","feature_class":"P","feature_code":"PPL","country_code":"CH","cc2":"","admin1_code":"NW","admin2_code":"700","admin3_code":"1503","admin4_code":"","population":"1738","elevation":"","dem":"565","timezone":"Europe/Zurich","modification_date":"2013-03-05"},{"geonameid":"2661328","name":"Buochs","asciiname":"Buochs","alternatenames":["BXO","Buochs"],"latitude":"46.97398","longitude":"8.42279","feature_class":"P","feature_code":"PPL","country_code":"CH","cc2":"","admin1_code":"NW","admin2_code":"700","admin3_code":"1502","admin4_code":"","population":"5524","elevation":"","dem":"441","timezone":"Europe/Zurich","modification_date":"2013-03-05"},{"geonameid":"2661585","name":"Beckenried","asciiname":"Beckenried","alternatenames":["Beckenried"],"latitude":"46.96653","longitude":"8.47575","feature_class":"P","feature_code":"PPL","country_code":"CH","cc2":"","admin1_code":"NW","admin2_code":"700","admin3_code":"1501","admin4_code":"","population":"3050","elevation":"","dem":"434","timezone":"Europe/Zurich","modification_date":"2015-04-08"}]}