{"region_data":{"countryId":"3202326","adminCode1":"02","countryName":"Croatia","fclName":"country, state, region,...","countryCode":"HR","lng":"17.75","fcodeName":"first-order administrative division","toponymName":"Brodsko-Posavska Županija","fcl":"A","numberOfChildren":2,"name":"Brodsko-Posavska Županija","fcode":"ADM1","geonameId":3337512,"lat":"45.16667","adminName1":"Brodsko-Posavska","population":158575},"country_data":{"ISO":"HR","ISO3":"HRV","ISO_Numeric":"191","fips":"HR","country":"Croatia","capital":"Zagreb","area":"56542","Population":"4491000","Continent":"EU","tld":".hr","CurrencyCode":"HRK","CurrencyName":"Kuna","Phone":"385","Postal_Code_Format":"#####","Postal_Code_Regex":"^(?:HR)*(\\d{5})$","Languages":"hr-HR,sr","geonameid":"3202326","neighbours":"HU,SI,BA,ME,RS","EquivalentFipsCode":""},"cities":[{"geonameid":"3187153","name":"Vrpolje","asciiname":"Vrpolje","alternatenames":["Vrpolje"],"latitude":"45.21056","longitude":"18.40556","feature_class":"P","feature_code":"PPL","country_code":"HR","cc2":"","admin1_code":"02","admin2_code":"","admin3_code":"","admin4_code":"","population":"2120","elevation":"","dem":"86","timezone":"Europe/Zagreb","modification_date":"2012-01-19"},{"geonameid":"3187271","name":"Vrbova","asciiname":"Vrbova","alternatenames":["Orbova","Vrbova"],"latitude":"45.21861","longitude":"17.57778","feature_class":"P","feature_code":"PPL","country_code":"HR","cc2":"","admin1_code":"02","admin2_code":"","admin3_code":"","admin4_code":"","population":"1051","elevation":"","dem":"127","timezone":"Europe/Zagreb","modification_date":"2012-01-19"},{"geonameid":"3190544","name":"Slobodnica","asciiname":"Slobodnica","alternatenames":["Slobodnica"],"latitude":"45.16222","longitude":"17.93278","feature_class":"P","feature_code":"PPL","country_code":"HR","cc2":"","admin1_code":"02","admin2_code":"","admin3_code":"","admin4_code":"","population":"1600","elevation":"","dem":"88","timezone":"Europe/Zagreb","modification_date":"2012-01-19"},{"geonameid":"3190586","name":"Slavonski Brod","asciiname":"Slavonski Brod","alternatenames":["Brod","Bród","Marsonia","Slavons'kij Brod","Slavonski Brod","Slavonski Brodas","Slavonski brod","Slavonski-Brod","Slawonisch Brod","aslawnsky brd","seullabonseukibeulodeu","si la wo ni ya bu luo de","sla wxn ski br xd","slafwnsky brwd","slbwnsqy brwd","Славонски Брод","Славонски брод","Славонски-Брод","Славонський Брод","סלבונסקי ברוד","اسلاونسکی برد","سلافونسكي برود","سلاڤۆنسکی برۆد","สลาวอนสกีบรอด","スラヴォンスキ・ブロド","斯拉沃尼亞布羅德","슬라본스키브로드"],"latitude":"45.16028","longitude":"18.01556","feature_class":"P","feature_code":"PPLA","country_code":"HR","cc2":"","admin1_code":"02","admin2_code":"3190585","admin3_code":"","admin4_code":"","population":"60742","elevation":"","dem":"89","timezone":"Europe/Zagreb","modification_date":"2013-01-25"},{"geonameid":"3190906","name":"Sikirevci","asciiname":"Sikirevci","alternatenames":["Sikirevci"],"latitude":"45.10889","longitude":"18.46444","feature_class":"P","feature_code":"PPL","country_code":"HR","cc2":"","admin1_code":"02","admin2_code":"","admin3_code":"","admin4_code":"","population":"1979","elevation":"","dem":"84","timezone":"Europe/Zagreb","modification_date":"2012-01-19"},{"geonameid":"3190934","name":"Sibinj","asciiname":"Sibinj","alternatenames":["Sibinj"],"latitude":"45.19167","longitude":"17.90806","feature_class":"P","feature_code":"PPL","country_code":"HR","cc2":"","admin1_code":"02","admin2_code":"","admin3_code":"","admin4_code":"","population":"2736","elevation":"","dem":"124","timezone":"Europe/Zagreb","modification_date":"2012-05-06"},{"geonameid":"3191720","name":"Rešetari","asciiname":"Resetari","alternatenames":["Resetari","Rešetari"],"latitude":"45.25639","longitude":"17.46306","feature_class":"P","feature_code":"PPL","country_code":"HR","cc2":"","admin1_code":"02","admin2_code":"","admin3_code":"","admin4_code":"","population":"2685","elevation":"","dem":"144","timezone":"Europe/Zagreb","modification_date":"2012-01-19"},{"geonameid":"3192892","name":"Podvinje","asciiname":"Podvinje","alternatenames":["Podvinj","Podvinje"],"latitude":"45.19028","longitude":"18.02694","feature_class":"P","feature_code":"PPL","country_code":"HR","cc2":"","admin1_code":"02","admin2_code":"","admin3_code":"","admin4_code":"","population":"3767","elevation":"","dem":"114","timezone":"Europe/Zagreb","modification_date":"2012-01-19"},{"geonameid":"3194010","name":"Oriovac","asciiname":"Oriovac","alternatenames":["Oriovac","Oriovaci"],"latitude":"45.16611","longitude":"17.76","feature_class":"P","feature_code":"PPL","country_code":"HR","cc2":"","admin1_code":"02","admin2_code":"","admin3_code":"","admin4_code":"","population":"2031","elevation":"","dem":"120","timezone":"Europe/Zagreb","modification_date":"2012-01-19"},{"geonameid":"3194145","name":"Okučani","asciiname":"Okucani","alternatenames":["Okucani","Okučani"],"latitude":"45.25833","longitude":"17.20167","feature_class":"P","feature_code":"PPL","country_code":"HR","cc2":"","admin1_code":"02","admin2_code":"","admin3_code":"","admin4_code":"","population":"1950","elevation":"","dem":"113","timezone":"Europe/Zagreb","modification_date":"2012-01-19"},{"geonameid":"3194449","name":"Nova Gradiška","asciiname":"Nova Gradiska","alternatenames":["Neu-Gradischka","Neu-Gradiska","Nova Gradiska","Nova Gradisska","Nova Gradiška","Nova Ujgradiska","Nova Újgradiska","Ujgradiska","Újgradiska"],"latitude":"45.255","longitude":"17.38306","feature_class":"P","feature_code":"PPL","country_code":"HR","cc2":"","admin1_code":"02","admin2_code":"","admin3_code":"","admin4_code":"","population":"13329","elevation":"","dem":"123","timezone":"Europe/Zagreb","modification_date":"2012-01-19"},{"geonameid":"3196000","name":"Lužani","asciiname":"Luzani","alternatenames":[""],"latitude":"45.16806","longitude":"17.70694","feature_class":"P","feature_code":"PPL","country_code":"HR","cc2":"","admin1_code":"02","admin2_code":"","admin3_code":"","admin4_code":"","population":"1198","elevation":"","dem":"92","timezone":"Europe/Zagreb","modification_date":"2006-01-17"},{"geonameid":"3196321","name":"Ljupina","asciiname":"Ljupina","alternatenames":[""],"latitude":"45.2175","longitude":"17.38278","feature_class":"P","feature_code":"PPL","country_code":"HR","cc2":"","admin1_code":"02","admin2_code":"","admin3_code":"","admin4_code":"","population":"1081","elevation":"","dem":"100","timezone":"Europe/Zagreb","modification_date":"2006-01-17"},{"geonameid":"3197086","name":"Kruševica","asciiname":"Krusevica","alternatenames":[""],"latitude":"45.0775","longitude":"18.48278","feature_class":"P","feature_code":"PPL","country_code":"HR","cc2":"","admin1_code":"02","admin2_code":"","admin3_code":"","admin4_code":"","population":"1400","elevation":"","dem":"83","timezone":"Europe/Zagreb","modification_date":"2006-01-17"},{"geonameid":"3199474","name":"Gundinci","asciiname":"Gundinci","alternatenames":["Gundinci"],"latitude":"45.15833","longitude":"18.49139","feature_class":"P","feature_code":"PPL","country_code":"HR","cc2":"","admin1_code":"02","admin2_code":"","admin3_code":"","admin4_code":"","population":"2305","elevation":"","dem":"81","timezone":"Europe/Zagreb","modification_date":"2012-01-19"},{"geonameid":"3200714","name":"Garčin","asciiname":"Garcin","alternatenames":["Garcin","Garčin"],"latitude":"45.18278","longitude":"18.18306","feature_class":"P","feature_code":"PPL","country_code":"HR","cc2":"","admin1_code":"02","admin2_code":"","admin3_code":"","admin4_code":"","population":"1044","elevation":"","dem":"92","timezone":"Europe/Zagreb","modification_date":"2012-01-19"},{"geonameid":"3202172","name":"Davor","asciiname":"Davor","alternatenames":["Davor"],"latitude":"45.11528","longitude":"17.51639","feature_class":"P","feature_code":"PPL","country_code":"HR","cc2":"","admin1_code":"02","admin2_code":"","admin3_code":"","admin4_code":"","population":"2525","elevation":"","dem":"89","timezone":"Europe/Zagreb","modification_date":"2012-01-19"},{"geonameid":"3202698","name":"Cernik","asciiname":"Cernik","alternatenames":["Cernik"],"latitude":"45.28861","longitude":"17.38194","feature_class":"P","feature_code":"PPL","country_code":"HR","cc2":"","admin1_code":"02","admin2_code":"","admin3_code":"","admin4_code":"","population":"1848","elevation":"","dem":"171","timezone":"Europe/Zagreb","modification_date":"2012-05-06"},{"geonameid":"3203026","name":"Bukovlje","asciiname":"Bukovlje","alternatenames":["Bukovlje","Bukovlje Podvinjsko","Podvinjsko Bukovlje"],"latitude":"45.18528","longitude":"18.07","feature_class":"P","feature_code":"PPL","country_code":"HR","cc2":"","admin1_code":"02","admin2_code":"","admin3_code":"","admin4_code":"","population":"1867","elevation":"","dem":"112","timezone":"Europe/Zagreb","modification_date":"2012-01-19"},{"geonameid":"3204398","name":"Batrina","asciiname":"Batrina","alternatenames":["Batrina"],"latitude":"45.18944","longitude":"17.66639","feature_class":"P","feature_code":"PPL","country_code":"HR","cc2":"","admin1_code":"02","admin2_code":"","admin3_code":"","admin4_code":"","population":"1101","elevation":"","dem":"102","timezone":"Europe/Zagreb","modification_date":"2012-01-19"},{"geonameid":"3296403","name":"Korenica","asciiname":"Korenica","alternatenames":[""],"latitude":"45.22472","longitude":"18.16556","feature_class":"P","feature_code":"PPL","country_code":"HR","cc2":"","admin1_code":"02","admin2_code":"","admin3_code":"","admin4_code":"","population":"1578","elevation":"","dem":"171","timezone":"Europe/Zagreb","modification_date":"2006-01-17"}]}