{"region_data":{"countryId":"3202326","adminCode1":"07","countryName":"Croatia","fclName":"country, state, region,...","countryCode":"HR","lng":"16","fcodeName":"first-order administrative division","toponymName":"Krapinsko-Zagorska Županija","fcl":"A","numberOfChildren":5,"name":"Krapinsko-Zagorska Županija","fcode":"ADM1","geonameId":3337519,"lat":"46.08333","adminName1":"Krapinsko-Zagorska","population":132892},"country_data":{"ISO":"HR","ISO3":"HRV","ISO_Numeric":"191","fips":"HR","country":"Croatia","capital":"Zagreb","area":"56542","Population":"4491000","Continent":"EU","tld":".hr","CurrencyCode":"HRK","CurrencyName":"Kuna","Phone":"385","Postal_Code_Format":"#####","Postal_Code_Regex":"^(?:HR)*(\\d{5})$","Languages":"hr-HR,sr","geonameid":"3202326","neighbours":"HU,SI,BA,ME,RS","EquivalentFipsCode":""},"cities":[{"geonameid":"3186406","name":"Zlatar","asciiname":"Zlatar","alternatenames":["Zlatar"],"latitude":"46.09417","longitude":"16.07083","feature_class":"P","feature_code":"PPL","country_code":"HR","cc2":"","admin1_code":"07","admin2_code":"","admin3_code":"","admin4_code":"","population":"2903","elevation":"","dem":"180","timezone":"Europe/Zagreb","modification_date":"2012-01-19"},{"geonameid":"3186984","name":"Zabok","asciiname":"Zabok","alternatenames":["Zabok","Забок"],"latitude":"46.02944","longitude":"15.915","feature_class":"P","feature_code":"PPL","country_code":"HR","cc2":"","admin1_code":"07","admin2_code":"","admin3_code":"","admin4_code":"","population":"2873","elevation":"","dem":"146","timezone":"Europe/Zagreb","modification_date":"2012-01-19"},{"geonameid":"3191097","name":"Selnica","asciiname":"Selnica","alternatenames":[""],"latitude":"46.02333","longitude":"16.03917","feature_class":"P","feature_code":"PPL","country_code":"HR","cc2":"","admin1_code":"07","admin2_code":"","admin3_code":"","admin4_code":"","population":"1111","elevation":"","dem":"192","timezone":"Europe/Zagreb","modification_date":"2006-01-17"},{"geonameid":"3192111","name":"Radoboj","asciiname":"Radoboj","alternatenames":["Radoboj","Radobolj"],"latitude":"46.16639","longitude":"15.92361","feature_class":"P","feature_code":"PPL","country_code":"HR","cc2":"","admin1_code":"07","admin2_code":"","admin3_code":"","admin4_code":"","population":"1301","elevation":"","dem":"257","timezone":"Europe/Zagreb","modification_date":"2012-01-19"},{"geonameid":"3192545","name":"Pregrada","asciiname":"Pregrada","alternatenames":["Pregrada","prgrada","pu lei ge la da","Преграда","پرگرادا","پرێگرادا","普雷格拉達"],"latitude":"46.16417","longitude":"15.75083","feature_class":"P","feature_code":"PPL","country_code":"HR","cc2":"","admin1_code":"07","admin2_code":"","admin3_code":"","admin4_code":"","population":"1662","elevation":"","dem":"187","timezone":"Europe/Zagreb","modification_date":"2012-01-19"},{"geonameid":"3193962","name":"Oroslavje","asciiname":"Oroslavje","alternatenames":["Oroslavje"],"latitude":"45.99672","longitude":"15.91507","feature_class":"P","feature_code":"PPL","country_code":"HR","cc2":"","admin1_code":"07","admin2_code":"","admin3_code":"","admin4_code":"","population":"3437","elevation":"","dem":"170","timezone":"Europe/Zagreb","modification_date":"2014-03-28"},{"geonameid":"3195176","name":"Mihovljan","asciiname":"Mihovljan","alternatenames":["Mihovlan","Mihovljan"],"latitude":"46.13306","longitude":"15.97222","feature_class":"P","feature_code":"PPLL","country_code":"HR","cc2":"","admin1_code":"07","admin2_code":"","admin3_code":"","admin4_code":"","population":"1236","elevation":"","dem":"227","timezone":"Europe/Zagreb","modification_date":"2012-01-19"},{"geonameid":"3195499","name":"Marija Bistrica","asciiname":"Marija Bistrica","alternatenames":["Marija Bistrica","Marija-Bistrica","Мария-Бистрица"],"latitude":"46.00611","longitude":"16.11111","feature_class":"P","feature_code":"PPL","country_code":"HR","cc2":"","admin1_code":"07","admin2_code":"","admin3_code":"","admin4_code":"","population":"1107","elevation":"","dem":"175","timezone":"Europe/Zagreb","modification_date":"2012-01-19"},{"geonameid":"3197369","name":"Krapina","asciiname":"Krapina","alternatenames":["Krapina","kurapina","Крапина","クラピナ"],"latitude":"46.16083","longitude":"15.87889","feature_class":"P","feature_code":"PPLA","country_code":"HR","cc2":"","admin1_code":"07","admin2_code":"3197366","admin3_code":"","admin4_code":"","population":"4725","elevation":"","dem":"237","timezone":"Europe/Zagreb","modification_date":"2012-12-12"},{"geonameid":"3204387","name":"Bedekovčina","asciiname":"Bedekovcina","alternatenames":["Bedekovcina","Bedekovčina","Donja Bedekovcina","Donja Bedekovčina"],"latitude":"46.04111","longitude":"15.99639","feature_class":"P","feature_code":"PPL","country_code":"HR","cc2":"","admin1_code":"07","admin2_code":"","admin3_code":"","admin4_code":"","population":"3503","elevation":"","dem":"152","timezone":"Europe/Zagreb","modification_date":"2012-01-19"}]}