{"region_data":{"countryId":"2328926","adminCode1":"21","countryName":"Nigeria","fclName":"country, state, region,...","countryCode":"NG","lng":"7.83333","fcodeName":"first-order administrative division","toponymName":"Akwa Ibom State","fcl":"A","numberOfChildren":31,"name":"Akwa Ibom State","fcode":"ADM1","geonameId":2350813,"lat":"5","adminName1":"Akwa Ibom","population":4805451},"country_data":{"ISO":"NG","ISO3":"NGA","ISO_Numeric":"566","fips":"NI","country":"Nigeria","capital":"Abuja","area":"923768","Population":"154000000","Continent":"AF","tld":".ng","CurrencyCode":"NGN","CurrencyName":"Naira","Phone":"234","Postal_Code_Format":"######","Postal_Code_Regex":"^(\\d{6})$","Languages":"en-NG,ha,yo,ig,ff","geonameid":"2328926","neighbours":"TD,NE,BJ,CM","EquivalentFipsCode":""},"cities":[{"geonameid":"2319480","name":"Uyo","asciiname":"Uyo","alternatenames":["QUO","Uyo"],"latitude":"5.05127","longitude":"7.9335","feature_class":"P","feature_code":"PPLA","country_code":"NG","cc2":"","admin1_code":"21","admin2_code":"","admin3_code":"","admin4_code":"","population":"436606","elevation":"","dem":"45","timezone":"Africa/Lagos","modification_date":"2014-08-19"},{"geonameid":"2319522","name":"Utu Etim Ekpo","asciiname":"Utu Etim Ekpo","alternatenames":["Utu Etim","Utu Etim Ekpo"],"latitude":"5.00485","longitude":"7.61028","feature_class":"P","feature_code":"PPLA2","country_code":"NG","cc2":"","admin1_code":"21","admin2_code":"","admin3_code":"","admin4_code":"","population":"0","elevation":"","dem":"55","timezone":"Africa/Lagos","modification_date":"2015-06-07"},{"geonameid":"2319695","name":"Uquo","asciiname":"Uquo","alternatenames":[""],"latitude":"4.65832","longitude":"8.05868","feature_class":"P","feature_code":"PPLA2","country_code":"NG","cc2":"","admin1_code":"21","admin2_code":"","admin3_code":"","admin4_code":"","population":"0","elevation":"","dem":"39","timezone":"Africa/Lagos","modification_date":"2015-06-07"},{"geonameid":"2325688","name":"Oron","asciiname":"Oron","alternatenames":["Oron","Oron Town"],"latitude":"4.82171","longitude":"8.23504","feature_class":"P","feature_code":"PPLA2","country_code":"NG","cc2":"","admin1_code":"21","admin2_code":"","admin3_code":"","admin4_code":"","population":"0","elevation":"","dem":"20","timezone":"Africa/Lagos","modification_date":"2015-06-07"},{"geonameid":"2325894","name":"Ikot Abasi","asciiname":"Ikot Abasi","alternatenames":["Egwanga","Ikot Abasi","Opobo"],"latitude":"4.56851","longitude":"7.55262","feature_class":"P","feature_code":"PPLA2","country_code":"NG","cc2":"","admin1_code":"21","admin2_code":"","admin3_code":"","admin4_code":"","population":"0","elevation":"","dem":"13","timezone":"Africa/Lagos","modification_date":"2015-06-07"},{"geonameid":"2327025","name":"Okoroete","asciiname":"Okoroete","alternatenames":["Okoro-Ete","Okoroete"],"latitude":"4.54077","longitude":"7.74858","feature_class":"P","feature_code":"PPLA2","country_code":"NG","cc2":"","admin1_code":"21","admin2_code":"","admin3_code":"","admin4_code":"","population":"0","elevation":"","dem":"12","timezone":"Africa/Lagos","modification_date":"2015-06-07"},{"geonameid":"2327043","name":"Okopedi","asciiname":"Okopedi","alternatenames":[""],"latitude":"4.84918","longitude":"8.12564","feature_class":"P","feature_code":"PPLA2","country_code":"NG","cc2":"","admin1_code":"21","admin2_code":"","admin3_code":"","admin4_code":"","population":"0","elevation":"","dem":"49","timezone":"Africa/Lagos","modification_date":"2015-06-07"},{"geonameid":"2327089","name":"Oko Ita","asciiname":"Oko Ita","alternatenames":["Oko Ita","Okolta"],"latitude":"5.192","longitude":"7.89531","feature_class":"P","feature_code":"PPLA2","country_code":"NG","cc2":"","admin1_code":"21","admin2_code":"","admin3_code":"","admin4_code":"","population":"0","elevation":"","dem":"66","timezone":"Africa/Lagos","modification_date":"2015-06-07"},{"geonameid":"2327943","name":"Odot","asciiname":"Odot","alternatenames":[""],"latitude":"4.83095","longitude":"8.03839","feature_class":"P","feature_code":"PPLA2","country_code":"NG","cc2":"","admin1_code":"21","admin2_code":"","admin3_code":"","admin4_code":"","population":"0","elevation":"","dem":"48","timezone":"Africa/Lagos","modification_date":"2015-06-07"},{"geonameid":"2327949","name":"Odoro Ikpe","asciiname":"Odoro Ikpe","alternatenames":["Odoro Ikpe","Ududu Ikpe"],"latitude":"5.35835","longitude":"7.75184","feature_class":"P","feature_code":"PPLA2","country_code":"NG","cc2":"","admin1_code":"21","admin2_code":"","admin3_code":"","admin4_code":"","population":"0","elevation":"","dem":"121","timezone":"Africa/Lagos","modification_date":"2015-06-07"},{"geonameid":"2328583","name":"Nung Udoe","asciiname":"Nung Udoe","alternatenames":[""],"latitude":"4.91657","longitude":"7.96314","feature_class":"P","feature_code":"PPLA2","country_code":"NG","cc2":"","admin1_code":"21","admin2_code":"","admin3_code":"","admin4_code":"","population":"0","elevation":"","dem":"53","timezone":"Africa/Lagos","modification_date":"2015-06-07"},{"geonameid":"2328655","name":"Nto Edino","asciiname":"Nto Edino","alternatenames":[""],"latitude":"5.25704","longitude":"7.57569","feature_class":"P","feature_code":"PPLA2","country_code":"NG","cc2":"","admin1_code":"21","admin2_code":"","admin3_code":"","admin4_code":"","population":"0","elevation":"","dem":"75","timezone":"Africa/Lagos","modification_date":"2015-06-07"},{"geonameid":"2328814","name":"Mkpat Enin","asciiname":"Mkpat Enin","alternatenames":["Mkpat Enin","Nkpat Enin"],"latitude":"4.73478","longitude":"7.74897","feature_class":"P","feature_code":"PPLA2","country_code":"NG","cc2":"","admin1_code":"21","admin2_code":"","admin3_code":"","admin4_code":"","population":"0","elevation":"","dem":"38","timezone":"Africa/Lagos","modification_date":"2015-06-07"},{"geonameid":"2336985","name":"Itu","asciiname":"Itu","alternatenames":[""],"latitude":"5.20131","longitude":"7.98373","feature_class":"P","feature_code":"PPLA2","country_code":"NG","cc2":"","admin1_code":"21","admin2_code":"","admin3_code":"","admin4_code":"","population":"36358","elevation":"","dem":"32","timezone":"Africa/Lagos","modification_date":"2015-06-07"},{"geonameid":"2338057","name":"Ikot Ibritam","asciiname":"Ikot Ibritam","alternatenames":["Ikot Ibritam","Ikot Ibritan"],"latitude":"4.81171","longitude":"7.61401","feature_class":"P","feature_code":"PPLA2","country_code":"NG","cc2":"","admin1_code":"21","admin2_code":"","admin3_code":"","admin4_code":"","population":"0","elevation":"","dem":"27","timezone":"Africa/Lagos","modification_date":"2015-06-07"},{"geonameid":"2338106","name":"Ikot Ekpene","asciiname":"Ikot Ekpene","alternatenames":["Ikot Ekpene"],"latitude":"5.18194","longitude":"7.71481","feature_class":"P","feature_code":"PPLA2","country_code":"NG","cc2":"","admin1_code":"21","admin2_code":"","admin3_code":"","admin4_code":"","population":"254806","elevation":"","dem":"89","timezone":"Africa/Lagos","modification_date":"2015-06-07"},{"geonameid":"2338140","name":"Afaha Ikot Ebak","asciiname":"Afaha Ikot Ebak","alternatenames":["Afaha Ikot Ebak","Afaha-Iko-Ebat","Ikot Ebak","Ikot Ebak Efagha"],"latitude":"5.12504","longitude":"7.65716","feature_class":"P","feature_code":"PPLA2","country_code":"NG","cc2":"","admin1_code":"21","admin2_code":"","admin3_code":"","admin4_code":"","population":"0","elevation":"","dem":"88","timezone":"Africa/Lagos","modification_date":"2015-06-07"},{"geonameid":"2338945","name":"Idu","asciiname":"Idu","alternatenames":[""],"latitude":"5.03005","longitude":"8.01716","feature_class":"P","feature_code":"PPLA2","country_code":"NG","cc2":"","admin1_code":"21","admin2_code":"","admin3_code":"","admin4_code":"","population":"0","elevation":"","dem":"72","timezone":"Africa/Lagos","modification_date":"2015-06-07"},{"geonameid":"2343057","name":"Etinan","asciiname":"Etinan","alternatenames":["Etinan"],"latitude":"4.84262","longitude":"7.85252","feature_class":"P","feature_code":"PPLA2","country_code":"NG","cc2":"","admin1_code":"21","admin2_code":"","admin3_code":"","admin4_code":"","population":"10318","elevation":"","dem":"39","timezone":"Africa/Lagos","modification_date":"2015-06-07"},{"geonameid":"2343093","name":"Esuk Oron","asciiname":"Esuk Oron","alternatenames":[""],"latitude":"4.80293","longitude":"8.25341","feature_class":"P","feature_code":"PPL","country_code":"NG","cc2":"","admin1_code":"21","admin2_code":"","admin3_code":"","admin4_code":"","population":"112033","elevation":"","dem":"38","timezone":"Africa/Lagos","modification_date":"2006-01-17"},{"geonameid":"2343267","name":"Enwang","asciiname":"Enwang","alternatenames":["Engwang","Enwang"],"latitude":"4.65643","longitude":"8.25206","feature_class":"P","feature_code":"PPLA2","country_code":"NG","cc2":"","admin1_code":"21","admin2_code":"","admin3_code":"","admin4_code":"","population":"0","elevation":"","dem":"28","timezone":"Africa/Lagos","modification_date":"2015-06-07"},{"geonameid":"2343720","name":"Eket","asciiname":"Eket","alternatenames":["Eket"],"latitude":"4.64231","longitude":"7.92438","feature_class":"P","feature_code":"PPLA2","country_code":"NG","cc2":"","admin1_code":"21","admin2_code":"","admin3_code":"","admin4_code":"","population":"25569","elevation":"","dem":"30","timezone":"Africa/Lagos","modification_date":"2015-06-07"},{"geonameid":"2352288","name":"Afaha Offiong","asciiname":"Afaha Offiong","alternatenames":["Afaha Obio Offiong","Afaha Obio Ofiong","Afaha Offiong"],"latitude":"4.86226","longitude":"7.90626","feature_class":"P","feature_code":"PPLA2","country_code":"NG","cc2":"","admin1_code":"21","admin2_code":"","admin3_code":"","admin4_code":"","population":"0","elevation":"","dem":"48","timezone":"Africa/Lagos","modification_date":"2015-06-07"},{"geonameid":"2353100","name":"Abak","asciiname":"Abak","alternatenames":["Abak"],"latitude":"4.98236","longitude":"7.78922","feature_class":"P","feature_code":"PPLA2","country_code":"NG","cc2":"","admin1_code":"21","admin2_code":"","admin3_code":"","admin4_code":"","population":"12562","elevation":"","dem":"56","timezone":"Africa/Lagos","modification_date":"2015-06-07"},{"geonameid":"7054616","name":"Abat","asciiname":"Abat","alternatenames":[""],"latitude":"4.61712","longitude":"7.86639","feature_class":"P","feature_code":"PPLA2","country_code":"NG","cc2":"","admin1_code":"21","admin2_code":"","admin3_code":"","admin4_code":"","population":"0","elevation":"","dem":"23","timezone":"Africa/Lagos","modification_date":"2015-06-08"},{"geonameid":"7073463","name":"Urua Inyang","asciiname":"Urua Inyang","alternatenames":[""],"latitude":"5.02309","longitude":"7.53895","feature_class":"P","feature_code":"PPLA2","country_code":"NG","cc2":"","admin1_code":"21","admin2_code":"","admin3_code":"","admin4_code":"","population":"0","elevation":"","dem":"65","timezone":"Africa/Lagos","modification_date":"2015-06-08"},{"geonameid":"7073908","name":"Ibiaku Ntok Okpo","asciiname":"Ibiaku Ntok Okpo","alternatenames":[""],"latitude":"5.30857","longitude":"7.71106","feature_class":"P","feature_code":"PPLA2","country_code":"NG","cc2":"","admin1_code":"21","admin2_code":"","admin3_code":"","admin4_code":"","population":"0","elevation":"","dem":"129","timezone":"Africa/Lagos","modification_date":"2015-06-08"},{"geonameid":"10316974","name":"Upenekang","asciiname":"Upenekang","alternatenames":["Ukpenekang","Ukpenekong","Upenekang"],"latitude":"4.57064","longitude":"7.97955","feature_class":"P","feature_code":"PPLA2","country_code":"NG","cc2":"","admin1_code":"21","admin2_code":"","admin3_code":"","admin4_code":"","population":"0","elevation":"","dem":"153","timezone":"Africa/Lagos","modification_date":"2015-06-10"},{"geonameid":"10317152","name":"Ikot Edibon","asciiname":"Ikot Edibon","alternatenames":["Ikot Edibon","Ikot Edibong"],"latitude":"4.77022","longitude":"7.931","feature_class":"P","feature_code":"PPLA2","country_code":"NG","cc2":"","admin1_code":"21","admin2_code":"","admin3_code":"","admin4_code":"","population":"0","elevation":"","dem":"176","timezone":"Africa/Lagos","modification_date":"2015-06-10"},{"geonameid":"10317153","name":"Ikot Akpa Nkuk","asciiname":"Ikot Akpa Nkuk","alternatenames":[""],"latitude":"4.87231","longitude":"7.56459","feature_class":"P","feature_code":"PPLA2","country_code":"NG","cc2":"","admin1_code":"21","admin2_code":"","admin3_code":"","admin4_code":"","population":"0","elevation":"","dem":"167","timezone":"Africa/Lagos","modification_date":"2015-06-10"},{"geonameid":"10317589","name":"Eyofin","asciiname":"Eyofin","alternatenames":["Eyo-Ofin","Eyofin"],"latitude":"4.7516","longitude":"8.23056","feature_class":"P","feature_code":"PPLA2","country_code":"NG","cc2":"","admin1_code":"21","admin2_code":"","admin3_code":"","admin4_code":"","population":"0","elevation":"","dem":"170","timezone":"Africa/Lagos","modification_date":"2015-06-10"},{"geonameid":"10317749","name":"Urue Offong","asciiname":"Urue Offong","alternatenames":["Udua Offong","Urue Offong"],"latitude":"4.75275","longitude":"8.1677","feature_class":"P","feature_code":"PPLA2","country_code":"NG","cc2":"","admin1_code":"21","admin2_code":"","admin3_code":"","admin4_code":"","population":"0","elevation":"","dem":"142","timezone":"Africa/Lagos","modification_date":"2015-06-10"}]}