{"region_data":{"countryId":"2328926","adminCode1":"46","countryName":"Nigeria","fclName":"country, state, region,...","countryCode":"NG","lng":"10","fcodeName":"first-order administrative division","toponymName":"Bauchi State","fcl":"A","numberOfChildren":20,"name":"Bauchi","fcode":"ADM1","geonameId":2347468,"lat":"10.5","adminName1":"Bauchi","population":4653066},"country_data":{"ISO":"NG","ISO3":"NGA","ISO_Numeric":"566","fips":"NI","country":"Nigeria","capital":"Abuja","area":"923768","Population":"154000000","Continent":"AF","tld":".ng","CurrencyCode":"NGN","CurrencyName":"Naira","Phone":"234","Postal_Code_Format":"######","Postal_Code_Regex":"^(\\d{6})$","Languages":"en-NG,ha,yo,ig,ff","geonameid":"2328926","neighbours":"TD,NE,BJ,CM","EquivalentFipsCode":""},"cities":[{"geonameid":"2317887","name":"Zalanga","asciiname":"Zalanga","alternatenames":["Zalanga"],"latitude":"10.61432","longitude":"10.17647","feature_class":"P","feature_code":"PPL","country_code":"NG","cc2":"","admin1_code":"46","admin2_code":"","admin3_code":"","admin4_code":"","population":"12070","elevation":"","dem":"554","timezone":"Africa/Lagos","modification_date":"2012-01-18"},{"geonameid":"2317936","name":"Zadawa","asciiname":"Zadawa","alternatenames":["Zadawa"],"latitude":"11.4496","longitude":"10.3672","feature_class":"P","feature_code":"PPL","country_code":"NG","cc2":"","admin1_code":"46","admin2_code":"","admin3_code":"","admin4_code":"","population":"7495","elevation":"","dem":"435","timezone":"Africa/Lagos","modification_date":"2012-01-18"},{"geonameid":"2317982","name":"Yuli","asciiname":"Yuli","alternatenames":["Anguri","Yuli"],"latitude":"9.69889","longitude":"10.27444","feature_class":"P","feature_code":"PPL","country_code":"NG","cc2":"","admin1_code":"46","admin2_code":"","admin3_code":"","admin4_code":"","population":"9549","elevation":"","dem":"299","timezone":"Africa/Lagos","modification_date":"2012-01-18"},{"geonameid":"2318383","name":"Yanda Bayo","asciiname":"Yanda Bayo","alternatenames":["Yanda Bayo","Yando Bayo"],"latitude":"11.5071","longitude":"10.7459","feature_class":"P","feature_code":"PPL","country_code":"NG","cc2":"","admin1_code":"46","admin2_code":"","admin3_code":"","admin4_code":"","population":"5927","elevation":"","dem":"455","timezone":"Africa/Lagos","modification_date":"2012-01-18"},{"geonameid":"2318399","name":"Yamrat","asciiname":"Yamrat","alternatenames":[""],"latitude":"10.11161","longitude":"9.82604","feature_class":"P","feature_code":"PPL","country_code":"NG","cc2":"","admin1_code":"46","admin2_code":"","admin3_code":"","admin4_code":"","population":"7098","elevation":"","dem":"553","timezone":"Africa/Lagos","modification_date":"2006-01-17"},{"geonameid":"2321951","name":"Toro","asciiname":"Toro","alternatenames":[""],"latitude":"10.05889","longitude":"9.0691","feature_class":"P","feature_code":"PPLA2","country_code":"NG","cc2":"","admin1_code":"46","admin2_code":"","admin3_code":"","admin4_code":"","population":"0","elevation":"","dem":"978","timezone":"Africa/Lagos","modification_date":"2015-06-07"},{"geonameid":"2322651","name":"Tafawa Balewa","asciiname":"Tafawa Balewa","alternatenames":[""],"latitude":"9.76017","longitude":"9.55172","feature_class":"P","feature_code":"PPLA2","country_code":"NG","cc2":"","admin1_code":"46","admin2_code":"","admin3_code":"","admin4_code":"","population":"0","elevation":"","dem":"655","timezone":"Africa/Lagos","modification_date":"2015-06-07"},{"geonameid":"2324024","name":"Sade","asciiname":"Sade","alternatenames":[""],"latitude":"11.3595","longitude":"10.6732","feature_class":"P","feature_code":"PPL","country_code":"NG","cc2":"","admin1_code":"46","admin2_code":"","admin3_code":"","admin4_code":"","population":"8223","elevation":"","dem":"414","timezone":"Africa/Lagos","modification_date":"2006-01-17"},{"geonameid":"2328904","name":"Ningi","asciiname":"Ningi","alternatenames":[""],"latitude":"11.07837","longitude":"9.56886","feature_class":"P","feature_code":"PPLA2","country_code":"NG","cc2":"","admin1_code":"46","admin2_code":"","admin3_code":"","admin4_code":"","population":"0","elevation":"","dem":"497","timezone":"Africa/Lagos","modification_date":"2015-06-07"},{"geonameid":"2330082","name":"Misau","asciiname":"Misau","alternatenames":[""],"latitude":"11.3137","longitude":"10.46664","feature_class":"P","feature_code":"PPLA2","country_code":"NG","cc2":"","admin1_code":"46","admin2_code":"","admin3_code":"","admin4_code":"","population":"13957","elevation":"","dem":"436","timezone":"Africa/Lagos","modification_date":"2015-06-07"},{"geonameid":"2331686","name":"Madara","asciiname":"Madara","alternatenames":[""],"latitude":"11.7798","longitude":"10.4479","feature_class":"P","feature_code":"PPL","country_code":"NG","cc2":"","admin1_code":"46","admin2_code":"","admin3_code":"","admin4_code":"","population":"10015","elevation":"","dem":"392","timezone":"Africa/Lagos","modification_date":"2006-01-17"},{"geonameid":"2332080","name":"Lere","asciiname":"Lere","alternatenames":[""],"latitude":"9.70889","longitude":"9.33833","feature_class":"P","feature_code":"PPL","country_code":"NG","cc2":"","admin1_code":"46","admin2_code":"","admin3_code":"","admin4_code":"","population":"14620","elevation":"","dem":"867","timezone":"Africa/Lagos","modification_date":"2006-01-17"},{"geonameid":"2332337","name":"Lame","asciiname":"Lame","alternatenames":["Lame","Lemme","Lemmi"],"latitude":"10.44154","longitude":"9.23955","feature_class":"P","feature_code":"PPL","country_code":"NG","cc2":"","admin1_code":"46","admin2_code":"","admin3_code":"","admin4_code":"","population":"6705","elevation":"","dem":"711","timezone":"Africa/Lagos","modification_date":"2012-01-18"},{"geonameid":"2334369","name":"Kirfi","asciiname":"Kirfi","alternatenames":["Kirfi","Kirfin Kasa","Kirifi"],"latitude":"10.40556","longitude":"10.40451","feature_class":"P","feature_code":"PPLA2","country_code":"NG","cc2":"","admin1_code":"46","admin2_code":"","admin3_code":"","admin4_code":"","population":"0","elevation":"","dem":"361","timezone":"Africa/Lagos","modification_date":"2015-06-07"},{"geonameid":"2334835","name":"Warji","asciiname":"Warji","alternatenames":["Katanga Warji","Katangan Warji","Warji"],"latitude":"11.17756","longitude":"9.75241","feature_class":"P","feature_code":"PPLA2","country_code":"NG","cc2":"","admin1_code":"46","admin2_code":"","admin3_code":"","admin4_code":"","population":"0","elevation":"","dem":"451","timezone":"Africa/Lagos","modification_date":"2015-06-07"},{"geonameid":"2334861","name":"Katagum","asciiname":"Katagum","alternatenames":["Katagum"],"latitude":"12.28507","longitude":"10.35027","feature_class":"P","feature_code":"PPLA2","country_code":"NG","cc2":"","admin1_code":"46","admin2_code":"","admin3_code":"","admin4_code":"","population":"10602","elevation":"","dem":"362","timezone":"Africa/Lagos","modification_date":"2015-06-07"},{"geonameid":"2335015","name":"Kari","asciiname":"Kari","alternatenames":[""],"latitude":"11.2471","longitude":"10.561","feature_class":"P","feature_code":"PPL","country_code":"NG","cc2":"","admin1_code":"46","admin2_code":"","admin3_code":"","admin4_code":"","population":"18812","elevation":"","dem":"408","timezone":"Africa/Lagos","modification_date":"2006-01-17"},{"geonameid":"2335665","name":"Kafin Madaki","asciiname":"Kafin Madaki","alternatenames":["Kafin Madaki","Keffin Madaki","L. Makaki","Madaki"],"latitude":"10.68856","longitude":"9.76051","feature_class":"P","feature_code":"PPLA2","country_code":"NG","cc2":"","admin1_code":"46","admin2_code":"","admin3_code":"","admin4_code":"","population":"0","elevation":"","dem":"556","timezone":"Africa/Lagos","modification_date":"2015-06-07"},{"geonameid":"2336553","name":"Jama’are","asciiname":"Jama'are","alternatenames":["Jama'are","Jamaare","Jamaari","Jama’are","Jemma'are","Jemma’are"],"latitude":"11.6698","longitude":"9.928","feature_class":"P","feature_code":"PPLA2","country_code":"NG","cc2":"","admin1_code":"46","admin2_code":"","admin3_code":"","admin4_code":"","population":"0","elevation":"","dem":"398","timezone":"Africa/Lagos","modification_date":"2015-06-07"},{"geonameid":"2337046","name":"Itas","asciiname":"Itas","alternatenames":["Itas","Itass"],"latitude":"11.8575","longitude":"9.96394","feature_class":"P","feature_code":"PPLA2","country_code":"NG","cc2":"","admin1_code":"46","admin2_code":"","admin3_code":"","admin4_code":"","population":"0","elevation":"","dem":"383","timezone":"Africa/Lagos","modification_date":"2015-06-07"},{"geonameid":"2339789","name":"Gwaram","asciiname":"Gwaram","alternatenames":["Gwaram"],"latitude":"10.23295","longitude":"10.28572","feature_class":"P","feature_code":"PPL","country_code":"NG","cc2":"","admin1_code":"46","admin2_code":"","admin3_code":"","admin4_code":"","population":"6700","elevation":"","dem":"447","timezone":"Africa/Lagos","modification_date":"2012-01-18"},{"geonameid":"2341212","name":"Giade","asciiname":"Giade","alternatenames":[""],"latitude":"11.39083","longitude":"10.19987","feature_class":"P","feature_code":"PPLA2","country_code":"NG","cc2":"","admin1_code":"46","admin2_code":"","admin3_code":"","admin4_code":"","population":"0","elevation":"","dem":"465","timezone":"Africa/Lagos","modification_date":"2015-06-07"},{"geonameid":"2342199","name":"Gamawa","asciiname":"Gamawa","alternatenames":["Gamawa"],"latitude":"12.13379","longitude":"10.53785","feature_class":"P","feature_code":"PPLA2","country_code":"NG","cc2":"","admin1_code":"46","admin2_code":"","admin3_code":"","admin4_code":"","population":"13549","elevation":"","dem":"364","timezone":"Africa/Lagos","modification_date":"2015-06-07"},{"geonameid":"2342439","name":"Gabarin","asciiname":"Gabarin","alternatenames":[""],"latitude":"11.1093","longitude":"10.4441","feature_class":"P","feature_code":"PPL","country_code":"NG","cc2":"","admin1_code":"46","admin2_code":"","admin3_code":"","admin4_code":"","population":"10160","elevation":"","dem":"478","timezone":"Africa/Lagos","modification_date":"2006-01-17"},{"geonameid":"2344760","name":"Disina","asciiname":"Disina","alternatenames":["Disina"],"latitude":"11.48135","longitude":"9.91903","feature_class":"P","feature_code":"PPL","country_code":"NG","cc2":"","admin1_code":"46","admin2_code":"","admin3_code":"","admin4_code":"","population":"5833","elevation":"","dem":"415","timezone":"Africa/Lagos","modification_date":"2012-01-18"},{"geonameid":"2344804","name":"Dindima","asciiname":"Dindima","alternatenames":["Dindawa","Dindima"],"latitude":"10.22629","longitude":"10.15132","feature_class":"P","feature_code":"PPL","country_code":"NG","cc2":"","admin1_code":"46","admin2_code":"","admin3_code":"","admin4_code":"","population":"13356","elevation":"","dem":"470","timezone":"Africa/Lagos","modification_date":"2014-04-27"},{"geonameid":"2345152","name":"Darazo","asciiname":"Darazo","alternatenames":["Darazo"],"latitude":"10.9992","longitude":"10.41062","feature_class":"P","feature_code":"PPLA2","country_code":"NG","cc2":"","admin1_code":"46","admin2_code":"","admin3_code":"","admin4_code":"","population":"18415","elevation":"","dem":"507","timezone":"Africa/Lagos","modification_date":"2015-06-07"},{"geonameid":"2345509","name":"Dambam","asciiname":"Dambam","alternatenames":["Dambam","Damban"],"latitude":"11.67893","longitude":"10.70792","feature_class":"P","feature_code":"PPLA2","country_code":"NG","cc2":"","admin1_code":"46","admin2_code":"","admin3_code":"","admin4_code":"","population":"0","elevation":"","dem":"397","timezone":"Africa/Lagos","modification_date":"2015-06-07"},{"geonameid":"2346399","name":"Bununu Kasa","asciiname":"Bununu Kasa","alternatenames":["Bununu","Bununu Kasa","Bununu Kassa"],"latitude":"9.86806","longitude":"9.66278","feature_class":"P","feature_code":"PPL","country_code":"NG","cc2":"","admin1_code":"46","admin2_code":"","admin3_code":"","admin4_code":"","population":"6123","elevation":"","dem":"585","timezone":"Africa/Lagos","modification_date":"2012-01-18"},{"geonameid":"2346401","name":"Dass","asciiname":"Dass","alternatenames":["Bununu","Bununu Dass","Dass"],"latitude":"10.00065","longitude":"9.51596","feature_class":"P","feature_code":"PPLA2","country_code":"NG","cc2":"","admin1_code":"46","admin2_code":"","admin3_code":"","admin4_code":"","population":"7417","elevation":"","dem":"617","timezone":"Africa/Lagos","modification_date":"2015-06-07"},{"geonameid":"2346918","name":"Bogoro","asciiname":"Bogoro","alternatenames":["Bogoro","Mogaro"],"latitude":"9.66904","longitude":"9.60528","feature_class":"P","feature_code":"PPLA2","country_code":"NG","cc2":"","admin1_code":"46","admin2_code":"","admin3_code":"","admin4_code":"","population":"0","elevation":"","dem":"695","timezone":"Africa/Lagos","modification_date":"2015-06-07"},{"geonameid":"2347470","name":"Bauchi","asciiname":"Bauchi","alternatenames":["BCU","Bauchi","Baucis","Bauczi","Baučis","Yakoba","Yakubu","bao qi","Баучи","包奇"],"latitude":"10.31032","longitude":"9.84388","feature_class":"P","feature_code":"PPLA","country_code":"NG","cc2":"","admin1_code":"46","admin2_code":"","admin3_code":"","admin4_code":"","population":"316149","elevation":"","dem":"616","timezone":"Africa/Lagos","modification_date":"2015-07-03"},{"geonameid":"2348595","name":"Azare","asciiname":"Azare","alternatenames":["Azare"],"latitude":"11.67478","longitude":"10.19069","feature_class":"P","feature_code":"PPLA2","country_code":"NG","cc2":"","admin1_code":"46","admin2_code":"","admin3_code":"","admin4_code":"","population":"105687","elevation":"","dem":"413","timezone":"Africa/Lagos","modification_date":"2015-06-07"},{"geonameid":"2350394","name":"Alkaleri","asciiname":"Alkaleri","alternatenames":["Alkalere","Alkaleri"],"latitude":"10.26688","longitude":"10.33238","feature_class":"P","feature_code":"PPLA2","country_code":"NG","cc2":"","admin1_code":"46","admin2_code":"","admin3_code":"","admin4_code":"","population":"0","elevation":"","dem":"397","timezone":"Africa/Lagos","modification_date":"2015-06-07"},{"geonameid":"2596820","name":"Yana","asciiname":"Yana","alternatenames":[""],"latitude":"11.40724","longitude":"10.01345","feature_class":"P","feature_code":"PPLA2","country_code":"NG","cc2":"","admin1_code":"46","admin2_code":"","admin3_code":"","admin4_code":"","population":"0","elevation":"","dem":"426","timezone":"Africa/Lagos","modification_date":"2015-06-08"}]}