{"region_data":{"countryId":"2328926","adminCode1":"52","countryName":"Nigeria","fclName":"country, state, region,...","countryCode":"NG","lng":"6.08333","fcodeName":"first-order administrative division","toponymName":"Bayelsa State","fcl":"A","numberOfChildren":8,"name":"Bayelsa State","fcode":"ADM1","geonameId":2595344,"lat":"4.75","adminName1":"Bayelsa","population":1998349},"country_data":{"ISO":"NG","ISO3":"NGA","ISO_Numeric":"566","fips":"NI","country":"Nigeria","capital":"Abuja","area":"923768","Population":"154000000","Continent":"AF","tld":".ng","CurrencyCode":"NGN","CurrencyName":"Naira","Phone":"234","Postal_Code_Format":"######","Postal_Code_Regex":"^(\\d{6})$","Languages":"en-NG,ha,yo,ig,ff","geonameid":"2328926","neighbours":"TD,NE,BJ,CM","EquivalentFipsCode":""},"cities":[{"geonameid":"2318123","name":"Yenagoa","asciiname":"Yenagoa","alternatenames":["Yenagoa","Yenegoa"],"latitude":"4.92675","longitude":"6.26764","feature_class":"P","feature_code":"PPLA","country_code":"NG","cc2":"","admin1_code":"52","admin2_code":"","admin3_code":"","admin4_code":"","population":"24335","elevation":"","dem":"8","timezone":"Africa/Lagos","modification_date":"2015-05-06"},{"geonameid":"2323997","name":"Sagbama","asciiname":"Sagbama","alternatenames":["Aduezi","Ndiama","Ndiemazi","Obuare","Sagbama"],"latitude":"5.15915","longitude":"6.19666","feature_class":"P","feature_code":"PPLA2","country_code":"NG","cc2":"","admin1_code":"52","admin2_code":"","admin3_code":"","admin4_code":"","population":"0","elevation":"","dem":"13","timezone":"Africa/Lagos","modification_date":"2015-05-06"},{"geonameid":"2325878","name":"Oporoma","asciiname":"Oporoma","alternatenames":[""],"latitude":"4.80604","longitude":"6.08016","feature_class":"P","feature_code":"PPLA2","country_code":"NG","cc2":"","admin1_code":"52","admin2_code":"","admin3_code":"","admin4_code":"","population":"0","elevation":"","dem":"7","timezone":"Africa/Lagos","modification_date":"2015-05-06"},{"geonameid":"2329150","name":"Nembe","asciiname":"Nembe","alternatenames":["Nembe","Nimbi"],"latitude":"4.53673","longitude":"6.40332","feature_class":"P","feature_code":"PPLA2","country_code":"NG","cc2":"","admin1_code":"52","admin2_code":"","admin3_code":"","admin4_code":"","population":"0","elevation":"","dem":"7","timezone":"Africa/Lagos","modification_date":"2015-05-06"},{"geonameid":"2335597","name":"Kaiama","asciiname":"Kaiama","alternatenames":[""],"latitude":"5.1197","longitude":"6.30101","feature_class":"P","feature_code":"PPLA2","country_code":"NG","cc2":"","admin1_code":"52","admin2_code":"","admin3_code":"","admin4_code":"","population":"0","elevation":"","dem":"11","timezone":"Africa/Lagos","modification_date":"2015-05-06"},{"geonameid":"2343725","name":"Ekeremor","asciiname":"Ekeremor","alternatenames":["Ekeremo","Ekeremor"],"latitude":"5.05805","longitude":"5.78048","feature_class":"P","feature_code":"PPLA2","country_code":"NG","cc2":"","admin1_code":"52","admin2_code":"","admin3_code":"","admin4_code":"","population":"0","elevation":"","dem":"9","timezone":"Africa/Lagos","modification_date":"2015-05-06"},{"geonameid":"2346734","name":"Twon-Brass","asciiname":"Twon-Brass","alternatenames":["Brass","Brass Town","Bross","Twon-Brass"],"latitude":"4.31231","longitude":"6.24091","feature_class":"P","feature_code":"PPLA2","country_code":"NG","cc2":"","admin1_code":"52","admin2_code":"","admin3_code":"","admin4_code":"","population":"11122","elevation":"","dem":"3","timezone":"Africa/Lagos","modification_date":"2015-05-06"},{"geonameid":"2350172","name":"Amassoma","asciiname":"Amassoma","alternatenames":["Amasama","Amassama","Amassoma"],"latitude":"4.97032","longitude":"6.10915","feature_class":"P","feature_code":"PPL","country_code":"NG","cc2":"","admin1_code":"52","admin2_code":"","admin3_code":"","admin4_code":"","population":"6970","elevation":"","dem":"11","timezone":"Africa/Lagos","modification_date":"2015-04-08"},{"geonameid":"10276592","name":"Ogbia","asciiname":"Ogbia","alternatenames":["Ogbia","Ogbia Town"],"latitude":"4.68836","longitude":"6.31525","feature_class":"P","feature_code":"PPLA2","country_code":"NG","cc2":"","admin1_code":"52","admin2_code":"","admin3_code":"","admin4_code":"","population":"0","elevation":"","dem":"114","timezone":"Africa/Lagos","modification_date":"2015-05-08"}]}