{"region_data":{"countryId":"2328926","adminCode1":"24","countryName":"Nigeria","fclName":"country, state, region,...","countryCode":"NG","lng":"7.5","fcodeName":"first-order administrative division","toponymName":"Katsina State","fcl":"A","numberOfChildren":34,"name":"Katsina State","fcode":"ADM1","geonameId":2334797,"lat":"12.25","adminName1":"Katsina","population":6483429},"country_data":{"ISO":"NG","ISO3":"NGA","ISO_Numeric":"566","fips":"NI","country":"Nigeria","capital":"Abuja","area":"923768","Population":"154000000","Continent":"AF","tld":".ng","CurrencyCode":"NGN","CurrencyName":"Naira","Phone":"234","Postal_Code_Format":"######","Postal_Code_Regex":"^(\\d{6})$","Languages":"en-NG,ha,yo,ig,ff","geonameid":"2328926","neighbours":"TD,NE,BJ,CM","EquivalentFipsCode":""},"cities":[{"geonameid":"2317818","name":"Zango","asciiname":"Zango","alternatenames":[""],"latitude":"13.05313","longitude":"8.48574","feature_class":"P","feature_code":"PPLA2","country_code":"NG","cc2":"","admin1_code":"24","admin2_code":"","admin3_code":"","admin4_code":"","population":"12371","elevation":"","dem":"484","timezone":"Africa/Lagos","modification_date":"2015-04-08"},{"geonameid":"2319345","name":"Wagini","asciiname":"Wagini","alternatenames":["Wagin","Wagini"],"latitude":"12.68781","longitude":"7.19579","feature_class":"P","feature_code":"PPL","country_code":"NG","cc2":"","admin1_code":"24","admin2_code":"","admin3_code":"","admin4_code":"","population":"9986","elevation":"","dem":"488","timezone":"Africa/Lagos","modification_date":"2012-01-18"},{"geonameid":"2323795","name":"Sandamu","asciiname":"Sandamu","alternatenames":["Sandamu"],"latitude":"12.96163","longitude":"8.36017","feature_class":"P","feature_code":"PPLA2","country_code":"NG","cc2":"","admin1_code":"24","admin2_code":"","admin3_code":"","admin4_code":"","population":"0","elevation":"","dem":"504","timezone":"Africa/Lagos","modification_date":"2015-04-08"},{"geonameid":"2324011","name":"Safana","asciiname":"Safana","alternatenames":["Safana"],"latitude":"12.41075","longitude":"7.41456","feature_class":"P","feature_code":"PPLA2","country_code":"NG","cc2":"","admin1_code":"24","admin2_code":"","admin3_code":"","admin4_code":"","population":"0","elevation":"","dem":"509","timezone":"Africa/Lagos","modification_date":"2015-04-08"},{"geonameid":"2324038","name":"Sabuwa","asciiname":"Sabuwa","alternatenames":["Sabua","Sabuwa"],"latitude":"11.17372","longitude":"7.12113","feature_class":"P","feature_code":"PPLA2","country_code":"NG","cc2":"","admin1_code":"24","admin2_code":"","admin3_code":"","admin4_code":"","population":"0","elevation":"","dem":"680","timezone":"Africa/Lagos","modification_date":"2015-04-08"},{"geonameid":"2324281","name":"Runka","asciiname":"Runka","alternatenames":[""],"latitude":"12.44788","longitude":"7.30918","feature_class":"P","feature_code":"PPL","country_code":"NG","cc2":"","admin1_code":"24","admin2_code":"","admin3_code":"","admin4_code":"","population":"12665","elevation":"","dem":"489","timezone":"Africa/Lagos","modification_date":"2006-01-17"},{"geonameid":"2324325","name":"Ruma","asciiname":"Ruma","alternatenames":[""],"latitude":"12.8626","longitude":"7.23469","feature_class":"P","feature_code":"PPL","country_code":"NG","cc2":"","admin1_code":"24","admin2_code":"","admin3_code":"","admin4_code":"","population":"8857","elevation":"","dem":"502","timezone":"Africa/Lagos","modification_date":"2006-01-17"},{"geonameid":"2324477","name":"Rimi","asciiname":"Rimi","alternatenames":[""],"latitude":"12.8503","longitude":"7.70974","feature_class":"P","feature_code":"PPLA2","country_code":"NG","cc2":"","admin1_code":"24","admin2_code":"","admin3_code":"","admin4_code":"","population":"0","elevation":"","dem":"525","timezone":"Africa/Lagos","modification_date":"2015-04-08"},{"geonameid":"2329664","name":"Musawa","asciiname":"Musawa","alternatenames":["Musawa"],"latitude":"12.12949","longitude":"7.67023","feature_class":"P","feature_code":"PPLA2","country_code":"NG","cc2":"","admin1_code":"24","admin2_code":"","admin3_code":"","admin4_code":"","population":"8904","elevation":"","dem":"578","timezone":"Africa/Lagos","modification_date":"2015-04-08"},{"geonameid":"2330600","name":"Matazu","asciiname":"Matazu","alternatenames":["Matasu","Mataza","Matazu"],"latitude":"12.23549","longitude":"7.67426","feature_class":"P","feature_code":"PPLA2","country_code":"NG","cc2":"","admin1_code":"24","admin2_code":"","admin3_code":"","admin4_code":"","population":"0","elevation":"","dem":"535","timezone":"Africa/Lagos","modification_date":"2015-04-08"},{"geonameid":"2330664","name":"Mashi","asciiname":"Mashi","alternatenames":["Mashi"],"latitude":"12.98044","longitude":"7.94703","feature_class":"P","feature_code":"PPLA2","country_code":"NG","cc2":"","admin1_code":"24","admin2_code":"","admin3_code":"","admin4_code":"","population":"7845","elevation":"","dem":"494","timezone":"Africa/Lagos","modification_date":"2015-04-08"},{"geonameid":"2330910","name":"Mani","asciiname":"Mani","alternatenames":[""],"latitude":"12.85426","longitude":"7.87526","feature_class":"P","feature_code":"PPLA2","country_code":"NG","cc2":"","admin1_code":"24","admin2_code":"","admin3_code":"","admin4_code":"","population":"0","elevation":"","dem":"521","timezone":"Africa/Lagos","modification_date":"2015-04-08"},{"geonameid":"2331005","name":"Malumfashi","asciiname":"Malumfashi","alternatenames":["Malumfashi"],"latitude":"11.78935","longitude":"7.62061","feature_class":"P","feature_code":"PPLA2","country_code":"NG","cc2":"","admin1_code":"24","admin2_code":"","admin3_code":"","admin4_code":"","population":"70709","elevation":"","dem":"618","timezone":"Africa/Lagos","modification_date":"2015-04-08"},{"geonameid":"2331485","name":"Mai’Adua","asciiname":"Mai'Adua","alternatenames":["Mai'Adua","Maiadua","Maiaduwa","Mai’Adua"],"latitude":"13.17986","longitude":"8.2304","feature_class":"P","feature_code":"PPLA2","country_code":"NG","cc2":"","admin1_code":"24","admin2_code":"","admin3_code":"","admin4_code":"","population":"0","elevation":"","dem":"474","timezone":"Africa/Lagos","modification_date":"2015-04-08"},{"geonameid":"2333111","name":"Kusada","asciiname":"Kusada","alternatenames":["Kusada"],"latitude":"12.4656","longitude":"7.97848","feature_class":"P","feature_code":"PPLA2","country_code":"NG","cc2":"","admin1_code":"24","admin2_code":"","admin3_code":"","admin4_code":"","population":"0","elevation":"","dem":"535","timezone":"Africa/Lagos","modification_date":"2015-04-08"},{"geonameid":"2333238","name":"Kurfi","asciiname":"Kurfi","alternatenames":["Kurfi"],"latitude":"12.6663","longitude":"7.48478","feature_class":"P","feature_code":"PPLA2","country_code":"NG","cc2":"","admin1_code":"24","admin2_code":"","admin3_code":"","admin4_code":"","population":"0","elevation":"","dem":"532","timezone":"Africa/Lagos","modification_date":"2015-04-08"},{"geonameid":"2334802","name":"Katsina","asciiname":"Katsina","alternatenames":["Katsina","Катсина"],"latitude":"12.99082","longitude":"7.60177","feature_class":"P","feature_code":"PPLA","country_code":"NG","cc2":"","admin1_code":"24","admin2_code":"","admin3_code":"","admin4_code":"","population":"432149","elevation":"","dem":"519","timezone":"Africa/Lagos","modification_date":"2015-04-08"},{"geonameid":"2335216","name":"Kankia","asciiname":"Kankia","alternatenames":["Kankia","Kankiya"],"latitude":"12.54637","longitude":"7.82254","feature_class":"P","feature_code":"PPLA2","country_code":"NG","cc2":"","admin1_code":"24","admin2_code":"","admin3_code":"","admin4_code":"","population":"0","elevation":"","dem":"543","timezone":"Africa/Lagos","modification_date":"2015-04-08"},{"geonameid":"2335219","name":"Kankara","asciiname":"Kankara","alternatenames":[""],"latitude":"11.93114","longitude":"7.41115","feature_class":"P","feature_code":"PPLA2","country_code":"NG","cc2":"","admin1_code":"24","admin2_code":"","admin3_code":"","admin4_code":"","population":"9609","elevation":"","dem":"595","timezone":"Africa/Lagos","modification_date":"2015-04-08"},{"geonameid":"2335556","name":"Kaita","asciiname":"Kaita","alternatenames":[""],"latitude":"13.08346","longitude":"7.74092","feature_class":"P","feature_code":"PPLA2","country_code":"NG","cc2":"","admin1_code":"24","admin2_code":"","admin3_code":"","admin4_code":"","population":"0","elevation":"","dem":"443","timezone":"Africa/Lagos","modification_date":"2015-04-08"},{"geonameid":"2335648","name":"Kafur","asciiname":"Kafur","alternatenames":[""],"latitude":"11.64589","longitude":"7.69068","feature_class":"P","feature_code":"PPLA2","country_code":"NG","cc2":"","admin1_code":"24","admin2_code":"","admin3_code":"","admin4_code":"","population":"0","elevation":"","dem":"587","timezone":"Africa/Lagos","modification_date":"2015-04-08"},{"geonameid":"2336092","name":"Jikamshi","asciiname":"Jikamshi","alternatenames":[""],"latitude":"12.17328","longitude":"7.77424","feature_class":"P","feature_code":"PPL","country_code":"NG","cc2":"","admin1_code":"24","admin2_code":"","admin3_code":"","admin4_code":"","population":"6923","elevation":"","dem":"565","timezone":"Africa/Lagos","modification_date":"2006-01-17"},{"geonameid":"2336137","name":"Jibia","asciiname":"Jibia","alternatenames":["Djibia","Jibia","Jibiya"],"latitude":"13.09378","longitude":"7.22624","feature_class":"P","feature_code":"PPLA2","country_code":"NG","cc2":"","admin1_code":"24","admin2_code":"","admin3_code":"","admin4_code":"","population":"14424","elevation":"","dem":"409","timezone":"Africa/Lagos","modification_date":"2015-04-08"},{"geonameid":"2337500","name":"Ingawa","asciiname":"Ingawa","alternatenames":["Ingawa"],"latitude":"12.64138","longitude":"8.05162","feature_class":"P","feature_code":"PPLA2","country_code":"NG","cc2":"","admin1_code":"24","admin2_code":"","admin3_code":"","admin4_code":"","population":"0","elevation":"","dem":"516","timezone":"Africa/Lagos","modification_date":"2015-04-08"},{"geonameid":"2340389","name":"Gora","asciiname":"Gora","alternatenames":[""],"latitude":"11.91294","longitude":"7.66531","feature_class":"P","feature_code":"PPL","country_code":"NG","cc2":"","admin1_code":"24","admin2_code":"","admin3_code":"","admin4_code":"","population":"5867","elevation":"","dem":"593","timezone":"Africa/Lagos","modification_date":"2006-01-17"},{"geonameid":"2342490","name":"Funtua","asciiname":"Funtua","alternatenames":["Funtua","Puntua"],"latitude":"11.52351","longitude":"7.31174","feature_class":"P","feature_code":"PPLA2","country_code":"NG","cc2":"","admin1_code":"24","admin2_code":"","admin3_code":"","admin4_code":"","population":"136811","elevation":"","dem":"709","timezone":"Africa/Lagos","modification_date":"2015-04-08"},{"geonameid":"2342687","name":"Faskari","asciiname":"Faskari","alternatenames":["Faskari"],"latitude":"11.72108","longitude":"7.02991","feature_class":"P","feature_code":"PPLA2","country_code":"NG","cc2":"","admin1_code":"24","admin2_code":"","admin3_code":"","admin4_code":"","population":"0","elevation":"","dem":"629","timezone":"Africa/Lagos","modification_date":"2015-04-08"},{"geonameid":"2344217","name":"Dutsin-Ma","asciiname":"Dutsin-Ma","alternatenames":["Dutsin Wai","Dutsin-Ma","Dutsinma"],"latitude":"12.45392","longitude":"7.49723","feature_class":"P","feature_code":"PPLA2","country_code":"NG","cc2":"","admin1_code":"24","admin2_code":"","admin3_code":"","admin4_code":"","population":"12595","elevation":"","dem":"544","timezone":"Africa/Lagos","modification_date":"2015-04-08"},{"geonameid":"2344227","name":"Dutsi","asciiname":"Dutsi","alternatenames":["Dusti","Dutsi"],"latitude":"12.82862","longitude":"8.1398","feature_class":"P","feature_code":"PPLA2","country_code":"NG","cc2":"","admin1_code":"24","admin2_code":"","admin3_code":"","admin4_code":"","population":"0","elevation":"","dem":"489","timezone":"Africa/Lagos","modification_date":"2015-04-08"},{"geonameid":"2345094","name":"Daura","asciiname":"Daura","alternatenames":["Daura","Даура"],"latitude":"13.03299","longitude":"8.32351","feature_class":"P","feature_code":"PPLA2","country_code":"NG","cc2":"","admin1_code":"24","admin2_code":"","admin3_code":"","admin4_code":"","population":"25289","elevation":"","dem":"475","timezone":"Africa/Lagos","modification_date":"2015-04-08"},{"geonameid":"2345219","name":"Dan Musa","asciiname":"Dan Musa","alternatenames":["Dan Musa","Danimusa","Runka"],"latitude":"12.26157","longitude":"7.33409","feature_class":"P","feature_code":"PPLA2","country_code":"NG","cc2":"","admin1_code":"24","admin2_code":"","admin3_code":"","admin4_code":"","population":"0","elevation":"","dem":"492","timezone":"Africa/Lagos","modification_date":"2015-04-08"},{"geonameid":"2345282","name":"Dankama","asciiname":"Dankama","alternatenames":[""],"latitude":"13.29782","longitude":"7.79492","feature_class":"P","feature_code":"PPL","country_code":"NG","cc2":"","admin1_code":"24","admin2_code":"","admin3_code":"","admin4_code":"","population":"6531","elevation":"","dem":"414","timezone":"Africa/Lagos","modification_date":"2006-01-17"},{"geonameid":"2345306","name":"Danja","asciiname":"Danja","alternatenames":[""],"latitude":"11.3771","longitude":"7.56097","feature_class":"P","feature_code":"PPLA2","country_code":"NG","cc2":"","admin1_code":"24","admin2_code":"","admin3_code":"","admin4_code":"","population":"9736","elevation":"","dem":"681","timezone":"Africa/Lagos","modification_date":"2015-04-08"},{"geonameid":"2345381","name":"Dandume","asciiname":"Dandume","alternatenames":["Dan Dume","Dandume"],"latitude":"11.4588","longitude":"7.12602","feature_class":"P","feature_code":"PPLA2","country_code":"NG","cc2":"","admin1_code":"24","admin2_code":"","admin3_code":"","admin4_code":"","population":"0","elevation":"","dem":"709","timezone":"Africa/Lagos","modification_date":"2015-04-08"},{"geonameid":"2346098","name":"Charanchi","asciiname":"Charanchi","alternatenames":["Charanchi","Cheranchi"],"latitude":"12.67155","longitude":"7.72929","feature_class":"P","feature_code":"PPLA2","country_code":"NG","cc2":"","admin1_code":"24","admin2_code":"","admin3_code":"","admin4_code":"","population":"0","elevation":"","dem":"550","timezone":"Africa/Lagos","modification_date":"2015-04-08"},{"geonameid":"2347132","name":"Bindawa","asciiname":"Bindawa","alternatenames":["Bindawa"],"latitude":"12.66987","longitude":"7.80865","feature_class":"P","feature_code":"PPLA2","country_code":"NG","cc2":"","admin1_code":"24","admin2_code":"","admin3_code":"","admin4_code":"","population":"0","elevation":"","dem":"532","timezone":"Africa/Lagos","modification_date":"2015-04-08"},{"geonameid":"2347456","name":"Baure","asciiname":"Baure","alternatenames":[""],"latitude":"12.83772","longitude":"8.74513","feature_class":"P","feature_code":"PPLA2","country_code":"NG","cc2":"","admin1_code":"24","admin2_code":"","admin3_code":"","admin4_code":"","population":"0","elevation":"","dem":"405","timezone":"Africa/Lagos","modification_date":"2015-04-08"},{"geonameid":"2347483","name":"Batsari","asciiname":"Batsari","alternatenames":["Batsari"],"latitude":"12.75551","longitude":"7.24809","feature_class":"P","feature_code":"PPLA2","country_code":"NG","cc2":"","admin1_code":"24","admin2_code":"","admin3_code":"","admin4_code":"","population":"7445","elevation":"","dem":"471","timezone":"Africa/Lagos","modification_date":"2015-04-08"},{"geonameid":"2347511","name":"Batagarawa","asciiname":"Batagarawa","alternatenames":["Batagarawa"],"latitude":"12.90611","longitude":"7.60586","feature_class":"P","feature_code":"PPLA2","country_code":"NG","cc2":"","admin1_code":"24","admin2_code":"","admin3_code":"","admin4_code":"","population":"0","elevation":"","dem":"532","timezone":"Africa/Lagos","modification_date":"2015-04-08"},{"geonameid":"2348118","name":"Bakori","asciiname":"Bakori","alternatenames":["Bakori"],"latitude":"11.55559","longitude":"7.42419","feature_class":"P","feature_code":"PPLA2","country_code":"NG","cc2":"","admin1_code":"24","admin2_code":"","admin3_code":"","admin4_code":"","population":"12604","elevation":"","dem":"656","timezone":"Africa/Lagos","modification_date":"2015-04-08"}]}