{"region_data":{"countryId":"2328926","adminCode1":"30","countryName":"Nigeria","fclName":"country, state, region,...","countryCode":"NG","lng":"5","fcodeName":"first-order administrative division","toponymName":"Kwara State","fcl":"A","numberOfChildren":16,"name":"Kwara State","fcode":"ADM1","geonameId":2332785,"lat":"8.5","adminName1":"Kwara","population":2591555},"country_data":{"ISO":"NG","ISO3":"NGA","ISO_Numeric":"566","fips":"NI","country":"Nigeria","capital":"Abuja","area":"923768","Population":"154000000","Continent":"AF","tld":".ng","CurrencyCode":"NGN","CurrencyName":"Naira","Phone":"234","Postal_Code_Format":"######","Postal_Code_Regex":"^(\\d{6})$","Languages":"en-NG,ha,yo,ig,ff","geonameid":"2328926","neighbours":"TD,NE,BJ,CM","EquivalentFipsCode":""},"cities":[{"geonameid":"2318238","name":"Yashikera","asciiname":"Yashikera","alternatenames":[""],"latitude":"9.76667","longitude":"3.4","feature_class":"P","feature_code":"PPL","country_code":"NG","cc2":"","admin1_code":"30","admin2_code":"","admin3_code":"","admin4_code":"","population":"14454","elevation":"","dem":"416","timezone":"Africa/Lagos","modification_date":"2013-05-18"},{"geonameid":"2322722","name":"Suya","asciiname":"Suya","alternatenames":["Saya","Souya","Suya"],"latitude":"9.46667","longitude":"3.18333","feature_class":"P","feature_code":"PPL","country_code":"NG","cc2":"","admin1_code":"30","admin2_code":"","admin3_code":"","admin4_code":"","population":"7936","elevation":"","dem":"439","timezone":"Africa/Lagos","modification_date":"2013-05-18"},{"geonameid":"2323324","name":"Share","asciiname":"Share","alternatenames":[""],"latitude":"8.82086","longitude":"4.97342","feature_class":"P","feature_code":"PPLA2","country_code":"NG","cc2":"","admin1_code":"30","admin2_code":"","admin3_code":"","admin4_code":"","population":"0","elevation":"","dem":"295","timezone":"Africa/Lagos","modification_date":"2015-03-08"},{"geonameid":"2324960","name":"Patigi","asciiname":"Patigi","alternatenames":["Pategi","Patigi"],"latitude":"8.72851","longitude":"5.75561","feature_class":"P","feature_code":"PPLA2","country_code":"NG","cc2":"","admin1_code":"30","admin2_code":"","admin3_code":"","admin4_code":"","population":"28285","elevation":"","dem":"123","timezone":"Africa/Lagos","modification_date":"2015-03-08"},{"geonameid":"2325266","name":"Owu-Isin","asciiname":"Owu-Isin","alternatenames":["Owu","Owu-Isin"],"latitude":"8.2809","longitude":"5.0194","feature_class":"P","feature_code":"PPLA2","country_code":"NG","cc2":"","admin1_code":"30","admin2_code":"","admin3_code":"","admin4_code":"","population":"0","elevation":"","dem":"434","timezone":"Africa/Lagos","modification_date":"2015-03-08"},{"geonameid":"2326200","name":"Omu-Aran","asciiname":"Omu-Aran","alternatenames":["Omu","Omu-Aran"],"latitude":"8.13857","longitude":"5.1026","feature_class":"P","feature_code":"PPLA2","country_code":"NG","cc2":"","admin1_code":"30","admin2_code":"","admin3_code":"","admin4_code":"","population":"14477","elevation":"","dem":"556","timezone":"Africa/Lagos","modification_date":"2015-03-08"},{"geonameid":"2326811","name":"Okuta","asciiname":"Okuta","alternatenames":[""],"latitude":"9.21667","longitude":"3.18333","feature_class":"P","feature_code":"PPL","country_code":"NG","cc2":"","admin1_code":"30","admin2_code":"","admin3_code":"","admin4_code":"","population":"26589","elevation":"","dem":"405","timezone":"Africa/Lagos","modification_date":"2013-05-18"},{"geonameid":"2327180","name":"Oke-Oyi","asciiname":"Oke-Oyi","alternatenames":[""],"latitude":"8.58263","longitude":"4.71622","feature_class":"P","feature_code":"PPLA2","country_code":"NG","cc2":"","admin1_code":"30","admin2_code":"","admin3_code":"","admin4_code":"","population":"0","elevation":"","dem":"378","timezone":"Africa/Lagos","modification_date":"2015-03-08"},{"geonameid":"2327879","name":"Offa","asciiname":"Offa","alternatenames":["Offa","Оффа"],"latitude":"8.14911","longitude":"4.72074","feature_class":"P","feature_code":"PPLA2","country_code":"NG","cc2":"","admin1_code":"30","admin2_code":"","admin3_code":"","admin4_code":"","population":"113830","elevation":"","dem":"419","timezone":"Africa/Lagos","modification_date":"2015-03-08"},{"geonameid":"2332504","name":"Lafiagi","asciiname":"Lafiagi","alternatenames":[""],"latitude":"8.85299","longitude":"5.41641","feature_class":"P","feature_code":"PPLA2","country_code":"NG","cc2":"","admin1_code":"30","admin2_code":"","admin3_code":"","admin4_code":"","population":"102779","elevation":"","dem":"116","timezone":"Africa/Lagos","modification_date":"2015-03-08"},{"geonameid":"2333893","name":"Kosubosu","asciiname":"Kosubosu","alternatenames":[""],"latitude":"9.55107","longitude":"3.22841","feature_class":"P","feature_code":"PPLA2","country_code":"NG","cc2":"","admin1_code":"30","admin2_code":"","admin3_code":"","admin4_code":"","population":"0","elevation":"","dem":"469","timezone":"Africa/Lagos","modification_date":"2015-03-08"},{"geonameid":"2335596","name":"Kaiama","asciiname":"Kaiama","alternatenames":["Kaiama","Kaima"],"latitude":"9.6053","longitude":"3.94101","feature_class":"P","feature_code":"PPLA2","country_code":"NG","cc2":"","admin1_code":"30","admin2_code":"","admin3_code":"","admin4_code":"","population":"21897","elevation":"","dem":"325","timezone":"Africa/Lagos","modification_date":"2015-03-08"},{"geonameid":"2336251","name":"Jebba","asciiname":"Jebba","alternatenames":["Djebba","Jebba"],"latitude":"9.13333","longitude":"4.83333","feature_class":"P","feature_code":"PPL","country_code":"NG","cc2":"","admin1_code":"30","admin2_code":"","admin3_code":"","admin4_code":"","population":"21488","elevation":"","dem":"77","timezone":"Africa/Lagos","modification_date":"2013-05-17"},{"geonameid":"2337639","name":"Ilorin","asciiname":"Ilorin","alternatenames":["ILR","Illorin","Ilorin"],"latitude":"8.49664","longitude":"4.54214","feature_class":"P","feature_code":"PPLA","country_code":"NG","cc2":"","admin1_code":"30","admin2_code":"","admin3_code":"","admin4_code":"","population":"814192","elevation":"","dem":"320","timezone":"Africa/Lagos","modification_date":"2015-03-08"},{"geonameid":"2337655","name":"Iloffa","asciiname":"Iloffa","alternatenames":["Ilofa","Iloffa"],"latitude":"8.09343","longitude":"5.14233","feature_class":"P","feature_code":"PPLA2","country_code":"NG","cc2":"","admin1_code":"30","admin2_code":"","admin3_code":"","admin4_code":"","population":"0","elevation":"","dem":"568","timezone":"Africa/Lagos","modification_date":"2015-03-08"},{"geonameid":"2337722","name":"Ilemona","asciiname":"Ilemona","alternatenames":["Ilemana","Ilemona"],"latitude":"8.10992","longitude":"4.66059","feature_class":"P","feature_code":"PPLA2","country_code":"NG","cc2":"","admin1_code":"30","admin2_code":"","admin3_code":"","admin4_code":"","population":"0","elevation":"","dem":"411","timezone":"Africa/Lagos","modification_date":"2015-03-08"},{"geonameid":"2339753","name":"Gwasero","asciiname":"Gwasero","alternatenames":[""],"latitude":"9.48333","longitude":"3.5","feature_class":"P","feature_code":"PPL","country_code":"NG","cc2":"","admin1_code":"30","admin2_code":"","admin3_code":"","admin4_code":"","population":"7263","elevation":"","dem":"355","timezone":"Africa/Lagos","modification_date":"2013-05-18"},{"geonameid":"2342513","name":"Fufu","asciiname":"Fufu","alternatenames":[""],"latitude":"8.44838","longitude":"4.72077","feature_class":"P","feature_code":"PPLA2","country_code":"NG","cc2":"","admin1_code":"30","admin2_code":"","admin3_code":"","admin4_code":"","population":"0","elevation":"","dem":"401","timezone":"Africa/Lagos","modification_date":"2015-03-08"},{"geonameid":"2346951","name":"Bode Saadu","asciiname":"Bode Saadu","alternatenames":["Bode Saadu","Bode-Sadu"],"latitude":"8.939","longitude":"4.78227","feature_class":"P","feature_code":"PPLA2","country_code":"NG","cc2":"","admin1_code":"30","admin2_code":"","admin3_code":"","admin4_code":"","population":"16619","elevation":"","dem":"151","timezone":"Africa/Lagos","modification_date":"2015-03-08"},{"geonameid":"2349473","name":"Araromi-Opin","asciiname":"Araromi-Opin","alternatenames":["Araromi-Opin","Araromi-Osi"],"latitude":"8.06527","longitude":"5.25398","feature_class":"P","feature_code":"PPLA2","country_code":"NG","cc2":"","admin1_code":"30","admin2_code":"","admin3_code":"","admin4_code":"","population":"0","elevation":"","dem":"521","timezone":"Africa/Lagos","modification_date":"2015-03-08"},{"geonameid":"2351461","name":"Ajasse Ipo","asciiname":"Ajasse Ipo","alternatenames":["Ajasse","Ajasse Ipo"],"latitude":"8.23333","longitude":"4.81667","feature_class":"P","feature_code":"PPL","country_code":"NG","cc2":"","admin1_code":"30","admin2_code":"","admin3_code":"","admin4_code":"","population":"12718","elevation":"","dem":"402","timezone":"Africa/Lagos","modification_date":"2013-05-18"},{"geonameid":"2352230","name":"Afon","asciiname":"Afon","alternatenames":[""],"latitude":"8.31313","longitude":"4.52738","feature_class":"P","feature_code":"PPLA2","country_code":"NG","cc2":"","admin1_code":"30","admin2_code":"","admin3_code":"","admin4_code":"","population":"0","elevation":"","dem":"336","timezone":"Africa/Lagos","modification_date":"2015-03-08"}]}