{"region_data":{"countryId":"3865483","adminCode1":"01","countryName":"Argentina","fclName":"country, state, region,...","countryCode":"AR","lng":"-60","fcodeName":"first-order administrative division","toponymName":"Provincia de Buenos Aires","fcl":"A","numberOfChildren":136,"name":"Buenos Aires","fcode":"ADM1","geonameId":3435907,"lat":"-36","adminName1":"Buenos Aires","population":13827203},"country_data":{"ISO":"AR","ISO3":"ARG","ISO_Numeric":"032","fips":"AR","country":"Argentina","capital":"Buenos Aires","area":"2766890","Population":"41343201","Continent":"SA","tld":".ar","CurrencyCode":"ARS","CurrencyName":"Peso","Phone":"54","Postal_Code_Format":"@####@@@","Postal_Code_Regex":"^([A-Z]\\d{4}[A-Z]{3})$","Languages":"es-AR,en,it,de,fr,gn","geonameid":"3865483","neighbours":"CL,BO,UY,PY,BR","EquivalentFipsCode":""},"cities":[{"geonameid":"3427213","name":"Zárate","asciiname":"Zarate","alternatenames":["General J.F. Uriburu","General Jose F. Uriburu","General José F. Uriburu","General Uriburu","Sarate","Saratė","Zarate","Zárate","Зарате"],"latitude":"-34.09814","longitude":"-59.02858","feature_class":"P","feature_code":"PPLA2","country_code":"AR","cc2":"","admin1_code":"01","admin2_code":"06882","admin3_code":"","admin4_code":"","population":"88781","elevation":"","dem":"28","timezone":"America/Argentina/Buenos_Aires","modification_date":"2015-04-22"},{"geonameid":"3427431","name":"Villa Gesell","asciiname":"Villa Gesell","alternatenames":["VLG","Vil'ja-Khesel'","Вилья-Хесель"],"latitude":"-37.26394","longitude":"-56.97304","feature_class":"P","feature_code":"PPL","country_code":"AR","cc2":"","admin1_code":"01","admin2_code":"","admin3_code":"","admin4_code":"","population":"23257","elevation":"","dem":"9","timezone":"America/Argentina/Buenos_Aires","modification_date":"2010-04-25"},{"geonameid":"3427511","name":"Verónica","asciiname":"Veronica","alternatenames":["Veronica","Verónica"],"latitude":"-35.38796","longitude":"-57.33691","feature_class":"P","feature_code":"PPLA2","country_code":"AR","cc2":"","admin1_code":"01","admin2_code":"","admin3_code":"","admin4_code":"","population":"0","elevation":"","dem":"20","timezone":"America/Argentina/Buenos_Aires","modification_date":"2014-03-07"},{"geonameid":"3427761","name":"Tigre","asciiname":"Tigre","alternatenames":["Las Conchas","Tigre","Тигре"],"latitude":"-34.42603","longitude":"-58.57962","feature_class":"P","feature_code":"PPL","country_code":"AR","cc2":"AR","admin1_code":"01","admin2_code":"06805","admin3_code":"","admin4_code":"","population":"31106","elevation":"2","dem":"8","timezone":"America/Argentina/Buenos_Aires","modification_date":"2015-04-22"},{"geonameid":"3427833","name":"Tandil","asciiname":"Tandil","alternatenames":["TDL","Tandil","Tandil'","Tandilis","tan di er","tandiru","tandyl","Тандил","Тандиль","تاندیل","タンディル","坦迪爾"],"latitude":"-37.32167","longitude":"-59.13316","feature_class":"P","feature_code":"PPLA2","country_code":"AR","cc2":"","admin1_code":"01","admin2_code":"06791","admin3_code":"","admin4_code":"","population":"104325","elevation":"","dem":"192","timezone":"America/Argentina/Buenos_Aires","modification_date":"2015-04-22"},{"geonameid":"3427897","name":"Suipacha","asciiname":"Suipacha","alternatenames":["Suipacha"],"latitude":"-34.77004","longitude":"-59.68958","feature_class":"P","feature_code":"PPLA2","country_code":"AR","cc2":"","admin1_code":"01","admin2_code":"06784","admin3_code":"","admin4_code":"","population":"0","elevation":"","dem":"48","timezone":"America/Argentina/Buenos_Aires","modification_date":"2015-04-22"},{"geonameid":"3428067","name":"San Vicente","asciiname":"San Vicente","alternatenames":["San Vicente"],"latitude":"-35.025","longitude":"-58.42276","feature_class":"P","feature_code":"PPLA2","country_code":"AR","cc2":"","admin1_code":"01","admin2_code":"06778","admin3_code":"","admin4_code":"","population":"0","elevation":"","dem":"26","timezone":"America/Argentina/Buenos_Aires","modification_date":"2015-04-22"},{"geonameid":"3428576","name":"San Pedro","asciiname":"San Pedro","alternatenames":["San Pedro"],"latitude":"-33.67913","longitude":"-59.66663","feature_class":"P","feature_code":"PPLA2","country_code":"AR","cc2":"","admin1_code":"01","admin2_code":"06770","admin3_code":"","admin4_code":"","population":"0","elevation":"","dem":"30","timezone":"America/Argentina/Buenos_Aires","modification_date":"2015-04-22"},{"geonameid":"3428609","name":"San Miguel del Monte","asciiname":"San Miguel del Monte","alternatenames":["San M. del Monte","San Miguel de Monte","San Miguel del Monte"],"latitude":"-35.43962","longitude":"-58.80675","feature_class":"P","feature_code":"PPLA2","country_code":"AR","cc2":"","admin1_code":"01","admin2_code":"","admin3_code":"","admin4_code":"","population":"0","elevation":"","dem":"25","timezone":"America/Argentina/Buenos_Aires","modification_date":"2014-03-07"},{"geonameid":"3428775","name":"San Justo","asciiname":"San Justo","alternatenames":["San Justo"],"latitude":"-34.6766","longitude":"-58.56058","feature_class":"P","feature_code":"PPLA2","country_code":"AR","cc2":"","admin1_code":"01","admin2_code":"","admin3_code":"","admin4_code":"","population":"0","elevation":"","dem":"35","timezone":"America/Argentina/Buenos_Aires","modification_date":"2014-03-07"},{"geonameid":"3428992","name":"San Isidro","asciiname":"San Isidro","alternatenames":["San Isidro"],"latitude":"-34.47145","longitude":"-58.50776","feature_class":"P","feature_code":"PPLA2","country_code":"AR","cc2":"","admin1_code":"01","admin2_code":"06756","admin3_code":"","admin4_code":"","population":"45190","elevation":"","dem":"30","timezone":"America/Argentina/Buenos_Aires","modification_date":"2015-04-22"},{"geonameid":"3429160","name":"San Clemente del Tuyú","asciiname":"San Clemente del Tuyu","alternatenames":["Balneario San Clemente","Balneario San Clemente del Tuyu","Balneario San Clemente del Tuyú","San Clemente del Tuyu","San Clemente del Tuyú","San-Klemente-del'-Tuju","Сан-Клементе-дель-Тую"],"latitude":"-36.35694","longitude":"-56.72351","feature_class":"P","feature_code":"PPL","country_code":"AR","cc2":"","admin1_code":"01","admin2_code":"","admin3_code":"","admin4_code":"","population":"11174","elevation":"","dem":"6","timezone":"America/Argentina/Buenos_Aires","modification_date":"2012-01-18"},{"geonameid":"3429171","name":"San Cayetano","asciiname":"San Cayetano","alternatenames":["San Cayetano"],"latitude":"-38.34653","longitude":"-59.60954","feature_class":"P","feature_code":"PPLA2","country_code":"AR","cc2":"","admin1_code":"01","admin2_code":"06742","admin3_code":"","admin4_code":"","population":"0","elevation":"","dem":"100","timezone":"America/Argentina/Buenos_Aires","modification_date":"2015-04-22"},{"geonameid":"3429248","name":"San Antonio de Areco","asciiname":"San Antonio de Areco","alternatenames":["San A. de Areco","San Antonio de Areco"],"latitude":"-34.24968","longitude":"-59.46945","feature_class":"P","feature_code":"PPLA2","country_code":"AR","cc2":"","admin1_code":"01","admin2_code":"06735","admin3_code":"","admin4_code":"","population":"0","elevation":"","dem":"33","timezone":"America/Argentina/Buenos_Aires","modification_date":"2015-04-22"},{"geonameid":"3429309","name":"San Andrés de Giles","asciiname":"San Andres de Giles","alternatenames":["San A. de Giles","San Andres de Giles","San Andrés de Giles"],"latitude":"-34.44972","longitude":"-59.44333","feature_class":"P","feature_code":"PPLA2","country_code":"AR","cc2":"","admin1_code":"01","admin2_code":"06728","admin3_code":"","admin4_code":"","population":"0","elevation":"","dem":"51","timezone":"America/Argentina/Buenos_Aires","modification_date":"2015-04-22"},{"geonameid":"3429399","name":"Saladillo","asciiname":"Saladillo","alternatenames":["Saladillo"],"latitude":"-35.63708","longitude":"-59.77788","feature_class":"P","feature_code":"PPLA2","country_code":"AR","cc2":"","admin1_code":"01","admin2_code":"06707","admin3_code":"","admin4_code":"","population":"0","elevation":"","dem":"45","timezone":"America/Argentina/Buenos_Aires","modification_date":"2015-04-22"},{"geonameid":"3429450","name":"Roque Pérez","asciiname":"Roque Perez","alternatenames":["R. Perez","R. Pérez","Roque Perez","Roque Pérez"],"latitude":"-35.39794","longitude":"-59.33271","feature_class":"P","feature_code":"PPLA2","country_code":"AR","cc2":"","admin1_code":"01","admin2_code":"06693","admin3_code":"","admin4_code":"","population":"0","elevation":"","dem":"34","timezone":"America/Argentina/Buenos_Aires","modification_date":"2015-04-22"},{"geonameid":"3429602","name":"Rauch","asciiname":"Rauch","alternatenames":["Rauch"],"latitude":"-36.7745","longitude":"-59.08973","feature_class":"P","feature_code":"PPLA2","country_code":"AR","cc2":"","admin1_code":"01","admin2_code":"06672","admin3_code":"","admin4_code":"","population":"0","elevation":"","dem":"95","timezone":"America/Argentina/Buenos_Aires","modification_date":"2015-04-22"},{"geonameid":"3429610","name":"Ranchos","asciiname":"Ranchos","alternatenames":["General Paz","Ranchos"],"latitude":"-35.51619","longitude":"-58.31733","feature_class":"P","feature_code":"PPLA2","country_code":"AR","cc2":"","admin1_code":"01","admin2_code":"","admin3_code":"","admin4_code":"","population":"0","elevation":"","dem":"26","timezone":"America/Argentina/Buenos_Aires","modification_date":"2014-03-07"},{"geonameid":"3429652","name":"Quilmes","asciiname":"Quilmes","alternatenames":["Kil'mes","Kilmes","Kilmesas","Quilmes","ji er mei si","kirumesu","kylms","Килмес","Кильмес","Кільмес","کیلمس","კილმესი","キルメス","基尔梅斯"],"latitude":"-34.72418","longitude":"-58.25265","feature_class":"P","feature_code":"PPLA2","country_code":"AR","cc2":"","admin1_code":"01","admin2_code":"06658","admin3_code":"","admin4_code":"","population":"518788","elevation":"","dem":"24","timezone":"America/Argentina/Buenos_Aires","modification_date":"2015-04-22"},{"geonameid":"3429902","name":"Pontevedra","asciiname":"Pontevedra","alternatenames":["Pontevedra"],"latitude":"-34.74974","longitude":"-58.68697","feature_class":"P","feature_code":"PPL","country_code":"AR","cc2":"","admin1_code":"01","admin2_code":"","admin3_code":"","admin4_code":"","population":"33515","elevation":"","dem":"23","timezone":"America/Argentina/Buenos_Aires","modification_date":"2012-02-02"},{"geonameid":"3429971","name":"Pinamar","asciiname":"Pinamar","alternatenames":["Balneario Pinamar","Pinamar","QPQ"],"latitude":"-37.10795","longitude":"-56.8614","feature_class":"P","feature_code":"PPLA2","country_code":"AR","cc2":"","admin1_code":"01","admin2_code":"","admin3_code":"","admin4_code":"","population":"0","elevation":"","dem":"15","timezone":"America/Argentina/Buenos_Aires","modification_date":"2011-11-19"},{"geonameid":"3429980","name":"Pilar","asciiname":"Pilar","alternatenames":["Pilar"],"latitude":"-34.45761","longitude":"-58.91385","feature_class":"P","feature_code":"PPLA2","country_code":"AR","cc2":"","admin1_code":"01","admin2_code":"06638","admin3_code":"","admin4_code":"","population":"0","elevation":"","dem":"28","timezone":"America/Argentina/Buenos_Aires","modification_date":"2015-04-22"},{"geonameid":"3429989","name":"Pila","asciiname":"Pila","alternatenames":["Pila"],"latitude":"-36.00058","longitude":"-58.14391","feature_class":"P","feature_code":"PPLA2","country_code":"AR","cc2":"","admin1_code":"01","admin2_code":"","admin3_code":"","admin4_code":"","population":"0","elevation":"","dem":"17","timezone":"America/Argentina/Buenos_Aires","modification_date":"2014-03-07"},{"geonameid":"3430310","name":"Olivos","asciiname":"Olivos","alternatenames":["Olivos","QLV"],"latitude":"-34.50747","longitude":"-58.48703","feature_class":"P","feature_code":"PPLA2","country_code":"AR","cc2":"","admin1_code":"01","admin2_code":"06861","admin3_code":"","admin4_code":"","population":"0","elevation":"","dem":"23","timezone":"America/Argentina/Buenos_Aires","modification_date":"2015-04-22"},{"geonameid":"3430443","name":"Necochea","asciiname":"Necochea","alternatenames":["NEC","Necochea","Nekoceja","Nekočėja","nei ke qie a","nkwchya","nykwtshya","نيكوتشيا","نکوچئا","內科切阿"],"latitude":"-38.54726","longitude":"-58.73675","feature_class":"P","feature_code":"PPLA2","country_code":"AR","cc2":"","admin1_code":"01","admin2_code":"","admin3_code":"","admin4_code":"","population":"80478","elevation":"","dem":"20","timezone":"America/Argentina/Buenos_Aires","modification_date":"2014-03-07"},{"geonameid":"3430457","name":"Navarro","asciiname":"Navarro","alternatenames":[""],"latitude":"-35.00559","longitude":"-59.27699","feature_class":"P","feature_code":"PPLA2","country_code":"AR","cc2":"","admin1_code":"01","admin2_code":"06574","admin3_code":"","admin4_code":"","population":"0","elevation":"","dem":"36","timezone":"America/Argentina/Buenos_Aires","modification_date":"2015-04-22"},{"geonameid":"3430545","name":"Morón","asciiname":"Moron","alternatenames":["6 de Septiembre","Moron","Morón","Seis de Septiembre","mo long","moron","mwrwn","Морон","مورون","モロン","莫龙"],"latitude":"-34.65344","longitude":"-58.61975","feature_class":"P","feature_code":"PPLA2","country_code":"AR","cc2":"","admin1_code":"01","admin2_code":"06568","admin3_code":"","admin4_code":"","population":"319934","elevation":"","dem":"29","timezone":"America/Argentina/Buenos_Aires","modification_date":"2015-04-22"},{"geonameid":"3430668","name":"Miramar","asciiname":"Miramar","alternatenames":["MJR","Miramar"],"latitude":"-38.27161","longitude":"-57.8389","feature_class":"P","feature_code":"PPLA2","country_code":"AR","cc2":"","admin1_code":"01","admin2_code":"","admin3_code":"","admin4_code":"","population":"0","elevation":"","dem":"14","timezone":"America/Argentina/Buenos_Aires","modification_date":"2014-04-26"},{"geonameid":"3430697","name":"Merlo","asciiname":"Merlo","alternatenames":["Merlo","mei luo","meruro","mrlw","Мерло","مرلو","メルロ","梅洛"],"latitude":"-34.66854","longitude":"-58.72225","feature_class":"P","feature_code":"PPLA2","country_code":"AR","cc2":"","admin1_code":"01","admin2_code":"06539","admin3_code":"","admin4_code":"","population":"0","elevation":"","dem":"20","timezone":"America/Argentina/Buenos_Aires","modification_date":"2015-04-22"},{"geonameid":"3430708","name":"Mercedes","asciiname":"Mercedes","alternatenames":["Mercedes","Mersedes","Mersedesas","mei sai de si","mrsds  bwynws ayrs","Мерседес","مرسدس، بوئنوس آیرس","梅塞德斯"],"latitude":"-34.65145","longitude":"-59.43068","feature_class":"P","feature_code":"PPLA2","country_code":"AR","cc2":"","admin1_code":"01","admin2_code":"06532","admin3_code":"","admin4_code":"","population":"52949","elevation":"","dem":"43","timezone":"America/Argentina/Buenos_Aires","modification_date":"2015-04-22"},{"geonameid":"3430861","name":"Mar del Tuyú","asciiname":"Mar del Tuyu","alternatenames":["Mar del Tuyu","Mar del Tuyú"],"latitude":"-36.57531","longitude":"-56.68883","feature_class":"P","feature_code":"PPLA2","country_code":"AR","cc2":"","admin1_code":"01","admin2_code":"","admin3_code":"","admin4_code":"","population":"0","elevation":"","dem":"6","timezone":"America/Argentina/Buenos_Aires","modification_date":"2014-03-07"},{"geonameid":"3430863","name":"Mar del Plata","asciiname":"Mar del Plata","alternatenames":["Gorad Mar-dehl'-Plata","MDQ","Mar de Plata","Mar del Plata","Mar ntel Plata","Mar-del'-Plata","Mar-del'-Platae","Mar-del-Plata","ma de pu la ta","maleudelpeullata","mar del pla ta","mar dl plata","Μαρ ντελ Πλάτα","Горад Мар-дэль-Плата","Мар дел Плата","Мар-дель-Платæ","Мар-дель-Плата","Մար-դել-Պլատա","מאר דל פלאטה","مار دل پلاتا","มาร์เดลปลาตา","მარ-დელ-პლატა","マル・デル・プラタ","马德普拉塔","마르델플라타"],"latitude":"-38.00228","longitude":"-57.55754","feature_class":"P","feature_code":"PPLA2","country_code":"AR","cc2":"","admin1_code":"01","admin2_code":"","admin3_code":"","admin4_code":"","population":"553935","elevation":"","dem":"15","timezone":"America/Argentina/Buenos_Aires","modification_date":"2014-03-07"},{"geonameid":"3430868","name":"Marcos Paz","asciiname":"Marcos Paz","alternatenames":["M. Paz","Marcos Paz"],"latitude":"-34.78063","longitude":"-58.8374","feature_class":"P","feature_code":"PPLA2","country_code":"AR","cc2":"","admin1_code":"01","admin2_code":"06525","admin3_code":"","admin4_code":"","population":"0","elevation":"","dem":"35","timezone":"America/Argentina/Buenos_Aires","modification_date":"2015-04-22"},{"geonameid":"3430946","name":"Maipú","asciiname":"Maipu","alternatenames":["Maipu","Maipú"],"latitude":"-36.86274","longitude":"-57.88094","feature_class":"P","feature_code":"PPLA2","country_code":"AR","cc2":"","admin1_code":"01","admin2_code":"","admin3_code":"","admin4_code":"","population":"0","elevation":"","dem":"16","timezone":"America/Argentina/Buenos_Aires","modification_date":"2014-03-07"},{"geonameid":"3430957","name":"Magdalena","asciiname":"Magdalena","alternatenames":[""],"latitude":"-35.08065","longitude":"-57.51301","feature_class":"P","feature_code":"PPLA2","country_code":"AR","cc2":"","admin1_code":"01","admin2_code":"06505","admin3_code":"","admin4_code":"","population":"0","elevation":"","dem":"11","timezone":"America/Argentina/Buenos_Aires","modification_date":"2015-04-22"},{"geonameid":"3430988","name":"Luján","asciiname":"Lujan","alternatenames":["Lujan","Luján","Lukhan","lu han","lwkhan","Лухан","لوخان","盧漢"],"latitude":"-34.57028","longitude":"-59.105","feature_class":"P","feature_code":"PPLA2","country_code":"AR","cc2":"","admin1_code":"01","admin2_code":"06497","admin3_code":"","admin4_code":"","population":"81749","elevation":"","dem":"27","timezone":"America/Argentina/Buenos_Aires","modification_date":"2015-04-22"},{"geonameid":"3431271","name":"Lomas de Zamora","asciiname":"Lomas de Zamora","alternatenames":["L. de Zamora","Lomas de Zamora"],"latitude":"-34.76088","longitude":"-58.40632","feature_class":"P","feature_code":"PPLA2","country_code":"AR","cc2":"","admin1_code":"01","admin2_code":"06490","admin3_code":"","admin4_code":"","population":"0","elevation":"","dem":"23","timezone":"America/Argentina/Buenos_Aires","modification_date":"2015-04-22"},{"geonameid":"3431313","name":"Lobos","asciiname":"Lobos","alternatenames":["Lobos"],"latitude":"-35.18286","longitude":"-59.08975","feature_class":"P","feature_code":"PPLA2","country_code":"AR","cc2":"","admin1_code":"01","admin2_code":"06483","admin3_code":"","admin4_code":"","population":"0","elevation":"","dem":"29","timezone":"America/Argentina/Buenos_Aires","modification_date":"2015-04-22"},{"geonameid":"3431321","name":"Lobería","asciiname":"Loberia","alternatenames":["Loberia","Lobería"],"latitude":"-38.15574","longitude":"-58.7913","feature_class":"P","feature_code":"PPLA2","country_code":"AR","cc2":"","admin1_code":"01","admin2_code":"06476","admin3_code":"","admin4_code":"","population":"0","elevation":"","dem":"82","timezone":"America/Argentina/Buenos_Aires","modification_date":"2015-04-22"},{"geonameid":"3431788","name":"Las Flores","asciiname":"Las Flores","alternatenames":["Las Flores"],"latitude":"-36.01403","longitude":"-59.09984","feature_class":"P","feature_code":"PPLA2","country_code":"AR","cc2":"","admin1_code":"01","admin2_code":"06455","admin3_code":"","admin4_code":"","population":"0","elevation":"","dem":"39","timezone":"America/Argentina/Buenos_Aires","modification_date":"2015-04-22"},{"geonameid":"3432043","name":"La Plata","asciiname":"La Plata","alternatenames":["Eva Peron","Eva Perón","Gorad La-Plata","LPG","La Plata","La-Plata","La-Platae","Urbs Platensis","la plata","la pu la ta","lablata","lap lata","lapeullata","rapurata","Λα Πλάτα","Горад Ла-Плата","Ла Плата","Ла-Платæ","Ла-Плата","לה פלאטה","لا پلاتا","لابلاتا","ला प्लाटा","লা প্লাতা","ลาปลาตา","ლა-პლატა","ラプラタ","拉普拉塔","라플라타"],"latitude":"-34.92145","longitude":"-57.95453","feature_class":"P","feature_code":"PPLA","country_code":"AR","cc2":"","admin1_code":"01","admin2_code":"06441","admin3_code":"","admin4_code":"","population":"694167","elevation":"","dem":"27","timezone":"America/Argentina/Buenos_Aires","modification_date":"2015-04-22"},{"geonameid":"3432135","name":"Lanús","asciiname":"Lanus","alternatenames":["Lanus","Lanús"],"latitude":"-34.70252","longitude":"-58.3955","feature_class":"P","feature_code":"PPLA2","country_code":"AR","cc2":"","admin1_code":"01","admin2_code":"06434","admin3_code":"","admin4_code":"","population":"0","elevation":"","dem":"10","timezone":"America/Argentina/Buenos_Aires","modification_date":"2015-04-22"},{"geonameid":"3433359","name":"Ituzaingó","asciiname":"Ituzaingo","alternatenames":["Ituzaingo","Ituzaingó"],"latitude":"-34.65582","longitude":"-58.65836","feature_class":"P","feature_code":"PPLA2","country_code":"AR","cc2":"","admin1_code":"01","admin2_code":"","admin3_code":"","admin4_code":"","population":"0","elevation":"","dem":"29","timezone":"America/Argentina/Buenos_Aires","modification_date":"2011-11-18"},{"geonameid":"3433522","name":"Hurlingham","asciiname":"Hurlingham","alternatenames":["28 de Septiembre","Hurlingham"],"latitude":"-34.58831","longitude":"-58.63905","feature_class":"P","feature_code":"PPLA2","country_code":"AR","cc2":"","admin1_code":"01","admin2_code":"","admin3_code":"","admin4_code":"","population":"0","elevation":"","dem":"14","timezone":"America/Argentina/Buenos_Aires","modification_date":"2011-11-18"},{"geonameid":"3433779","name":"General San Martín","asciiname":"General San Martin","alternatenames":["General San Martin","General San Martín","San Martin","San Martín"],"latitude":"-34.57072","longitude":"-58.52436","feature_class":"P","feature_code":"PPLA2","country_code":"AR","cc2":"","admin1_code":"01","admin2_code":"06371","admin3_code":"","admin4_code":"","population":"0","elevation":"","dem":"21","timezone":"America/Argentina/Buenos_Aires","modification_date":"2015-04-22"},{"geonameid":"3433781","name":"General Rodríguez","asciiname":"General Rodriguez","alternatenames":["General Rodriguez","General Rodríguez"],"latitude":"-34.60838","longitude":"-58.95253","feature_class":"P","feature_code":"PPLA2","country_code":"AR","cc2":"","admin1_code":"01","admin2_code":"06364","admin3_code":"","admin4_code":"","population":"0","elevation":"","dem":"34","timezone":"America/Argentina/Buenos_Aires","modification_date":"2015-04-22"},{"geonameid":"3433796","name":"General Lavalle","asciiname":"General Lavalle","alternatenames":["Ajo","Ajó","General Lavalle","Lavalle"],"latitude":"-36.40633","longitude":"-56.94329","feature_class":"P","feature_code":"PPLA2","country_code":"AR","cc2":"","admin1_code":"01","admin2_code":"06336","admin3_code":"","admin4_code":"","population":"0","elevation":"","dem":"3","timezone":"America/Argentina/Buenos_Aires","modification_date":"2015-04-22"},{"geonameid":"3433799","name":"General Las Heras","asciiname":"General Las Heras","alternatenames":["General Las Heras"],"latitude":"-34.92726","longitude":"-58.94621","feature_class":"P","feature_code":"PPLA2","country_code":"AR","cc2":"","admin1_code":"01","admin2_code":"06329","admin3_code":"","admin4_code":"","population":"0","elevation":"","dem":"41","timezone":"America/Argentina/Buenos_Aires","modification_date":"2015-04-22"},{"geonameid":"3433801","name":"General Juan Madariaga","asciiname":"General Juan Madariaga","alternatenames":["General J. Madariaga","General Juan Madariaga","General Madariaga"],"latitude":"-36.99725","longitude":"-57.13951","feature_class":"P","feature_code":"PPLA2","country_code":"AR","cc2":"","admin1_code":"01","admin2_code":"06315","admin3_code":"","admin4_code":"","population":"0","elevation":"","dem":"11","timezone":"America/Argentina/Buenos_Aires","modification_date":"2015-04-22"},{"geonameid":"3433806","name":"General Guido","asciiname":"General Guido","alternatenames":["General Guido","Guido"],"latitude":"-36.64074","longitude":"-57.79174","feature_class":"P","feature_code":"PPLA2","country_code":"AR","cc2":"","admin1_code":"01","admin2_code":"06308","admin3_code":"","admin4_code":"","population":"0","elevation":"","dem":"14","timezone":"America/Argentina/Buenos_Aires","modification_date":"2015-04-22"},{"geonameid":"3433813","name":"General Conesa","asciiname":"General Conesa","alternatenames":["General Conesa"],"latitude":"-36.52013","longitude":"-57.32537","feature_class":"P","feature_code":"PPLA2","country_code":"AR","cc2":"","admin1_code":"01","admin2_code":"","admin3_code":"","admin4_code":"","population":"0","elevation":"","dem":"4","timezone":"America/Argentina/Buenos_Aires","modification_date":"2014-03-07"},{"geonameid":"3433817","name":"General Belgrano","asciiname":"General Belgrano","alternatenames":[""],"latitude":"-35.76952","longitude":"-58.49341","feature_class":"P","feature_code":"PPLA2","country_code":"AR","cc2":"","admin1_code":"01","admin2_code":"06301","admin3_code":"","admin4_code":"","population":"0","elevation":"","dem":"22","timezone":"America/Argentina/Buenos_Aires","modification_date":"2015-04-22"},{"geonameid":"3433923","name":"Florencio Varela","asciiname":"Florencio Varela","alternatenames":["F. Varela","Florencio Varela"],"latitude":"-34.82722","longitude":"-58.39556","feature_class":"P","feature_code":"PPLA2","country_code":"AR","cc2":"","admin1_code":"01","admin2_code":"06274","admin3_code":"","admin4_code":"","population":"0","elevation":"","dem":"28","timezone":"America/Argentina/Buenos_Aires","modification_date":"2015-04-22"},{"geonameid":"3433975","name":"Ezeiza","asciiname":"Ezeiza","alternatenames":["Ezeiza","Ministro Pistarini"],"latitude":"-34.84787","longitude":"-58.52869","feature_class":"P","feature_code":"PPLA2","country_code":"AR","cc2":"","admin1_code":"01","admin2_code":"06270","admin3_code":"","admin4_code":"","population":"0","elevation":"","dem":"20","timezone":"America/Argentina/Buenos_Aires","modification_date":"2015-04-22"},{"geonameid":"3434141","name":"Ensenada","asciiname":"Ensenada","alternatenames":["Ensenada"],"latitude":"-34.86186","longitude":"-57.91126","feature_class":"P","feature_code":"PPLA2","country_code":"AR","cc2":"","admin1_code":"01","admin2_code":"06245","admin3_code":"","admin4_code":"","population":"0","elevation":"","dem":"5","timezone":"America/Argentina/Buenos_Aires","modification_date":"2015-04-22"},{"geonameid":"3435038","name":"Dolores","asciiname":"Dolores","alternatenames":[""],"latitude":"-36.31321","longitude":"-57.67918","feature_class":"P","feature_code":"PPLA2","country_code":"AR","cc2":"","admin1_code":"01","admin2_code":"06238","admin3_code":"","admin4_code":"","population":"25190","elevation":"","dem":"14","timezone":"America/Argentina/Buenos_Aires","modification_date":"2015-04-22"},{"geonameid":"3435234","name":"Coronel Vidal","asciiname":"Coronel Vidal","alternatenames":["Coronel Vidal"],"latitude":"-37.44604","longitude":"-57.72865","feature_class":"P","feature_code":"PPLA2","country_code":"AR","cc2":"","admin1_code":"01","admin2_code":"","admin3_code":"","admin4_code":"","population":"0","elevation":"","dem":"26","timezone":"America/Argentina/Buenos_Aires","modification_date":"2014-03-07"},{"geonameid":"3435448","name":"Chascomús","asciiname":"Chascomus","alternatenames":["Chascomus","Chascomús"],"latitude":"-35.57297","longitude":"-58.00809","feature_class":"P","feature_code":"PPLA2","country_code":"AR","cc2":"","admin1_code":"01","admin2_code":"06217","admin3_code":"","admin4_code":"","population":"0","elevation":"","dem":"15","timezone":"America/Argentina/Buenos_Aires","modification_date":"2015-04-22"},{"geonameid":"3435605","name":"Castelli","asciiname":"Castelli","alternatenames":["Castelli"],"latitude":"-36.08949","longitude":"-57.80393","feature_class":"P","feature_code":"PPLA2","country_code":"AR","cc2":"","admin1_code":"01","admin2_code":"06168","admin3_code":"","admin4_code":"","population":"0","elevation":"","dem":"11","timezone":"America/Argentina/Buenos_Aires","modification_date":"2015-04-22"},{"geonameid":"3435611","name":"Caseros","asciiname":"Caseros","alternatenames":["Caseros"],"latitude":"-34.60071","longitude":"-58.56424","feature_class":"P","feature_code":"PPLA2","country_code":"AR","cc2":"","admin1_code":"01","admin2_code":"","admin3_code":"","admin4_code":"","population":"0","elevation":"","dem":"34","timezone":"America/Argentina/Buenos_Aires","modification_date":"2014-03-07"},{"geonameid":"3435644","name":"Carmen de Areco","asciiname":"Carmen de Areco","alternatenames":["C. de Areco","Carmen de Areco"],"latitude":"-34.37533","longitude":"-59.82279","feature_class":"P","feature_code":"PPLA2","country_code":"AR","cc2":"","admin1_code":"01","admin2_code":"06161","admin3_code":"","admin4_code":"","population":"0","elevation":"","dem":"48","timezone":"America/Argentina/Buenos_Aires","modification_date":"2015-04-22"},{"geonameid":"3435690","name":"Capitán Sarmiento","asciiname":"Capitan Sarmiento","alternatenames":[""],"latitude":"-34.17269","longitude":"-59.78987","feature_class":"P","feature_code":"PPLA2","country_code":"AR","cc2":"","admin1_code":"01","admin2_code":"06140","admin3_code":"","admin4_code":"","population":"0","elevation":"","dem":"50","timezone":"America/Argentina/Buenos_Aires","modification_date":"2015-04-22"},{"geonameid":"3435704","name":"Capilla del Señor","asciiname":"Capilla del Senor","alternatenames":["Capilla","Capilla del Senor","Capilla del Señor"],"latitude":"-34.29207","longitude":"-59.10179","feature_class":"P","feature_code":"PPLA2","country_code":"AR","cc2":"","admin1_code":"01","admin2_code":"","admin3_code":"","admin4_code":"","population":"0","elevation":"","dem":"24","timezone":"America/Argentina/Buenos_Aires","modification_date":"2014-03-07"},{"geonameid":"3435713","name":"Cañuelas","asciiname":"Canuelas","alternatenames":["Canuelas","Cañuelas"],"latitude":"-35.05184","longitude":"-58.76061","feature_class":"P","feature_code":"PPLA2","country_code":"AR","cc2":"","admin1_code":"01","admin2_code":"","admin3_code":"","admin4_code":"","population":"0","elevation":"","dem":"34","timezone":"America/Argentina/Buenos_Aires","modification_date":"2014-03-07"},{"geonameid":"3435810","name":"Campana","asciiname":"Campana","alternatenames":["Campana","Kampana","Кампана"],"latitude":"-34.16874","longitude":"-58.95914","feature_class":"P","feature_code":"PPLA2","country_code":"AR","cc2":"","admin1_code":"01","admin2_code":"06126","admin3_code":"","admin4_code":"","population":"81612","elevation":"","dem":"17","timezone":"America/Argentina/Buenos_Aires","modification_date":"2015-04-22"},{"geonameid":"3435963","name":"Brandsen","asciiname":"Brandsen","alternatenames":["Brandsen","Coronel Brandsen"],"latitude":"-35.16842","longitude":"-58.23427","feature_class":"P","feature_code":"PPLA2","country_code":"AR","cc2":"","admin1_code":"01","admin2_code":"06119","admin3_code":"","admin4_code":"","population":"0","elevation":"","dem":"21","timezone":"America/Argentina/Buenos_Aires","modification_date":"2015-04-22"},{"geonameid":"3436040","name":"Berisso","asciiname":"Berisso","alternatenames":["Berisso"],"latitude":"-34.8735","longitude":"-57.88303","feature_class":"P","feature_code":"PPLA2","country_code":"AR","cc2":"","admin1_code":"01","admin2_code":"06098","admin3_code":"","admin4_code":"","population":"0","elevation":"","dem":"5","timezone":"America/Argentina/Buenos_Aires","modification_date":"2015-04-22"},{"geonameid":"3436047","name":"Benito Juárez","asciiname":"Benito Juarez","alternatenames":["Benito Juarez","Benito Juárez","Juarez","Juárez"],"latitude":"-37.67188","longitude":"-59.80653","feature_class":"P","feature_code":"PPLA2","country_code":"AR","cc2":"","admin1_code":"01","admin2_code":"","admin3_code":"","admin4_code":"","population":"0","elevation":"","dem":"219","timezone":"America/Argentina/Buenos_Aires","modification_date":"2014-03-07"},{"geonameid":"3436079","name":"Belén de Escobar","asciiname":"Belen de Escobar","alternatenames":["Belen","Belen de Escobar","Belén","Belén de Escobar","Escobar"],"latitude":"-34.34905","longitude":"-58.79308","feature_class":"P","feature_code":"PPLA2","country_code":"AR","cc2":"","admin1_code":"01","admin2_code":"","admin3_code":"","admin4_code":"","population":"0","elevation":"","dem":"24","timezone":"America/Argentina/Buenos_Aires","modification_date":"2014-03-07"},{"geonameid":"3436150","name":"Baradero","asciiname":"Baradero","alternatenames":["Baradero"],"latitude":"-33.81105","longitude":"-59.50807","feature_class":"P","feature_code":"PPLA2","country_code":"AR","cc2":"","admin1_code":"01","admin2_code":"06070","admin3_code":"","admin4_code":"","population":"0","elevation":"","dem":"29","timezone":"America/Argentina/Buenos_Aires","modification_date":"2015-04-22"},{"geonameid":"3436177","name":"Balcarce","asciiname":"Balcarce","alternatenames":["Balcarce"],"latitude":"-37.84616","longitude":"-58.25522","feature_class":"P","feature_code":"PPLA2","country_code":"AR","cc2":"","admin1_code":"01","admin2_code":"06063","admin3_code":"","admin4_code":"","population":"0","elevation":"","dem":"126","timezone":"America/Argentina/Buenos_Aires","modification_date":"2015-04-22"},{"geonameid":"3436199","name":"Azul","asciiname":"Azul","alternatenames":["Asulis","Azul","a su er","aswl","Азул","آسول","阿蘇爾"],"latitude":"-36.77698","longitude":"-59.85854","feature_class":"P","feature_code":"PPLA2","country_code":"AR","cc2":"","admin1_code":"01","admin2_code":"06049","admin3_code":"","admin4_code":"","population":"53941","elevation":"","dem":"141","timezone":"America/Argentina/Buenos_Aires","modification_date":"2015-04-22"},{"geonameid":"3436221","name":"Ayacucho","asciiname":"Ayacucho","alternatenames":[""],"latitude":"-37.15185","longitude":"-58.48691","feature_class":"P","feature_code":"PPLA2","country_code":"AR","cc2":"","admin1_code":"01","admin2_code":"06042","admin3_code":"","admin4_code":"","population":"0","elevation":"","dem":"81","timezone":"America/Argentina/Buenos_Aires","modification_date":"2015-04-22"},{"geonameid":"3480740","name":"Guernica","asciiname":"Guernica","alternatenames":["Guernica"],"latitude":"-34.91722","longitude":"-58.38694","feature_class":"P","feature_code":"PPLA2","country_code":"AR","cc2":"","admin1_code":"01","admin2_code":"","admin3_code":"","admin4_code":"","population":"0","elevation":"","dem":"29","timezone":"America/Argentina/Buenos_Aires","modification_date":"2014-03-09"},{"geonameid":"3833112","name":"Veinticinco de Mayo","asciiname":"Veinticinco de Mayo","alternatenames":["25 de Mayo","Veinticinco de Mayo"],"latitude":"-35.4323","longitude":"-60.17271","feature_class":"P","feature_code":"PPLA2","country_code":"AR","cc2":"","admin1_code":"01","admin2_code":"06854","admin3_code":"","admin4_code":"","population":"24668","elevation":"","dem":"57","timezone":"America/Argentina/Buenos_Aires","modification_date":"2015-04-22"},{"geonameid":"3833140","name":"Vedia","asciiname":"Vedia","alternatenames":["Vedia"],"latitude":"-34.49558","longitude":"-61.54138","feature_class":"P","feature_code":"PPLA2","country_code":"AR","cc2":"","admin1_code":"01","admin2_code":"","admin3_code":"","admin4_code":"","population":"0","elevation":"","dem":"94","timezone":"America/Argentina/Buenos_Aires","modification_date":"2014-03-07"},{"geonameid":"3833773","name":"Tres Lomas","asciiname":"Tres Lomas","alternatenames":["Jose M. Blanco","Jose Maria Blanco","José M. Blanco","José María Blanco","Tres Lomas"],"latitude":"-36.45722","longitude":"-62.86047","feature_class":"P","feature_code":"PPLA2","country_code":"AR","cc2":"","admin1_code":"01","admin2_code":"","admin3_code":"","admin4_code":"","population":"0","elevation":"","dem":"116","timezone":"America/Argentina/Buenos_Aires","modification_date":"2011-11-19"},{"geonameid":"3833859","name":"Tres Arroyos","asciiname":"Tres Arroyos","alternatenames":["OYO","Tres Arojosas","Tres Arroyos","te lei si a luo yue si","trs arwyws","ترس آرویوس","特雷斯阿羅約斯"],"latitude":"-38.37394","longitude":"-60.27978","feature_class":"P","feature_code":"PPLA2","country_code":"AR","cc2":"","admin1_code":"01","admin2_code":"06833","admin3_code":"","admin4_code":"","population":"47136","elevation":"","dem":"113","timezone":"America/Argentina/Buenos_Aires","modification_date":"2015-04-22"},{"geonameid":"3833875","name":"Trenque Lauquen","asciiname":"Trenque Lauquen","alternatenames":["T. Lauquen","Trenque Lauquen"],"latitude":"-35.97035","longitude":"-62.73432","feature_class":"P","feature_code":"PPLA2","country_code":"AR","cc2":"","admin1_code":"01","admin2_code":"06826","admin3_code":"","admin4_code":"","population":"0","elevation":"","dem":"95","timezone":"America/Argentina/Buenos_Aires","modification_date":"2015-04-22"},{"geonameid":"3834184","name":"Tornquist","asciiname":"Tornquist","alternatenames":["Tornquist"],"latitude":"-38.10122","longitude":"-62.22267","feature_class":"P","feature_code":"PPLA2","country_code":"AR","cc2":"","admin1_code":"01","admin2_code":"06819","admin3_code":"","admin4_code":"","population":"0","elevation":"","dem":"294","timezone":"America/Argentina/Buenos_Aires","modification_date":"2015-04-22"},{"geonameid":"3834647","name":"Tapalqué","asciiname":"Tapalque","alternatenames":["Tapalque","Tapalquen","Tapalqué","Tapalquén"],"latitude":"-36.35493","longitude":"-60.0264","feature_class":"P","feature_code":"PPLA2","country_code":"AR","cc2":"","admin1_code":"01","admin2_code":"","admin3_code":"","admin4_code":"","population":"0","elevation":"","dem":"90","timezone":"America/Argentina/Buenos_Aires","modification_date":"2014-03-07"},{"geonameid":"3836846","name":"San Nicolás de los Arroyos","asciiname":"San Nicolas de los Arroyos","alternatenames":["San Nicolas","San Nicolas de los Arroyos","San Nicolás","San Nicolás de los Arroyos","San Nikolas de los Arojos","San Nikolas de los Arojosas","san ni ko lasdelo sxar ro yos","san nykwlas dh lws arwys","sheng ni gu la si","Сан Николас де лос Аройос","سان نیکولاس ده لوس آرویس","ซานนีโกลาสเดโลสอาร์โรโยส","圣尼古拉斯"],"latitude":"-33.33578","longitude":"-60.22523","feature_class":"P","feature_code":"PPLA2","country_code":"AR","cc2":"","admin1_code":"01","admin2_code":"","admin3_code":"","admin4_code":"","population":"127742","elevation":"","dem":"25","timezone":"America/Argentina/Buenos_Aires","modification_date":"2014-03-07"},{"geonameid":"3837855","name":"San Carlos de Bolívar","asciiname":"San Carlos de Bolivar","alternatenames":["Bolivar","Bolívar","San Carlos de Bolivar","San Carlos de Bolívar"],"latitude":"-36.25","longitude":"-61.1","feature_class":"P","feature_code":"PPLA2","country_code":"AR","cc2":"","admin1_code":"01","admin2_code":"","admin3_code":"","admin4_code":"","population":"0","elevation":"","dem":"96","timezone":"America/Argentina/Buenos_Aires","modification_date":"2014-03-07"},{"geonameid":"3838227","name":"Salto","asciiname":"Salto","alternatenames":["M. Ugarte","Marcelino Ugarte","Salto"],"latitude":"-34.29292","longitude":"-60.25455","feature_class":"P","feature_code":"PPLA2","country_code":"AR","cc2":"","admin1_code":"01","admin2_code":"06714","admin3_code":"","admin4_code":"","population":"0","elevation":"","dem":"55","timezone":"America/Argentina/Buenos_Aires","modification_date":"2015-04-22"},{"geonameid":"3838241","name":"Salliqueló","asciiname":"Salliquelo","alternatenames":["Salliquelo","Salliqueló"],"latitude":"-36.75216","longitude":"-62.96053","feature_class":"P","feature_code":"PPLA2","country_code":"AR","cc2":"","admin1_code":"01","admin2_code":"06721","admin3_code":"","admin4_code":"","population":"0","elevation":"","dem":"129","timezone":"America/Argentina/Buenos_Aires","modification_date":"2015-04-22"},{"geonameid":"3838650","name":"Rojas","asciiname":"Rojas","alternatenames":["Rojas"],"latitude":"-34.19528","longitude":"-60.735","feature_class":"P","feature_code":"PPLA2","country_code":"AR","cc2":"","admin1_code":"01","admin2_code":"06686","admin3_code":"","admin4_code":"","population":"0","elevation":"","dem":"73","timezone":"America/Argentina/Buenos_Aires","modification_date":"2015-04-22"},{"geonameid":"3839444","name":"Ramallo","asciiname":"Ramallo","alternatenames":["Ramallo"],"latitude":"-33.48482","longitude":"-60.00707","feature_class":"P","feature_code":"PPLA2","country_code":"AR","cc2":"","admin1_code":"01","admin2_code":"06665","admin3_code":"","admin4_code":"","population":"0","elevation":"","dem":"23","timezone":"America/Argentina/Buenos_Aires","modification_date":"2015-04-22"},{"geonameid":"3839982","name":"Punta Alta","asciiname":"Punta Alta","alternatenames":["Punta Alta","Punta-Al'ta","peng ta a er ta","punta alta","Пунта-Альта","蓬塔阿尔塔","푼타 알타"],"latitude":"-38.87588","longitude":"-62.07359","feature_class":"P","feature_code":"PPLA2","country_code":"AR","cc2":"","admin1_code":"01","admin2_code":"","admin3_code":"","admin4_code":"","population":"57209","elevation":"","dem":"8","timezone":"America/Argentina/Buenos_Aires","modification_date":"2014-03-07"},{"geonameid":"3840253","name":"Puan","asciiname":"Puan","alternatenames":["Puan"],"latitude":"-37.54576","longitude":"-62.76723","feature_class":"P","feature_code":"PPLA2","country_code":"AR","cc2":"","admin1_code":"01","admin2_code":"","admin3_code":"","admin4_code":"","population":"0","elevation":"","dem":"231","timezone":"America/Argentina/Buenos_Aires","modification_date":"2014-03-07"},{"geonameid":"3841159","name":"Pigüé","asciiname":"Pigue","alternatenames":["Pigue","Pigüé"],"latitude":"-37.60509","longitude":"-62.40333","feature_class":"P","feature_code":"PPLA2","country_code":"AR","cc2":"","admin1_code":"01","admin2_code":"","admin3_code":"","admin4_code":"","population":"0","elevation":"","dem":"294","timezone":"America/Argentina/Buenos_Aires","modification_date":"2014-03-07"},{"geonameid":"3841490","name":"Pergamino","asciiname":"Pergamino","alternatenames":["Pergamino","Пергамино"],"latitude":"-33.88995","longitude":"-60.57357","feature_class":"P","feature_code":"PPLA2","country_code":"AR","cc2":"","admin1_code":"01","admin2_code":"06623","admin3_code":"","admin4_code":"","population":"87652","elevation":"","dem":"69","timezone":"America/Argentina/Buenos_Aires","modification_date":"2015-04-22"},{"geonameid":"3841614","name":"Pellegrini","asciiname":"Pellegrini","alternatenames":["Carlos Pellegrini","Pellegrini"],"latitude":"-36.26584","longitude":"-63.1655","feature_class":"P","feature_code":"PPLA2","country_code":"AR","cc2":"","admin1_code":"01","admin2_code":"06616","admin3_code":"","admin4_code":"","population":"0","elevation":"","dem":"115","timezone":"America/Argentina/Buenos_Aires","modification_date":"2015-04-22"},{"geonameid":"3841679","name":"Pehuajó","asciiname":"Pehuajo","alternatenames":["PEH","Pehuajo","Pehuajó","pei wa huo","phwakhw","پهواخو","佩瓦霍"],"latitude":"-35.81077","longitude":"-61.8968","feature_class":"P","feature_code":"PPLA2","country_code":"AR","cc2":"","admin1_code":"01","admin2_code":"06609","admin3_code":"","admin4_code":"","population":"0","elevation":"","dem":"89","timezone":"America/Argentina/Buenos_Aires","modification_date":"2015-04-22"},{"geonameid":"3842670","name":"Olavarría","asciiname":"Olavarria","alternatenames":["Olavarija","Olavarria","Olavarrija","Olavarría","ao la wa li ya","awlawarya","xo la bar ri xa","Олаварија","Олаваррия","اولاواریا","โอลาบาร์รีอา","奧拉瓦里亞"],"latitude":"-36.89272","longitude":"-60.32254","feature_class":"P","feature_code":"PPLA2","country_code":"AR","cc2":"","admin1_code":"01","admin2_code":"","admin3_code":"","admin4_code":"","population":"86320","elevation":"","dem":"170","timezone":"America/Argentina/Buenos_Aires","modification_date":"2014-03-07"},{"geonameid":"3842881","name":"Nueve de Julio","asciiname":"Nueve de Julio","alternatenames":["9 de Julio","Nev-de-Khulio","Nueve de Julio","Нев-де-Хулио"],"latitude":"-35.44437","longitude":"-60.88313","feature_class":"P","feature_code":"PPLA2","country_code":"AR","cc2":"","admin1_code":"01","admin2_code":"06588","admin3_code":"","admin4_code":"","population":"34718","elevation":"","dem":"80","timezone":"America/Argentina/Buenos_Aires","modification_date":"2015-04-22"},{"geonameid":"3843843","name":"Monte Hermoso","asciiname":"Monte Hermoso","alternatenames":["Balneario Monte Hermoso"],"latitude":"-38.9825","longitude":"-61.29472","feature_class":"P","feature_code":"PPLA2","country_code":"AR","cc2":"","admin1_code":"01","admin2_code":"06182","admin3_code":"","admin4_code":"","population":"0","elevation":"","dem":"13","timezone":"America/Argentina/Buenos_Aires","modification_date":"2015-04-22"},{"geonameid":"3844581","name":"Médanos","asciiname":"Medanos","alternatenames":[""],"latitude":"-38.82803","longitude":"-62.69355","feature_class":"P","feature_code":"PPLA2","country_code":"AR","cc2":"","admin1_code":"01","admin2_code":"06875","admin3_code":"","admin4_code":"","population":"0","elevation":"","dem":"34","timezone":"America/Argentina/Buenos_Aires","modification_date":"2015-04-22"},{"geonameid":"3846864","name":"Lincoln","asciiname":"Lincoln","alternatenames":["Lincoln"],"latitude":"-34.86649","longitude":"-61.5302","feature_class":"P","feature_code":"PPLA2","country_code":"AR","cc2":"","admin1_code":"01","admin2_code":"06469","admin3_code":"","admin4_code":"","population":"41808","elevation":"76","dem":"92","timezone":"America/Argentina/Buenos_Aires","modification_date":"2015-04-22"},{"geonameid":"3849300","name":"Laprida","asciiname":"Laprida","alternatenames":["Laprida"],"latitude":"-37.54415","longitude":"-60.79969","feature_class":"P","feature_code":"PPLA2","country_code":"AR","cc2":"","admin1_code":"01","admin2_code":"06448","admin3_code":"","admin4_code":"","population":"0","elevation":"","dem":"213","timezone":"America/Argentina/Buenos_Aires","modification_date":"2015-04-22"},{"geonameid":"3853354","name":"Junín","asciiname":"Junin","alternatenames":["Chuninas","JNI","Junin","Junín","hu ning","khwnyn","خونین","胡寧"],"latitude":"-34.58382","longitude":"-60.94332","feature_class":"P","feature_code":"PPLA2","country_code":"AR","cc2":"","admin1_code":"01","admin2_code":"06413","admin3_code":"","admin4_code":"","population":"85007","elevation":"","dem":"83","timezone":"America/Argentina/Buenos_Aires","modification_date":"2015-04-22"},{"geonameid":"3854359","name":"Henderson","asciiname":"Henderson","alternatenames":["Henderson"],"latitude":"-36.3","longitude":"-61.71667","feature_class":"P","feature_code":"PPLA2","country_code":"AR","cc2":"","admin1_code":"01","admin2_code":"","admin3_code":"","admin4_code":"","population":"0","elevation":"","dem":"110","timezone":"America/Argentina/Buenos_Aires","modification_date":"2014-03-07"},{"geonameid":"3854604","name":"Guaminí","asciiname":"Guamini","alternatenames":["Guamini","Guaminí"],"latitude":"-37.03333","longitude":"-62.41667","feature_class":"P","feature_code":"PPLA2","country_code":"AR","cc2":"","admin1_code":"01","admin2_code":"","admin3_code":"","admin4_code":"","population":"0","elevation":"","dem":"110","timezone":"America/Argentina/Buenos_Aires","modification_date":"2014-03-07"},{"geonameid":"3855041","name":"General Villegas","asciiname":"General Villegas","alternatenames":["General Villegas","VGS"],"latitude":"-35.03285","longitude":"-63.01252","feature_class":"P","feature_code":"PPLA2","country_code":"AR","cc2":"","admin1_code":"01","admin2_code":"","admin3_code":"","admin4_code":"","population":"0","elevation":"","dem":"112","timezone":"America/Argentina/Buenos_Aires","modification_date":"2014-03-07"},{"geonameid":"3855043","name":"General Viamonte","asciiname":"General Viamonte","alternatenames":["General Viamonte","Los Toldos"],"latitude":"-35.00014","longitude":"-61.03508","feature_class":"P","feature_code":"PPLA2","country_code":"AR","cc2":"","admin1_code":"01","admin2_code":"06385","admin3_code":"","admin4_code":"","population":"0","elevation":"","dem":"73","timezone":"America/Argentina/Buenos_Aires","modification_date":"2015-04-22"},{"geonameid":"3855072","name":"General Pinto","asciiname":"General Pinto","alternatenames":["General Pinto","General Pintos"],"latitude":"-34.76459","longitude":"-61.89093","feature_class":"P","feature_code":"PPLA2","country_code":"AR","cc2":"","admin1_code":"01","admin2_code":"","admin3_code":"","admin4_code":"","population":"0","elevation":"","dem":"101","timezone":"America/Argentina/Buenos_Aires","modification_date":"2014-03-07"},{"geonameid":"3855104","name":"General La Madrid","asciiname":"General La Madrid","alternatenames":[""],"latitude":"-37.24755","longitude":"-61.26273","feature_class":"P","feature_code":"PPLA2","country_code":"AR","cc2":"","admin1_code":"01","admin2_code":"06322","admin3_code":"","admin4_code":"","population":"0","elevation":"","dem":"172","timezone":"America/Argentina/Buenos_Aires","modification_date":"2015-04-22"},{"geonameid":"3855133","name":"General Arenales","asciiname":"General Arenales","alternatenames":["Arenales","General Arenales"],"latitude":"-34.30264","longitude":"-61.30522","feature_class":"P","feature_code":"PPLA2","country_code":"AR","cc2":"","admin1_code":"01","admin2_code":"06294","admin3_code":"","admin4_code":"","population":"0","elevation":"","dem":"90","timezone":"America/Argentina/Buenos_Aires","modification_date":"2015-04-22"},{"geonameid":"3855138","name":"General Alvear","asciiname":"General Alvear","alternatenames":[""],"latitude":"-36.02078","longitude":"-60.0145","feature_class":"P","feature_code":"PPLA2","country_code":"AR","cc2":"","admin1_code":"01","admin2_code":"06287","admin3_code":"","admin4_code":"","population":"0","elevation":"","dem":"57","timezone":"America/Argentina/Buenos_Aires","modification_date":"2015-04-22"},{"geonameid":"3859538","name":"Daireaux","asciiname":"Daireaux","alternatenames":["Caseros","Daireaux"],"latitude":"-36.6","longitude":"-61.75","feature_class":"P","feature_code":"PPLA2","country_code":"AR","cc2":"","admin1_code":"01","admin2_code":"","admin3_code":"","admin4_code":"","population":"0","elevation":"","dem":"118","timezone":"America/Argentina/Buenos_Aires","modification_date":"2014-03-07"},{"geonameid":"3860164","name":"Coronel Suárez","asciiname":"Coronel Suarez","alternatenames":["Coronel Suarez","Coronel Suárez","Koronel'-Suarez","Коронель-Суарез"],"latitude":"-37.45467","longitude":"-61.93343","feature_class":"P","feature_code":"PPLA2","country_code":"AR","cc2":"","admin1_code":"01","admin2_code":"06203","admin3_code":"","admin4_code":"","population":"27000","elevation":"","dem":"239","timezone":"America/Argentina/Buenos_Aires","modification_date":"2015-04-22"},{"geonameid":"3860174","name":"Coronel Pringles","asciiname":"Coronel Pringles","alternatenames":["Coronel Pringles","Pringles"],"latitude":"-37.98295","longitude":"-61.35615","feature_class":"P","feature_code":"PPLA2","country_code":"AR","cc2":"","admin1_code":"01","admin2_code":"","admin3_code":"","admin4_code":"","population":"0","elevation":"","dem":"254","timezone":"America/Argentina/Buenos_Aires","modification_date":"2014-03-07"},{"geonameid":"3860199","name":"Coronel Dorrego","asciiname":"Coronel Dorrego","alternatenames":["Coronel Dorrego","Dorrego"],"latitude":"-38.71867","longitude":"-61.28733","feature_class":"P","feature_code":"PPLA2","country_code":"AR","cc2":"","admin1_code":"01","admin2_code":"06189","admin3_code":"","admin4_code":"","population":"11644","elevation":"","dem":"112","timezone":"America/Argentina/Buenos_Aires","modification_date":"2015-04-22"},{"geonameid":"3860828","name":"Colón","asciiname":"Colon","alternatenames":["Colon","Colón"],"latitude":"-33.89512","longitude":"-61.1011","feature_class":"P","feature_code":"PPLA2","country_code":"AR","cc2":"","admin1_code":"01","admin2_code":"06175","admin3_code":"","admin4_code":"","population":"0","elevation":"","dem":"91","timezone":"America/Argentina/Buenos_Aires","modification_date":"2015-04-22"},{"geonameid":"3861344","name":"Chivilcoy","asciiname":"Chivilcoy","alternatenames":["Chivilcoy","chywylkwy","qi wei er ke yi","چیویلکوی","奇維爾科伊"],"latitude":"-34.89566","longitude":"-60.01667","feature_class":"P","feature_code":"PPLA2","country_code":"AR","cc2":"","admin1_code":"01","admin2_code":"06224","admin3_code":"","admin4_code":"","population":"54514","elevation":"","dem":"60","timezone":"America/Argentina/Buenos_Aires","modification_date":"2015-04-22"},{"geonameid":"3861953","name":"Chacabuco","asciiname":"Chacabuco","alternatenames":["Chacabuco","Chakabuko","Чакабуко"],"latitude":"-34.64167","longitude":"-60.47389","feature_class":"P","feature_code":"PPLA2","country_code":"AR","cc2":"","admin1_code":"01","admin2_code":"06210","admin3_code":"","admin4_code":"","population":"34587","elevation":"","dem":"73","timezone":"America/Argentina/Buenos_Aires","modification_date":"2015-04-22"},{"geonameid":"3862583","name":"Carmen de Patagones","asciiname":"Carmen de Patagones","alternatenames":["CPG","Carmen de Patagones","Karmen de Patagones","Karmen-de-Patagones","Patagones","qrmn dh ptgwns","Кармен де Патагонес","Кармен-де-Патагонес","קרמן דה פטגונס"],"latitude":"-40.79828","longitude":"-62.98097","feature_class":"P","feature_code":"PPLA2","country_code":"AR","cc2":"","admin1_code":"01","admin2_code":"","admin3_code":"","admin4_code":"","population":"0","elevation":"","dem":"31","timezone":"America/Argentina/Buenos_Aires","modification_date":"2014-04-20"},{"geonameid":"3862600","name":"Carlos Tejedor","asciiname":"Carlos Tejedor","alternatenames":["C. Tejedor","Carlos Tejedor","Tejedor"],"latitude":"-35.39265","longitude":"-62.42146","feature_class":"P","feature_code":"PPLA2","country_code":"AR","cc2":"","admin1_code":"01","admin2_code":"06154","admin3_code":"","admin4_code":"","population":"0","elevation":"","dem":"96","timezone":"America/Argentina/Buenos_Aires","modification_date":"2015-04-22"},{"geonameid":"3862607","name":"Carlos Casares","asciiname":"Carlos Casares","alternatenames":["Antonio Maya","C. Casares","Carlos Casares"],"latitude":"-35.62171","longitude":"-61.36169","feature_class":"P","feature_code":"PPLA2","country_code":"AR","cc2":"","admin1_code":"01","admin2_code":"06147","admin3_code":"","admin4_code":"","population":"0","elevation":"","dem":"81","timezone":"America/Argentina/Buenos_Aires","modification_date":"2015-04-22"},{"geonameid":"3862634","name":"Carhué","asciiname":"Carhue","alternatenames":["Adolfo Alsina","Carhue","Carhué"],"latitude":"-37.17668","longitude":"-62.75792","feature_class":"P","feature_code":"PPLA2","country_code":"AR","cc2":"","admin1_code":"01","admin2_code":"06007","admin3_code":"","admin4_code":"","population":"0","elevation":"","dem":"110","timezone":"America/Argentina/Buenos_Aires","modification_date":"2015-04-22"},{"geonameid":"3863882","name":"Bragado","asciiname":"Bragado","alternatenames":["Bragado","QRF"],"latitude":"-35.11912","longitude":"-60.48966","feature_class":"P","feature_code":"PPLA2","country_code":"AR","cc2":"","admin1_code":"01","admin2_code":"06112","admin3_code":"","admin4_code":"","population":"0","elevation":"","dem":"62","timezone":"America/Argentina/Buenos_Aires","modification_date":"2015-04-22"},{"geonameid":"3865086","name":"Bahía Blanca","asciiname":"Bahia Blanca","alternatenames":["BHI","Bahia Blanca","Bahija Blanka","Bahía Blanca","Baija Blanka","Baija-Blanka","Baija-Blankae","Bajja-Blanka","bahya blanka","baiabeullangka","baiaburanka","bayya blanka","bu lan ka gang","Баия-Бланкæ","Баия-Бланка","Баија Бланка","Байя-Бланка","Баїя-Бланка","באיה בלנקה","باهيا بلانكا","باییا بلانکا","ბაია-ბლანკა","バイアブランカ","布兰卡港","바이아블랑카"],"latitude":"-38.71959","longitude":"-62.27243","feature_class":"P","feature_code":"PPLA2","country_code":"AR","cc2":"","admin1_code":"01","admin2_code":"06056","admin3_code":"","admin4_code":"","population":"276546","elevation":"","dem":"24","timezone":"America/Argentina/Buenos_Aires","modification_date":"2015-04-22"},{"geonameid":"3865436","name":"Arrecifes","asciiname":"Arrecifes","alternatenames":["Arrecifes","Bartolome Mitre","Bartolomé Mitre"],"latitude":"-34.0639","longitude":"-60.10357","feature_class":"P","feature_code":"PPLA2","country_code":"AR","cc2":"","admin1_code":"01","admin2_code":"06077","admin3_code":"","admin4_code":"","population":"0","elevation":"","dem":"46","timezone":"America/Argentina/Buenos_Aires","modification_date":"2015-04-22"},{"geonameid":"3865888","name":"Florentino Ameghino","asciiname":"Florentino Ameghino","alternatenames":[""],"latitude":"-34.84405","longitude":"-62.46701","feature_class":"P","feature_code":"PPLA2","country_code":"AR","cc2":"","admin1_code":"01","admin2_code":"","admin3_code":"","admin4_code":"","population":"0","elevation":"","dem":"116","timezone":"America/Argentina/Buenos_Aires","modification_date":"2011-11-18"},{"geonameid":"3866415","name":"Alberti","asciiname":"Alberti","alternatenames":[""],"latitude":"-35.02692","longitude":"-60.27587","feature_class":"P","feature_code":"PPLA2","country_code":"AR","cc2":"","admin1_code":"01","admin2_code":"06021","admin3_code":"","admin4_code":"","population":"0","elevation":"","dem":"54","timezone":"America/Argentina/Buenos_Aires","modification_date":"2015-04-22"},{"geonameid":"7116865","name":"Cariló","asciiname":"Carilo","alternatenames":["Karilo","Карило"],"latitude":"-37.16524","longitude":"-56.89133","feature_class":"P","feature_code":"PPL","country_code":"AR","cc2":"","admin1_code":"01","admin2_code":"","admin3_code":"","admin4_code":"","population":"1553","elevation":"","dem":"6","timezone":"America/Argentina/Buenos_Aires","modification_date":"2012-03-25"},{"geonameid":"7535637","name":"Avellaneda","asciiname":"Avellaneda","alternatenames":["Avel'janeda","Avelaneda","Aveljaneda","a wei ya nei da","abejaneda","abeyaneda","avelianeda","awyanda","Авельянеда","Авелянеда","Авељанеда","אבזאנדה","آویاندا","აველიანედა","アベジャネーダ","阿韦亚内达","아베야네다"],"latitude":"-34.66018","longitude":"-58.36744","feature_class":"P","feature_code":"PPLA2","country_code":"AR","cc2":"","admin1_code":"01","admin2_code":"06035","admin3_code":"","admin4_code":"","population":"0","elevation":"","dem":"13","timezone":"America/Argentina/Buenos_Aires","modification_date":"2015-04-22"},{"geonameid":"8015350","name":"Santa Catalina - Dique Lujan","asciiname":"Santa Catalina - Dique Lujan","alternatenames":[""],"latitude":"-34.38375","longitude":"-58.70673","feature_class":"P","feature_code":"PPLS","country_code":"AR","cc2":"","admin1_code":"01","admin2_code":"","admin3_code":"","admin4_code":"","population":"1600","elevation":"10","dem":"-2","timezone":"America/Argentina/Buenos_Aires","modification_date":"2011-09-07"},{"geonameid":"10172104","name":"Adrogué","asciiname":"Adrogue","alternatenames":[""],"latitude":"-34.80041","longitude":"-58.38384","feature_class":"P","feature_code":"PPL","country_code":"AR","cc2":"","admin1_code":"01","admin2_code":"06028","admin3_code":"","admin4_code":"","population":"28265","elevation":"24","dem":"28","timezone":"America/Argentina/Buenos_Aires","modification_date":"2015-04-22"}]}