{"region_data":{"countryId":"3865483","adminCode1":"14","countryName":"Argentina","fclName":"country, state, region,...","countryCode":"AR","lng":"-54.34387","fcodeName":"first-order administrative division","toponymName":"Provincia de Misiones","fcl":"A","numberOfChildren":17,"name":"Provincia de Misiones","fcode":"ADM1","geonameId":3430657,"lat":"-26.81427","adminName1":"Misiones","population":965522},"country_data":{"ISO":"AR","ISO3":"ARG","ISO_Numeric":"032","fips":"AR","country":"Argentina","capital":"Buenos Aires","area":"2766890","Population":"41343201","Continent":"SA","tld":".ar","CurrencyCode":"ARS","CurrencyName":"Peso","Phone":"54","Postal_Code_Format":"@####@@@","Postal_Code_Regex":"^([A-Z]\\d{4}[A-Z]{3})$","Languages":"es-AR,en,it,de,fr,gn","geonameid":"3865483","neighbours":"CL,BO,UY,PY,BR","EquivalentFipsCode":""},"cities":[{"geonameid":"3427537","name":"Veinticinco de Mayo","asciiname":"Veinticinco de Mayo","alternatenames":["25 de Mayo","Veinticinco de Mayo"],"latitude":"-27.37679","longitude":"-54.74312","feature_class":"P","feature_code":"PPL","country_code":"AR","cc2":"","admin1_code":"14","admin2_code":"54119","admin3_code":"","admin4_code":"","population":"11928","elevation":"","dem":"396","timezone":"America/Argentina/Cordoba","modification_date":"2015-04-22"},{"geonameid":"3427659","name":"Tres Capones","asciiname":"Tres Capones","alternatenames":["Tres Capones"],"latitude":"-28.00641","longitude":"-55.60471","feature_class":"P","feature_code":"PPL","country_code":"AR","cc2":"","admin1_code":"14","admin2_code":"","admin3_code":"","admin4_code":"","population":"1234","elevation":"","dem":"157","timezone":"America/Argentina/Cordoba","modification_date":"2012-02-02"},{"geonameid":"3428068","name":"San Vicente","asciiname":"San Vicente","alternatenames":[""],"latitude":"-26.61667","longitude":"-54.13333","feature_class":"P","feature_code":"PPL","country_code":"AR","cc2":"","admin1_code":"14","admin2_code":"","admin3_code":"","admin4_code":"","population":"38247","elevation":"","dem":"603","timezone":"America/Argentina/Cordoba","modification_date":"2010-05-31"},{"geonameid":"3428079","name":"Santo Pipó","asciiname":"Santo Pipo","alternatenames":["Colonia Santo Pipo","Colonia Santo Pipó","San Pipo","Santo Pipo","Santo Pipó"],"latitude":"-27.14132","longitude":"-55.40867","feature_class":"P","feature_code":"PPL","country_code":"AR","cc2":"","admin1_code":"14","admin2_code":"","admin3_code":"","admin4_code":"","population":"5447","elevation":"","dem":"174","timezone":"America/Argentina/Cordoba","modification_date":"2012-01-18"},{"geonameid":"3428264","name":"Santa María","asciiname":"Santa Maria","alternatenames":["Colonia Santa Maria","Colonia Santa María","Hubbart","Santa Maria","Santa María"],"latitude":"-27.90357","longitude":"-55.38541","feature_class":"P","feature_code":"PPL","country_code":"AR","cc2":"","admin1_code":"14","admin2_code":"","admin3_code":"","admin4_code":"","population":"1687","elevation":"","dem":"137","timezone":"America/Argentina/Cordoba","modification_date":"2012-01-18"},{"geonameid":"3428455","name":"Santa Ana","asciiname":"Santa Ana","alternatenames":["Sant' Ana","Santa Ana","Sant’ Ana"],"latitude":"-27.3674","longitude":"-55.58091","feature_class":"P","feature_code":"PPLA2","country_code":"AR","cc2":"","admin1_code":"14","admin2_code":"","admin3_code":"","admin4_code":"","population":"0","elevation":"","dem":"164","timezone":"America/Argentina/Cordoba","modification_date":"2014-03-07"},{"geonameid":"3428577","name":"San Pedro","asciiname":"San Pedro","alternatenames":["San Pedro"],"latitude":"-26.62207","longitude":"-54.10842","feature_class":"P","feature_code":"PPLA2","country_code":"AR","cc2":"","admin1_code":"14","admin2_code":"54112","admin3_code":"","admin4_code":"","population":"23736","elevation":"","dem":"554","timezone":"America/Argentina/Cordoba","modification_date":"2015-04-22"},{"geonameid":"3428928","name":"San José","asciiname":"San Jose","alternatenames":["San Jose","San José"],"latitude":"-27.76979","longitude":"-55.7826","feature_class":"P","feature_code":"PPL","country_code":"AR","cc2":"","admin1_code":"14","admin2_code":"54007","admin3_code":"","admin4_code":"","population":"6452","elevation":"","dem":"169","timezone":"America/Argentina/Cordoba","modification_date":"2015-04-22"},{"geonameid":"3428976","name":"San Javier","asciiname":"San Javier","alternatenames":["San Javier"],"latitude":"-27.87427","longitude":"-55.13509","feature_class":"P","feature_code":"PPLA2","country_code":"AR","cc2":"","admin1_code":"14","admin2_code":"54105","admin3_code":"","admin4_code":"","population":"0","elevation":"","dem":"112","timezone":"America/Argentina/Cordoba","modification_date":"2015-04-22"},{"geonameid":"3429016","name":"San Ignacio","asciiname":"San Ignacio","alternatenames":["San Ignacio"],"latitude":"-27.25586","longitude":"-55.5339","feature_class":"P","feature_code":"PPLA2","country_code":"AR","cc2":"","admin1_code":"14","admin2_code":"54098","admin3_code":"","admin4_code":"","population":"0","elevation":"","dem":"161","timezone":"America/Argentina/Cordoba","modification_date":"2015-04-22"},{"geonameid":"3429426","name":"Ruiz de Montoya","asciiname":"Ruiz de Montoya","alternatenames":["Ruiz de Montoya"],"latitude":"-26.98333","longitude":"-55.05","feature_class":"P","feature_code":"PPL","country_code":"AR","cc2":"","admin1_code":"14","admin2_code":"","admin3_code":"","admin4_code":"","population":"3374","elevation":"","dem":"178","timezone":"America/Argentina/Cordoba","modification_date":"2012-01-18"},{"geonameid":"3429732","name":"Puerto Rico","asciiname":"Puerto Rico","alternatenames":["Libertador General San Martin","Libertador General San Martín","Puerto Libertador General San Martin","Puerto Libertador General San Martín","Puerto Rico","Puerto San Alberto"],"latitude":"-26.79598","longitude":"-55.02402","feature_class":"P","feature_code":"PPLA2","country_code":"AR","cc2":"","admin1_code":"14","admin2_code":"","admin3_code":"","admin4_code":"","population":"17491","elevation":"","dem":"147","timezone":"America/Argentina/Cordoba","modification_date":"2014-03-07"},{"geonameid":"3429738","name":"Puerto Piray","asciiname":"Puerto Piray","alternatenames":["Puerto Piray"],"latitude":"-26.46779","longitude":"-54.71476","feature_class":"P","feature_code":"PPL","country_code":"AR","cc2":"","admin1_code":"14","admin2_code":"","admin3_code":"","admin4_code":"","population":"8557","elevation":"","dem":"137","timezone":"America/Argentina/Cordoba","modification_date":"2012-02-02"},{"geonameid":"3429764","name":"Puerto Libertad","asciiname":"Puerto Libertad","alternatenames":["Puerto Libertad"],"latitude":"-25.91641","longitude":"-54.62089","feature_class":"P","feature_code":"PPL","country_code":"AR","cc2":"","admin1_code":"14","admin2_code":"","admin3_code":"","admin4_code":"","population":"6143","elevation":"","dem":"101","timezone":"America/Argentina/Cordoba","modification_date":"2012-02-02"},{"geonameid":"3429765","name":"Puerto Leoni","asciiname":"Puerto Leoni","alternatenames":["Leoni","Puerto Leoni"],"latitude":"-26.96069","longitude":"-55.1657","feature_class":"P","feature_code":"PPL","country_code":"AR","cc2":"","admin1_code":"14","admin2_code":"","admin3_code":"","admin4_code":"","population":"2329","elevation":"","dem":"95","timezone":"America/Argentina/Cordoba","modification_date":"2012-01-18"},{"geonameid":"3429777","name":"Puerto Iguazú","asciiname":"Puerto Iguazu","alternatenames":["Eva Peron","Eva Perón","IGR","Iguassu","Iguazu","Iguazú","Puehrto-Iguasu","Puerto Aguirre","Puerto Iguasu","Puerto Iguazu","Puerto Iguazú","Puerto Igvasu","Puerto-Iguasu","bwyrtw jwasyw","pueleutoigwasu","pwrtw ywasw","yi gua su gang","Пуерто-Іґуасу","Пуэрто-Игуасу","פוארטו איגואסו","بويرتو جواسيو","پورتو یواسو","پوێرتۆ ئیگواسوو","プエルト・イグアス","伊瓜蘇港","푸에르토이과수"],"latitude":"-25.59912","longitude":"-54.57355","feature_class":"P","feature_code":"PPLA4","country_code":"AR","cc2":"AR","admin1_code":"14","admin2_code":"54063","admin3_code":"","admin4_code":"","population":"32038","elevation":"","dem":"177","timezone":"America/Argentina/Cordoba","modification_date":"2015-04-22"},{"geonameid":"3429786","name":"Puerto Esperanza","asciiname":"Puerto Esperanza","alternatenames":["Esperanza","Puerto Esperanza"],"latitude":"-26.01517","longitude":"-54.67306","feature_class":"P","feature_code":"PPLA2","country_code":"AR","cc2":"","admin1_code":"14","admin2_code":"","admin3_code":"","admin4_code":"","population":"15579","elevation":"","dem":"152","timezone":"America/Argentina/Cordoba","modification_date":"2014-03-07"},{"geonameid":"3429790","name":"Puerto Eldorado","asciiname":"Puerto Eldorado","alternatenames":["Eldorado","Puerto Eldorado"],"latitude":"-26.40843","longitude":"-54.69463","feature_class":"P","feature_code":"PPL","country_code":"AR","cc2":"","admin1_code":"14","admin2_code":"","admin3_code":"","admin4_code":"","population":"54189","elevation":"","dem":"102","timezone":"America/Argentina/Cordoba","modification_date":"2012-01-18"},{"geonameid":"3429886","name":"Posadas","asciiname":"Posadas","alternatenames":["PSS","Posadas","Posadasas","bo sa da si","posadaseu","posadasu","pwsadas","Посадас","פוסאדאס","پوساداس","პოსადასი","ポサーダス","波萨达斯","포사다스"],"latitude":"-27.36708","longitude":"-55.89608","feature_class":"P","feature_code":"PPLA","country_code":"AR","cc2":"","admin1_code":"14","admin2_code":"54028","admin3_code":"","admin4_code":"","population":"323739","elevation":"83","dem":"127","timezone":"America/Argentina/Cordoba","modification_date":"2015-04-22"},{"geonameid":"3430015","name":"Picada Gobernador López","asciiname":"Picada Gobernador Lopez","alternatenames":["Gobernador Lopez","Gobernador López","Picada Gobernador Lopez","Picada Gobernador López","Picada Lopez","Picada López"],"latitude":"-27.67069","longitude":"-55.24585","feature_class":"P","feature_code":"PPL","country_code":"AR","cc2":"","admin1_code":"14","admin2_code":"","admin3_code":"","admin4_code":"","population":"2256","elevation":"","dem":"299","timezone":"America/Argentina/Cordoba","modification_date":"2012-01-18"},{"geonameid":"3430178","name":"Panambí","asciiname":"Panambi","alternatenames":["Panambi","Panambí","Puerto Panambi"],"latitude":"-27.72369","longitude":"-54.91515","feature_class":"P","feature_code":"PPL","country_code":"AR","cc2":"","admin1_code":"14","admin2_code":"","admin3_code":"","admin4_code":"","population":"5970","elevation":"","dem":"121","timezone":"America/Argentina/Cordoba","modification_date":"2012-01-18"},{"geonameid":"3430340","name":"Oberá","asciiname":"Obera","alternatenames":["Obera","Oberá","Yerbal Viejo","ao wei la","awbra","Обера","اوبرا","奧韋拉"],"latitude":"-27.48706","longitude":"-55.11994","feature_class":"P","feature_code":"PPLA2","country_code":"AR","cc2":"","admin1_code":"14","admin2_code":"54091","admin3_code":"","admin4_code":"","population":"56528","elevation":"","dem":"345","timezone":"America/Argentina/Cordoba","modification_date":"2015-04-22"},{"geonameid":"3430601","name":"Montecarlo","asciiname":"Montecarlo","alternatenames":["Montecarlo","Puerto Montecarlo"],"latitude":"-26.5662","longitude":"-54.757","feature_class":"P","feature_code":"PPLA2","country_code":"AR","cc2":"","admin1_code":"14","admin2_code":"54084","admin3_code":"","admin4_code":"","population":"22229","elevation":"","dem":"205","timezone":"America/Argentina/Cordoba","modification_date":"2015-04-22"},{"geonameid":"3430631","name":"Mojón Grande","asciiname":"Mojon Grande","alternatenames":["Mojon Grande","Mojón Grande"],"latitude":"-27.71165","longitude":"-55.15631","feature_class":"P","feature_code":"PPL","country_code":"AR","cc2":"","admin1_code":"14","admin2_code":"","admin3_code":"","admin4_code":"","population":"2233","elevation":"","dem":"327","timezone":"America/Argentina/Cordoba","modification_date":"2012-05-06"},{"geonameid":"3430798","name":"Mártires","asciiname":"Martires","alternatenames":["Martires","Mártires"],"latitude":"-27.43333","longitude":"-55.38333","feature_class":"P","feature_code":"PPL","country_code":"AR","cc2":"","admin1_code":"14","admin2_code":"","admin3_code":"","admin4_code":"","population":"1135","elevation":"","dem":"171","timezone":"America/Argentina/Cordoba","modification_date":"2012-05-06"},{"geonameid":"3431161","name":"Los Helechos","asciiname":"Los Helechos","alternatenames":["Los Helechos"],"latitude":"-27.5576","longitude":"-55.07683","feature_class":"P","feature_code":"PPL","country_code":"AR","cc2":"","admin1_code":"14","admin2_code":"","admin3_code":"","admin4_code":"","population":"3616","elevation":"","dem":"369","timezone":"America/Argentina/Cordoba","modification_date":"2012-05-06"},{"geonameid":"3431245","name":"Loreto","asciiname":"Loreto","alternatenames":["Loreto"],"latitude":"-27.33635","longitude":"-55.52225","feature_class":"P","feature_code":"PPL","country_code":"AR","cc2":"","admin1_code":"14","admin2_code":"54021","admin3_code":"","admin4_code":"","population":"1201","elevation":"","dem":"173","timezone":"America/Argentina/Cordoba","modification_date":"2015-04-22"},{"geonameid":"3431391","name":"Leandro N. Alem","asciiname":"Leandro N. Alem","alternatenames":["L.H. Alem Leandro","Leandro N. Alem"],"latitude":"-27.60341","longitude":"-55.32491","feature_class":"P","feature_code":"PPLA2","country_code":"AR","cc2":"","admin1_code":"14","admin2_code":"54070","admin3_code":"","admin4_code":"","population":"0","elevation":"","dem":"296","timezone":"America/Argentina/Cordoba","modification_date":"2015-04-22"},{"geonameid":"3433349","name":"Jardín América","asciiname":"Jardin America","alternatenames":[""],"latitude":"-27.04346","longitude":"-55.22698","feature_class":"P","feature_code":"PPL","country_code":"AR","cc2":"","admin1_code":"14","admin2_code":"","admin3_code":"","admin4_code":"","population":"24905","elevation":"","dem":"227","timezone":"America/Argentina/Cordoba","modification_date":"2010-05-31"},{"geonameid":"3433648","name":"Guaraní","asciiname":"Guarani","alternatenames":["Guarani","Guaraní","Pueblo Guarani","Pueblo Guaraní"],"latitude":"-27.51667","longitude":"-55.16667","feature_class":"P","feature_code":"PPL","country_code":"AR","cc2":"AR","admin1_code":"14","admin2_code":"","admin3_code":"","admin4_code":"","population":"4530","elevation":"","dem":"359","timezone":"America/Argentina/Cordoba","modification_date":"2012-01-18"},{"geonameid":"3433743","name":"Gobernador Roca","asciiname":"Gobernador Roca","alternatenames":["Colonia Corpus","Gobernador Roca"],"latitude":"-27.18636","longitude":"-55.46433","feature_class":"P","feature_code":"PPL","country_code":"AR","cc2":"","admin1_code":"14","admin2_code":"","admin3_code":"","admin4_code":"","population":"6315","elevation":"","dem":"185","timezone":"America/Argentina/Cordoba","modification_date":"2012-01-18"},{"geonameid":"3433820","name":"General Alvear","asciiname":"General Alvear","alternatenames":["General Alvear"],"latitude":"-27.43333","longitude":"-55.16667","feature_class":"P","feature_code":"PPL","country_code":"AR","cc2":"","admin1_code":"14","admin2_code":"","admin3_code":"","admin4_code":"","population":"1431","elevation":"","dem":"290","timezone":"America/Argentina/Cordoba","modification_date":"2012-02-02"},{"geonameid":"3433836","name":"Garupá","asciiname":"Garupa","alternatenames":["Garupa","Garupá"],"latitude":"-27.48171","longitude":"-55.82921","feature_class":"P","feature_code":"PPL","country_code":"AR","cc2":"","admin1_code":"14","admin2_code":"","admin3_code":"","admin4_code":"","population":"28814","elevation":"","dem":"108","timezone":"America/Argentina/Cordoba","modification_date":"2012-02-02"},{"geonameid":"3433839","name":"Garuhapé","asciiname":"Garuhape","alternatenames":["Garuape","Garuapé","Garuhape","Garuhapé"],"latitude":"-26.81768","longitude":"-54.95665","feature_class":"P","feature_code":"PPL","country_code":"AR","cc2":"","admin1_code":"14","admin2_code":"","admin3_code":"","admin4_code":"","population":"8259","elevation":"","dem":"177","timezone":"America/Argentina/Cordoba","modification_date":"2012-01-18"},{"geonameid":"3433919","name":"Florentino Ameghino","asciiname":"Florentino Ameghino","alternatenames":["Florentino Ameghino"],"latitude":"-27.56667","longitude":"-55.13333","feature_class":"P","feature_code":"PPL","country_code":"AR","cc2":"","admin1_code":"14","admin2_code":"","admin3_code":"","admin4_code":"","population":"1979","elevation":"","dem":"252","timezone":"America/Argentina/Cordoba","modification_date":"2012-05-06"},{"geonameid":"3434291","name":"El Soberbio","asciiname":"El Soberbio","alternatenames":["El Soberbio"],"latitude":"-27.29847","longitude":"-54.19877","feature_class":"P","feature_code":"PPLA2","country_code":"AR","cc2":"","admin1_code":"14","admin2_code":"","admin3_code":"","admin4_code":"","population":"19571","elevation":"","dem":"156","timezone":"America/Argentina/Cordoba","modification_date":"2014-03-07"},{"geonameid":"3434674","name":"Eldorado","asciiname":"Eldorado","alternatenames":["ELO","Eldorado"],"latitude":"-26.40484","longitude":"-54.62478","feature_class":"P","feature_code":"PPLA2","country_code":"AR","cc2":"","admin1_code":"14","admin2_code":"54042","admin3_code":"","admin4_code":"","population":"0","elevation":"","dem":"233","timezone":"America/Argentina/Cordoba","modification_date":"2015-04-22"},{"geonameid":"3434932","name":"El Alcázar","asciiname":"El Alcazar","alternatenames":["El Alcazar","El Alcázar"],"latitude":"-26.71459","longitude":"-54.81523","feature_class":"P","feature_code":"PPL","country_code":"AR","cc2":"","admin1_code":"14","admin2_code":"","admin3_code":"","admin4_code":"","population":"5127","elevation":"","dem":"210","timezone":"America/Argentina/Cordoba","modification_date":"2012-05-06"},{"geonameid":"3434995","name":"Dos de Mayo","asciiname":"Dos de Mayo","alternatenames":["2 de Mayo","Dos de Mayo"],"latitude":"-27.02277","longitude":"-54.68669","feature_class":"P","feature_code":"PPL","country_code":"AR","cc2":"","admin1_code":"14","admin2_code":"","admin3_code":"","admin4_code":"","population":"14544","elevation":"","dem":"561","timezone":"America/Argentina/Cordoba","modification_date":"2012-01-18"},{"geonameid":"3434997","name":"Dos Arroyos","asciiname":"Dos Arroyos","alternatenames":["Dos Arroyos"],"latitude":"-27.70784","longitude":"-55.23364","feature_class":"P","feature_code":"PPL","country_code":"AR","cc2":"","admin1_code":"14","admin2_code":"","admin3_code":"","admin4_code":"","population":"3079","elevation":"","dem":"287","timezone":"America/Argentina/Cordoba","modification_date":"2012-05-06"},{"geonameid":"3435266","name":"Concepción de la Sierra","asciiname":"Concepcion de la Sierra","alternatenames":["Concepcion de la Sierra","Concepción de la Sierra"],"latitude":"-27.98311","longitude":"-55.52031","feature_class":"P","feature_code":"PPLA2","country_code":"AR","cc2":"","admin1_code":"14","admin2_code":"","admin3_code":"","admin4_code":"","population":"7398","elevation":"","dem":"167","timezone":"America/Argentina/Cordoba","modification_date":"2014-03-07"},{"geonameid":"3435290","name":"Colonia Wanda","asciiname":"Colonia Wanda","alternatenames":[""],"latitude":"-25.97408","longitude":"-54.42806","feature_class":"P","feature_code":"PPL","country_code":"AR","cc2":"","admin1_code":"14","admin2_code":"","admin3_code":"","admin4_code":"","population":"12779","elevation":"","dem":"225","timezone":"America/Argentina/Cordoba","modification_date":"2011-04-19"},{"geonameid":"3435344","name":"Colonia Aurora","asciiname":"Colonia Aurora","alternatenames":["Colonia Aurora"],"latitude":"-27.47428","longitude":"-54.52498","feature_class":"P","feature_code":"PPL","country_code":"AR","cc2":"","admin1_code":"14","admin2_code":"","admin3_code":"","admin4_code":"","population":"8407","elevation":"","dem":"178","timezone":"America/Argentina/Cordoba","modification_date":"2012-02-02"},{"geonameid":"3435525","name":"Cerro Corá","asciiname":"Cerro Cora","alternatenames":["Cerro Cora","Cerro Corá","Colonia Cerro Cora","Colonia Cerro Corá"],"latitude":"-27.5131","longitude":"-55.60896","feature_class":"P","feature_code":"PPL","country_code":"AR","cc2":"","admin1_code":"14","admin2_code":"","admin3_code":"","admin4_code":"","population":"1153","elevation":"","dem":"161","timezone":"America/Argentina/Cordoba","modification_date":"2012-01-18"},{"geonameid":"3435532","name":"Cerro Azul","asciiname":"Cerro Azul","alternatenames":["Cerro Azul"],"latitude":"-27.6331","longitude":"-55.4962","feature_class":"P","feature_code":"PPL","country_code":"AR","cc2":"","admin1_code":"14","admin2_code":"","admin3_code":"","admin4_code":"","population":"5323","elevation":"","dem":"263","timezone":"America/Argentina/Cordoba","modification_date":"2012-02-02"},{"geonameid":"3435679","name":"Caraguatay","asciiname":"Caraguatay","alternatenames":["Caraguatay","Puerto Caraguatay"],"latitude":"-26.60587","longitude":"-54.78093","feature_class":"P","feature_code":"PPL","country_code":"AR","cc2":"","admin1_code":"14","admin2_code":"","admin3_code":"","admin4_code":"","population":"3287","elevation":"","dem":"126","timezone":"America/Argentina/Cordoba","modification_date":"2012-01-18"},{"geonameid":"3435701","name":"Capioví","asciiname":"Capiovi","alternatenames":["Capiovi","Capioví"],"latitude":"-26.92998","longitude":"-55.06084","feature_class":"P","feature_code":"PPL","country_code":"AR","cc2":"","admin1_code":"14","admin2_code":"","admin3_code":"","admin4_code":"","population":"5860","elevation":"","dem":"184","timezone":"America/Argentina/Cordoba","modification_date":"2012-02-02"},{"geonameid":"3435734","name":"Candelaria","asciiname":"Candelaria","alternatenames":["Candelaria"],"latitude":"-27.4595","longitude":"-55.74536","feature_class":"P","feature_code":"PPL","country_code":"AR","cc2":"","admin1_code":"14","admin2_code":"54021","admin3_code":"","admin4_code":"","population":"11039","elevation":"","dem":"119","timezone":"America/Argentina/Cordoba","modification_date":"2015-04-22"},{"geonameid":"3435750","name":"Campo Viera","asciiname":"Campo Viera","alternatenames":["Campo Viera"],"latitude":"-27.38333","longitude":"-55.03333","feature_class":"P","feature_code":"PPL","country_code":"AR","cc2":"","admin1_code":"14","admin2_code":"","admin3_code":"","admin4_code":"","population":"9228","elevation":"","dem":"284","timezone":"America/Argentina/Cordoba","modification_date":"2012-02-02"},{"geonameid":"3435765","name":"Campo Ramón","asciiname":"Campo Ramon","alternatenames":["Campo Ramon","Campo Ramón"],"latitude":"-27.46108","longitude":"-55.01901","feature_class":"P","feature_code":"PPL","country_code":"AR","cc2":"","admin1_code":"14","admin2_code":"","admin3_code":"","admin4_code":"","population":"10088","elevation":"","dem":"364","timezone":"America/Argentina/Cordoba","modification_date":"2012-02-02"},{"geonameid":"3435789","name":"Campo Grande","asciiname":"Campo Grande","alternatenames":["Campo Grande"],"latitude":"-27.2077","longitude":"-54.97977","feature_class":"P","feature_code":"PPLA2","country_code":"AR","cc2":"","admin1_code":"14","admin2_code":"","admin3_code":"","admin4_code":"","population":"12040","elevation":"","dem":"454","timezone":"America/Argentina/Cordoba","modification_date":"2014-03-07"},{"geonameid":"3435989","name":"Bonpland","asciiname":"Bonpland","alternatenames":[""],"latitude":"-27.48218","longitude":"-55.47756","feature_class":"P","feature_code":"PPL","country_code":"AR","cc2":"","admin1_code":"14","admin2_code":"","admin3_code":"","admin4_code":"","population":"2173","elevation":"","dem":"187","timezone":"America/Argentina/Cordoba","modification_date":"2011-04-19"},{"geonameid":"3436030","name":"Bernardo de Irigoyen","asciiname":"Bernardo de Irigoyen","alternatenames":["Barracon","Bernardo de Irigoyen"],"latitude":"-26.2552","longitude":"-53.64581","feature_class":"P","feature_code":"PPLA2","country_code":"AR","cc2":"","admin1_code":"14","admin2_code":"","admin3_code":"","admin4_code":"","population":"10889","elevation":"","dem":"815","timezone":"America/Argentina/Cordoba","modification_date":"2014-03-07"},{"geonameid":"3436205","name":"Azara","asciiname":"Azara","alternatenames":["Azara"],"latitude":"-28.0616","longitude":"-55.67797","feature_class":"P","feature_code":"PPL","country_code":"AR","cc2":"","admin1_code":"14","admin2_code":"","admin3_code":"","admin4_code":"","population":"3484","elevation":"","dem":"127","timezone":"America/Argentina/Cordoba","modification_date":"2012-02-02"},{"geonameid":"3436267","name":"Arroyo del Medio","asciiname":"Arroyo del Medio","alternatenames":["Arroyo del Medio"],"latitude":"-27.7","longitude":"-55.41667","feature_class":"P","feature_code":"PPL","country_code":"AR","cc2":"","admin1_code":"14","admin2_code":"","admin3_code":"","admin4_code":"","population":"2142","elevation":"","dem":"287","timezone":"America/Argentina/Cordoba","modification_date":"2012-02-02"},{"geonameid":"3436287","name":"Aristóbulo del Valle","asciiname":"Aristobulo del Valle","alternatenames":["Aristobulo del Valle","Aristóbulo del Valle"],"latitude":"-27.09625","longitude":"-54.89626","feature_class":"P","feature_code":"PPL","country_code":"AR","cc2":"","admin1_code":"14","admin2_code":"","admin3_code":"","admin4_code":"","population":"20683","elevation":"","dem":"494","timezone":"America/Argentina/Cordoba","modification_date":"2012-02-02"},{"geonameid":"3436311","name":"Apóstoles","asciiname":"Apostoles","alternatenames":["Apostoles","Apóstoles"],"latitude":"-27.91421","longitude":"-55.75355","feature_class":"P","feature_code":"PPLA3","country_code":"AR","cc2":"","admin1_code":"14","admin2_code":"54007","admin3_code":"","admin4_code":"","population":"0","elevation":"","dem":"179","timezone":"America/Argentina/Cordoba","modification_date":"2015-04-22"},{"geonameid":"3436398","name":"Almafuerte","asciiname":"Almafuerte","alternatenames":["Almafuerte"],"latitude":"-27.50518","longitude":"-55.39497","feature_class":"P","feature_code":"PPL","country_code":"AR","cc2":"","admin1_code":"14","admin2_code":"","admin3_code":"","admin4_code":"","population":"1022","elevation":"","dem":"328","timezone":"America/Argentina/Cordoba","modification_date":"2012-05-06"},{"geonameid":"3436448","name":"Alba Posse","asciiname":"Alba Posse","alternatenames":["Alba Posse"],"latitude":"-27.56978","longitude":"-54.68262","feature_class":"P","feature_code":"PPLA2","country_code":"AR","cc2":"","admin1_code":"14","admin2_code":"","admin3_code":"","admin4_code":"","population":"6652","elevation":"","dem":"125","timezone":"America/Argentina/Cordoba","modification_date":"2014-03-07"}]}