{"region_data":{"countryId":"3865483","adminCode1":"11","countryName":"Argentina","fclName":"country, state, region,...","countryCode":"AR","lng":"-66","fcodeName":"first-order administrative division","toponymName":"Provincia de La Pampa","fcl":"A","numberOfChildren":22,"name":"La Pampa","fcode":"ADM1","geonameId":3849574,"lat":"-37","adminName1":"La Pampa","population":299294},"country_data":{"ISO":"AR","ISO3":"ARG","ISO_Numeric":"032","fips":"AR","country":"Argentina","capital":"Buenos Aires","area":"2766890","Population":"41343201","Continent":"SA","tld":".ar","CurrencyCode":"ARS","CurrencyName":"Peso","Phone":"54","Postal_Code_Format":"@####@@@","Postal_Code_Regex":"^([A-Z]\\d{4}[A-Z]{3})$","Languages":"es-AR,en,it,de,fr,gn","geonameid":"3865483","neighbours":"CL,BO,UY,PY,BR","EquivalentFipsCode":""},"cities":[{"geonameid":"3832388","name":"Winifreda","asciiname":"Winifreda","alternatenames":["Winifreda"],"latitude":"-36.22643","longitude":"-64.23388","feature_class":"P","feature_code":"PPLA2","country_code":"AR","cc2":"","admin1_code":"11","admin2_code":"","admin3_code":"","admin4_code":"","population":"2902","elevation":"","dem":"169","timezone":"America/Argentina/Salta","modification_date":"2014-03-07"},{"geonameid":"3832923","name":"Victorica","asciiname":"Victorica","alternatenames":["Victorica"],"latitude":"-36.21505","longitude":"-65.43586","feature_class":"P","feature_code":"PPLA2","country_code":"AR","cc2":"","admin1_code":"11","admin2_code":"","admin3_code":"","admin4_code":"","population":"6565","elevation":"","dem":"314","timezone":"America/Argentina/Salta","modification_date":"2014-03-07"},{"geonameid":"3833111","name":"Veinticinco de Mayo","asciiname":"Veinticinco de Mayo","alternatenames":["25 de Mayo","Colonia Los Viejos","Colonia Veinticinco de Mayo","Veinticinco de Mayo"],"latitude":"-37.7741","longitude":"-67.71638","feature_class":"P","feature_code":"PPLA2","country_code":"AR","cc2":"","admin1_code":"11","admin2_code":"","admin3_code":"","admin4_code":"","population":"6962","elevation":"","dem":"348","timezone":"America/Argentina/Salta","modification_date":"2014-03-07"},{"geonameid":"3833391","name":"Uriburu","asciiname":"Uriburu","alternatenames":["Uriburu"],"latitude":"-36.50682","longitude":"-63.86225","feature_class":"P","feature_code":"PPL","country_code":"AR","cc2":"","admin1_code":"11","admin2_code":"","admin3_code":"","admin4_code":"","population":"1200","elevation":"","dem":"144","timezone":"America/Argentina/Salta","modification_date":"2012-01-18"},{"geonameid":"3833880","name":"Trenel","asciiname":"Trenel","alternatenames":["Trenel"],"latitude":"-35.69837","longitude":"-64.13218","feature_class":"P","feature_code":"PPLA2","country_code":"AR","cc2":"","admin1_code":"11","admin2_code":"42147","admin3_code":"","admin4_code":"","population":"3426","elevation":"","dem":"179","timezone":"America/Argentina/Salta","modification_date":"2015-04-22"},{"geonameid":"3834310","name":"Toay","asciiname":"Toay","alternatenames":["Toay"],"latitude":"-36.67338","longitude":"-64.3786","feature_class":"P","feature_code":"PPLA2","country_code":"AR","cc2":"","admin1_code":"11","admin2_code":"42140","admin3_code":"","admin4_code":"","population":"0","elevation":"","dem":"190","timezone":"America/Argentina/Salta","modification_date":"2015-04-22"},{"geonameid":"3834542","name":"Telén","asciiname":"Telen","alternatenames":["Telen","Telén"],"latitude":"-36.26429","longitude":"-65.51018","feature_class":"P","feature_code":"PPL","country_code":"AR","cc2":"","admin1_code":"11","admin2_code":"","admin3_code":"","admin4_code":"","population":"1549","elevation":"","dem":"303","timezone":"America/Argentina/Salta","modification_date":"2012-02-02"},{"geonameid":"3835994","name":"Santa Rosa","asciiname":"Santa Rosa","alternatenames":["Ciudad de Santa Rosa","RSA","Sancta Rosa","Santa Rosa","Santa Rosa de Toaj","Santa Rosa de Toay","Santa-Rosa","santa rwsa","santa rwza","santalosa","santarosa","sheng luo sha","snth rwsh","Санта Роса","Санта Роса де Тоај","Санта-Роса","סנטה רוסה","سانتا روزا","سانتا روسا","სანტა-როსა","サンタローサ","聖羅莎","산타로사"],"latitude":"-36.61667","longitude":"-64.28333","feature_class":"P","feature_code":"PPLA","country_code":"AR","cc2":"","admin1_code":"11","admin2_code":"","admin3_code":"","admin4_code":"","population":"111424","elevation":"","dem":"179","timezone":"America/Argentina/Salta","modification_date":"2012-01-18"},{"geonameid":"3836238","name":"Santa Isabel","asciiname":"Santa Isabel","alternatenames":["Santa Isabel"],"latitude":"-36.22724","longitude":"-66.9424","feature_class":"P","feature_code":"PPLA2","country_code":"AR","cc2":"","admin1_code":"11","admin2_code":"","admin3_code":"","admin4_code":"","population":"2493","elevation":"","dem":"315","timezone":"America/Argentina/Salta","modification_date":"2014-03-07"},{"geonameid":"3839282","name":"Realicó","asciiname":"Realico","alternatenames":["Realico","Realicó"],"latitude":"-35.03658","longitude":"-64.2447","feature_class":"P","feature_code":"PPLA2","country_code":"AR","cc2":"","admin1_code":"11","admin2_code":"42133","admin3_code":"","admin4_code":"","population":"7151","elevation":"","dem":"167","timezone":"America/Argentina/Salta","modification_date":"2015-04-22"},{"geonameid":"3839381","name":"Rancul","asciiname":"Rancul","alternatenames":["Jardon","Jardón","Rancul"],"latitude":"-35.06862","longitude":"-64.68107","feature_class":"P","feature_code":"PPL","country_code":"AR","cc2":"","admin1_code":"11","admin2_code":"","admin3_code":"","admin4_code":"","population":"3699","elevation":"","dem":"230","timezone":"America/Argentina/Salta","modification_date":"2012-01-18"},{"geonameid":"3839668","name":"Quemú Quemú","asciiname":"Quemu Quemu","alternatenames":["Quemu Quemu","Quemú Quemú"],"latitude":"-36.05463","longitude":"-63.56428","feature_class":"P","feature_code":"PPLA2","country_code":"AR","cc2":"","admin1_code":"11","admin2_code":"42119","admin3_code":"","admin4_code":"","population":"3851","elevation":"","dem":"121","timezone":"America/Argentina/Salta","modification_date":"2015-04-22"},{"geonameid":"3840191","name":"Puelches","asciiname":"Puelches","alternatenames":["Curaco","Curacó","Puelches"],"latitude":"-38.14562","longitude":"-65.91426","feature_class":"P","feature_code":"PPLA2","country_code":"AR","cc2":"","admin1_code":"11","admin2_code":"","admin3_code":"","admin4_code":"","population":"0","elevation":"","dem":"235","timezone":"America/Argentina/Salta","modification_date":"2014-03-07"},{"geonameid":"3841937","name":"Parera","asciiname":"Parera","alternatenames":["Parera"],"latitude":"-35.146","longitude":"-64.50089","feature_class":"P","feature_code":"PPLA2","country_code":"AR","cc2":"","admin1_code":"11","admin2_code":"","admin3_code":"","admin4_code":"","population":"2246","elevation":"","dem":"202","timezone":"America/Argentina/Salta","modification_date":"2014-03-07"},{"geonameid":"3844267","name":"Miguel Riglos","asciiname":"Miguel Riglos","alternatenames":["M. Riglos","Miguel Riglos"],"latitude":"-36.85398","longitude":"-63.68842","feature_class":"P","feature_code":"PPL","country_code":"AR","cc2":"","admin1_code":"11","admin2_code":"","admin3_code":"","admin4_code":"","population":"2385","elevation":"","dem":"144","timezone":"America/Argentina/Salta","modification_date":"2012-01-18"},{"geonameid":"3845344","name":"Macachín","asciiname":"Macachin","alternatenames":["Macachin","Macachín"],"latitude":"-37.13598","longitude":"-63.6665","feature_class":"P","feature_code":"PPLA2","country_code":"AR","cc2":"","admin1_code":"11","admin2_code":"","admin3_code":"","admin4_code":"","population":"4768","elevation":"","dem":"143","timezone":"America/Argentina/Salta","modification_date":"2014-03-07"},{"geonameid":"3846610","name":"Lonquimay","asciiname":"Lonquimay","alternatenames":["Lonquimay","Pueblo Quintana"],"latitude":"-36.46546","longitude":"-63.62429","feature_class":"P","feature_code":"PPL","country_code":"AR","cc2":"","admin1_code":"11","admin2_code":"","admin3_code":"","admin4_code":"","population":"1672","elevation":"","dem":"142","timezone":"America/Argentina/Salta","modification_date":"2012-01-18"},{"geonameid":"3846880","name":"Limay Mahuida","asciiname":"Limay Mahuida","alternatenames":["Limay Mahuida"],"latitude":"-37.15959","longitude":"-66.67595","feature_class":"P","feature_code":"PPLA2","country_code":"AR","cc2":"","admin1_code":"11","admin2_code":"42091","admin3_code":"","admin4_code":"","population":"0","elevation":"","dem":"265","timezone":"America/Argentina/Salta","modification_date":"2015-04-22"},{"geonameid":"3849980","name":"La Maruja","asciiname":"La Maruja","alternatenames":["La Maruja"],"latitude":"-35.6736","longitude":"-64.93997","feature_class":"P","feature_code":"PPL","country_code":"AR","cc2":"","admin1_code":"11","admin2_code":"","admin3_code":"","admin4_code":"","population":"1389","elevation":"","dem":"283","timezone":"America/Argentina/Salta","modification_date":"2012-02-02"},{"geonameid":"3853592","name":"Jacinto Arauz","asciiname":"Jacinto Arauz","alternatenames":["J. Arauz","Jacinto Arauz"],"latitude":"-38.08606","longitude":"-63.43169","feature_class":"P","feature_code":"PPL","country_code":"AR","cc2":"","admin1_code":"11","admin2_code":"","admin3_code":"","admin4_code":"","population":"2773","elevation":"","dem":"162","timezone":"America/Argentina/Salta","modification_date":"2012-01-18"},{"geonameid":"3853745","name":"Intendente Alvear","asciiname":"Intendente Alvear","alternatenames":["Intendente Alvear"],"latitude":"-35.23383","longitude":"-63.59205","feature_class":"P","feature_code":"PPLA2","country_code":"AR","cc2":"","admin1_code":"11","admin2_code":"","admin3_code":"","admin4_code":"","population":"6990","elevation":"","dem":"129","timezone":"America/Argentina/Salta","modification_date":"2014-03-07"},{"geonameid":"3853783","name":"Ingeniero Luiggi","asciiname":"Ingeniero Luiggi","alternatenames":["Ingeniero Luiggi"],"latitude":"-35.38585","longitude":"-64.46519","feature_class":"P","feature_code":"PPL","country_code":"AR","cc2":"","admin1_code":"11","admin2_code":"","admin3_code":"","admin4_code":"","population":"4671","elevation":"","dem":"192","timezone":"America/Argentina/Salta","modification_date":"2012-02-02"},{"geonameid":"3854493","name":"Guatraché","asciiname":"Guatrache","alternatenames":["Guatrache","Guatraché"],"latitude":"-37.66776","longitude":"-63.53021","feature_class":"P","feature_code":"PPLA2","country_code":"AR","cc2":"","admin1_code":"11","admin2_code":"42070","admin3_code":"","admin4_code":"","population":"5271","elevation":"","dem":"174","timezone":"America/Argentina/Salta","modification_date":"2015-04-22"},{"geonameid":"3855056","name":"General San Martín","asciiname":"General San Martin","alternatenames":["General San Martin","General San Martín","Jose de San Martin","José de San Martín","Villa Alba"],"latitude":"-37.97904","longitude":"-63.60449","feature_class":"P","feature_code":"PPL","country_code":"AR","cc2":"","admin1_code":"11","admin2_code":"","admin3_code":"","admin4_code":"","population":"2846","elevation":"","dem":"165","timezone":"America/Argentina/Salta","modification_date":"2012-01-18"},{"geonameid":"3855075","name":"General Pico","asciiname":"General Pico","alternatenames":["Cheneral Pikas","GPO","General Pico","Pico","khnral pykw","pi ke jiang jun zhen","خنرال پیکو","皮科將軍鎮"],"latitude":"-35.65662","longitude":"-63.75682","feature_class":"P","feature_code":"PPLA2","country_code":"AR","cc2":"","admin1_code":"11","admin2_code":"","admin3_code":"","admin4_code":"","population":"57029","elevation":"","dem":"143","timezone":"America/Argentina/Salta","modification_date":"2014-03-07"},{"geonameid":"3855092","name":"General Manuel J. Campos","asciiname":"General Manuel J. Campos","alternatenames":["General M.J. Campos","General Manuel Campos","General Manuel J. Campos"],"latitude":"-37.46025","longitude":"-63.58537","feature_class":"P","feature_code":"PPL","country_code":"AR","cc2":"","admin1_code":"11","admin2_code":"","admin3_code":"","admin4_code":"","population":"1016","elevation":"","dem":"159","timezone":"America/Argentina/Salta","modification_date":"2012-01-18"},{"geonameid":"3855143","name":"General Acha","asciiname":"General Acha","alternatenames":["General Acha"],"latitude":"-37.37698","longitude":"-64.60431","feature_class":"P","feature_code":"PPLA2","country_code":"AR","cc2":"","admin1_code":"11","admin2_code":"","admin3_code":"","admin4_code":"","population":"12536","elevation":"","dem":"230","timezone":"America/Argentina/Salta","modification_date":"2014-03-07"},{"geonameid":"3856236","name":"Embajador Martini","asciiname":"Embajador Martini","alternatenames":["Embajador Martini"],"latitude":"-35.38633","longitude":"-64.28092","feature_class":"P","feature_code":"PPL","country_code":"AR","cc2":"","admin1_code":"11","admin2_code":"","admin3_code":"","admin4_code":"","population":"1298","elevation":"","dem":"174","timezone":"America/Argentina/Salta","modification_date":"2012-01-18"},{"geonameid":"3859036","name":"Eduardo Castex","asciiname":"Eduardo Castex","alternatenames":["Castex","E. Castex","Eduardo Castex"],"latitude":"-35.91501","longitude":"-64.29448","feature_class":"P","feature_code":"PPLA2","country_code":"AR","cc2":"","admin1_code":"11","admin2_code":"","admin3_code":"","admin4_code":"","population":"9861","elevation":"","dem":"193","timezone":"America/Argentina/Salta","modification_date":"2014-03-07"},{"geonameid":"3859296","name":"Doblas","asciiname":"Doblas","alternatenames":[""],"latitude":"-37.14967","longitude":"-64.01183","feature_class":"P","feature_code":"PPL","country_code":"AR","cc2":"","admin1_code":"11","admin2_code":"","admin3_code":"","admin4_code":"","population":"1860","elevation":"","dem":"161","timezone":"America/Argentina/Salta","modification_date":"2011-04-19"},{"geonameid":"3859741","name":"Cuchillo Có","asciiname":"Cuchillo Co","alternatenames":[""],"latitude":"-38.33349","longitude":"-64.64331","feature_class":"P","feature_code":"PPLA2","country_code":"AR","cc2":"","admin1_code":"11","admin2_code":"","admin3_code":"","admin4_code":"","population":"0","elevation":"","dem":"248","timezone":"America/Argentina/Salta","modification_date":"2014-03-07"},{"geonameid":"3860811","name":"Colonia Barón","asciiname":"Colonia Baron","alternatenames":["Colonia Baron","Colonia Barón"],"latitude":"-36.15152","longitude":"-63.85404","feature_class":"P","feature_code":"PPL","country_code":"AR","cc2":"","admin1_code":"11","admin2_code":"","admin3_code":"","admin4_code":"","population":"3317","elevation":"","dem":"154","timezone":"America/Argentina/Salta","modification_date":"2012-02-02"},{"geonameid":"3862251","name":"Catriló","asciiname":"Catrilo","alternatenames":["Catrilo","Catriló"],"latitude":"-36.40597","longitude":"-63.42168","feature_class":"P","feature_code":"PPLA2","country_code":"AR","cc2":"","admin1_code":"11","admin2_code":"","admin3_code":"","admin4_code":"","population":"3743","elevation":"","dem":"129","timezone":"America/Argentina/Salta","modification_date":"2014-03-07"},{"geonameid":"3863377","name":"Caleufú","asciiname":"Caleufu","alternatenames":["Caleufu","Caleufú"],"latitude":"-35.59559","longitude":"-64.55778","feature_class":"P","feature_code":"PPL","country_code":"AR","cc2":"","admin1_code":"11","admin2_code":"","admin3_code":"","admin4_code":"","population":"2396","elevation":"","dem":"208","timezone":"America/Argentina/Salta","modification_date":"2013-04-04"},{"geonameid":"3864283","name":"Bernasconi","asciiname":"Bernasconi","alternatenames":[""],"latitude":"-37.90459","longitude":"-63.7424","feature_class":"P","feature_code":"PPLA2","country_code":"AR","cc2":"","admin1_code":"11","admin2_code":"","admin3_code":"","admin4_code":"","population":"1781","elevation":"","dem":"164","timezone":"America/Argentina/Salta","modification_date":"2014-03-07"},{"geonameid":"3864285","name":"Bernardo Larroudé","asciiname":"Bernardo Larroude","alternatenames":["B. Larroude","B. Larroudé","Benjamin Larroude","Bernardo Larroude","Bernardo Larroudé","Larroude"],"latitude":"-35.02449","longitude":"-63.58253","feature_class":"P","feature_code":"PPL","country_code":"AR","cc2":"","admin1_code":"11","admin2_code":"","admin3_code":"","admin4_code":"","population":"1619","elevation":"","dem":"127","timezone":"America/Argentina/Salta","modification_date":"2012-01-18"},{"geonameid":"3865580","name":"Arata","asciiname":"Arata","alternatenames":[""],"latitude":"-35.63895","longitude":"-64.35621","feature_class":"P","feature_code":"PPL","country_code":"AR","cc2":"","admin1_code":"11","admin2_code":"","admin3_code":"","admin4_code":"","population":"1202","elevation":"","dem":"217","timezone":"America/Argentina/Salta","modification_date":"2011-04-19"},{"geonameid":"3865742","name":"Anguil","asciiname":"Anguil","alternatenames":["Anguil"],"latitude":"-36.52567","longitude":"-64.01025","feature_class":"P","feature_code":"PPL","country_code":"AR","cc2":"","admin1_code":"11","admin2_code":"","admin3_code":"","admin4_code":"","population":"1977","elevation":"","dem":"159","timezone":"America/Argentina/Salta","modification_date":"2012-02-02"},{"geonameid":"3866161","name":"Alta Italia","asciiname":"Alta Italia","alternatenames":[""],"latitude":"-35.3335","longitude":"-64.11496","feature_class":"P","feature_code":"PPL","country_code":"AR","cc2":"","admin1_code":"11","admin2_code":"","admin3_code":"","admin4_code":"","population":"1481","elevation":"","dem":"167","timezone":"America/Argentina/Salta","modification_date":"2011-04-19"},{"geonameid":"3866214","name":"Alpachiri","asciiname":"Alpachiri","alternatenames":["Alpachiri"],"latitude":"-37.37704","longitude":"-63.77445","feature_class":"P","feature_code":"PPL","country_code":"AR","cc2":"","admin1_code":"11","admin2_code":"","admin3_code":"","admin4_code":"","population":"2138","elevation":"","dem":"161","timezone":"America/Argentina/Salta","modification_date":"2012-02-02"},{"geonameid":"3866297","name":"Algarrobo del Águila","asciiname":"Algarrobo del Aguila","alternatenames":["Algarrobo del Aguila","Algarrobo del Aguilla","Algarrobo del Águila","El Aguila","El Aguilla"],"latitude":"-36.39968","longitude":"-67.14511","feature_class":"P","feature_code":"PPLA2","country_code":"AR","cc2":"","admin1_code":"11","admin2_code":"","admin3_code":"","admin4_code":"","population":"0","elevation":"","dem":"306","timezone":"America/Argentina/Salta","modification_date":"2014-03-07"}]}