{"region_data":{"countryId":"6251999","adminCode1":"04","countryName":"Canada","fclName":"country, state, region,...","countryCode":"CA","lng":"-65.99878","fcodeName":"first-order administrative division","toponymName":"New Brunswick","fcl":"A","numberOfChildren":15,"name":"New Brunswick","fcode":"ADM1","geonameId":6087430,"lat":"46.5001","adminName1":"New Brunswick","population":751250},"country_data":{"ISO":"CA","ISO3":"CAN","ISO_Numeric":"124","fips":"CA","country":"Canada","capital":"Ottawa","area":"9984670","Population":"33679000","Continent":"NA","tld":".ca","CurrencyCode":"CAD","CurrencyName":"Dollar","Phone":"1","Postal_Code_Format":"@#@ #@#","Postal_Code_Regex":"^([ABCEGHJKLMNPRSTVXY]\\d[ABCEGHJKLMNPRSTVWXYZ]) ?(\\d[ABCEGHJKLMNPRSTVWXYZ]\\d)$ ","Languages":"en-CA,fr-CA,iu","geonameid":"6251999","neighbours":"US","EquivalentFipsCode":""},"cities":[{"geonameid":"5906281","name":"Bouctouche","asciiname":"Bouctouche","alternatenames":["Baktush","Бактуш"],"latitude":"46.46844","longitude":"-64.73905","feature_class":"P","feature_code":"PPL","country_code":"CA","cc2":"","admin1_code":"04","admin2_code":"","admin3_code":"","admin4_code":"","population":"1895","elevation":"","dem":"27","timezone":"America/Moncton","modification_date":"2008-04-11"},{"geonameid":"5939219","name":"Dieppe","asciiname":"Dieppe","alternatenames":["D'ep","di ye pu","dieppu","Дьеп","ڈیپی","ディエップ","迪耶普"],"latitude":"46.07844","longitude":"-64.68735","feature_class":"P","feature_code":"PPL","country_code":"CA","cc2":"","admin1_code":"04","admin2_code":"","admin3_code":"","admin4_code":"","population":"18565","elevation":"","dem":"42","timezone":"America/Moncton","modification_date":"2010-09-22"},{"geonameid":"5957776","name":"Fredericton","asciiname":"Fredericton","alternatenames":["Fredericopolis","Fredericton","Frederikton","Frederiktonas","Frederiktono","Frederiktun","Gorad Frehdehryktan","Phrentrikton","YFC","frdryktwn","frydryktwn","fu lei de li ke dun","furederikuton","hpireteriktan","peuledeoligteon","phredariktana","prdryqtwn","Φρέντρικτον","Горад Фрэдэрыктан","Фредериктон","Фредериктън","Фредеріктон","פרדריקטון","فردریکتون","فريدريكتون","فریڈرکٹن","فریڈریکٹن","फ्रेडरिक्टन","ஃபிரெடெரிக்டன்","ფრედერიკტონი","フレデリクトン","弗雷德里克頓","프레더릭턴"],"latitude":"45.94541","longitude":"-66.66558","feature_class":"P","feature_code":"PPLA","country_code":"CA","cc2":"","admin1_code":"04","admin2_code":"","admin3_code":"","admin4_code":"","population":"52337","elevation":"","dem":"110","timezone":"America/Moncton","modification_date":"2010-07-29"},{"geonameid":"5970018","name":"Hampton","asciiname":"Hampton","alternatenames":[""],"latitude":"45.52876","longitude":"-65.85354","feature_class":"P","feature_code":"PPL","country_code":"CA","cc2":"","admin1_code":"04","admin2_code":"","admin3_code":"","admin4_code":"","population":"4292","elevation":"","dem":"0","timezone":"America/Moncton","modification_date":"2014-04-14"},{"geonameid":"6075081","name":"Miramichi","asciiname":"Miramichi","alternatenames":["Miramichi","Miramishi","YCH","Мирамиши","Мірамічі","میرامچھی"],"latitude":"47.02895","longitude":"-65.50186","feature_class":"P","feature_code":"PPL","country_code":"CA","cc2":"","admin1_code":"04","admin2_code":"1309","admin3_code":"","admin4_code":"","population":"18129","elevation":"","dem":"18","timezone":"America/Moncton","modification_date":"2013-08-10"},{"geonameid":"6076211","name":"Moncton","asciiname":"Moncton","alternatenames":["Mon'kton","Moncton","Monkton","Monktonas","Monktono","YQM","meng ke dun","meongkeuteon","monkuton","mwnktwn","mx ngk tan","Μόνκτον","Монктон","مونكتون","مونکتون","مونکٹون","มองก์ตัน","モンクトン","蒙克顿","멍크턴"],"latitude":"46.11594","longitude":"-64.80186","feature_class":"P","feature_code":"PPL","country_code":"CA","cc2":"","admin1_code":"04","admin2_code":"","admin3_code":"","admin4_code":"","population":"87467","elevation":"","dem":"14","timezone":"America/Moncton","modification_date":"2010-01-29"},{"geonameid":"6085444","name":"Nackawic","asciiname":"Nackawic","alternatenames":[""],"latitude":"45.99666","longitude":"-67.24028","feature_class":"P","feature_code":"PPL","country_code":"CA","cc2":"","admin1_code":"04","admin2_code":"","admin3_code":"","admin4_code":"","population":"1009","elevation":"","dem":"70","timezone":"America/Moncton","modification_date":"2012-08-21"},{"geonameid":"6094407","name":"Oromocto","asciiname":"Oromocto","alternatenames":[""],"latitude":"45.83512","longitude":"-66.47917","feature_class":"P","feature_code":"PPL","country_code":"CA","cc2":"","admin1_code":"04","admin2_code":"","admin3_code":"","admin4_code":"","population":"8998","elevation":"","dem":"27","timezone":"America/Moncton","modification_date":"2008-04-11"},{"geonameid":"6122053","name":"Richibucto","asciiname":"Richibucto","alternatenames":[""],"latitude":"46.68073","longitude":"-64.88044","feature_class":"P","feature_code":"PPL","country_code":"CA","cc2":"","admin1_code":"04","admin2_code":"","admin3_code":"","admin4_code":"","population":"1298","elevation":"","dem":"5","timezone":"America/Moncton","modification_date":"2008-04-11"},{"geonameid":"6137063","name":"Sackville","asciiname":"Sackville","alternatenames":["Sakvill","XKV","Саквилл"],"latitude":"45.91875","longitude":"-64.38455","feature_class":"P","feature_code":"PPL","country_code":"CA","cc2":"","admin1_code":"04","admin2_code":"","admin3_code":"","admin4_code":"","population":"5411","elevation":"","dem":"13","timezone":"America/Moncton","modification_date":"2010-06-08"},{"geonameid":"6137411","name":"Saint Andrews","asciiname":"Saint Andrews","alternatenames":[""],"latitude":"45.0737","longitude":"-67.05312","feature_class":"P","feature_code":"PPL","country_code":"CA","cc2":"","admin1_code":"04","admin2_code":"1302","admin3_code":"","admin4_code":"","population":"1809","elevation":"","dem":"9","timezone":"America/Moncton","modification_date":"2014-09-20"},{"geonameid":"6138517","name":"Saint John","asciiname":"Saint John","alternatenames":["Fanum Sancti Ioannis","Gorad Sent-Dzhon","Saint John","Saint-Jean","Sejnt Dzhon","Sent DZon","Sent-Dzhon","YSJ","seinteujon","senta jona","sentcxhn","sentojon","sheng yue han","snt jan","Горад Сент-Джон","Сейнт Джон","Сент Џон","Сент-Джон","سنت جان","سینٹ جان","सेंट जॉन","เซนต์จอห์น","სენტ-ჯონი","セントジョン","セント・ジョン","圣约翰","세인트존"],"latitude":"45.27271","longitude":"-66.06766","feature_class":"P","feature_code":"PPL","country_code":"CA","cc2":"","admin1_code":"04","admin2_code":"","admin3_code":"","admin4_code":"","population":"87857","elevation":"","dem":"5","timezone":"America/Moncton","modification_date":"2013-02-27"},{"geonameid":"6139354","name":"Salisbury","asciiname":"Salisbury","alternatenames":[""],"latitude":"46.03905","longitude":"-65.04628","feature_class":"P","feature_code":"PPL","country_code":"CA","cc2":"","admin1_code":"04","admin2_code":"","admin3_code":"","admin4_code":"","population":"1891","elevation":"","dem":"45","timezone":"America/Moncton","modification_date":"2008-04-11"},{"geonameid":"6145668","name":"Shediac","asciiname":"Shediac","alternatenames":["Shed'jak","Shediac","Shédiac","Шедьяк"],"latitude":"46.21981","longitude":"-64.54107","feature_class":"P","feature_code":"PPL","country_code":"CA","cc2":"","admin1_code":"04","admin2_code":"","admin3_code":"","admin4_code":"","population":"4735","elevation":"","dem":"16","timezone":"America/Moncton","modification_date":"2008-07-25"},{"geonameid":"6159980","name":"Sussex","asciiname":"Sussex","alternatenames":[""],"latitude":"45.72266","longitude":"-65.50663","feature_class":"P","feature_code":"PPL","country_code":"CA","cc2":"","admin1_code":"04","admin2_code":"","admin3_code":"","admin4_code":"","population":"4048","elevation":"","dem":"23","timezone":"America/Moncton","modification_date":"2008-04-11"},{"geonameid":"6545023","name":"Edmundston","asciiname":"Edmundston","alternatenames":["Edmundston","Ehdmundston","ai de meng ci dun","edomonsuton","Едмундстон","Эдмундстон","اڈمنڈسٹن","エドモンストン","埃德蒙兹顿"],"latitude":"47.3737","longitude":"-68.32512","feature_class":"P","feature_code":"PPL","country_code":"CA","cc2":"","admin1_code":"04","admin2_code":"","admin3_code":"","admin4_code":"","population":"16643","elevation":"200","dem":"154","timezone":"America/Moncton","modification_date":"2010-09-22"},{"geonameid":"6696258","name":"Campbellton","asciiname":"Campbellton","alternatenames":["Kehmpbelton","kan bei er dun","Кэмпбелтон","کیمپبلٹن","坎贝尔顿"],"latitude":"48.00751","longitude":"-66.67272","feature_class":"P","feature_code":"PPL","country_code":"CA","cc2":"","admin1_code":"04","admin2_code":"11","admin3_code":"","admin4_code":"","population":"7384","elevation":"","dem":"9","timezone":"America/Moncton","modification_date":"2010-09-22"},{"geonameid":"6696259","name":"Bathurst","asciiname":"Bathurst","alternatenames":["Baterst","ZBF","ba se si te","basasuto","Батерст","باتھرسٹ","バサースト","巴瑟斯特"],"latitude":"47.61814","longitude":"-65.65112","feature_class":"P","feature_code":"PPL","country_code":"CA","cc2":"","admin1_code":"04","admin2_code":"","admin3_code":"","admin4_code":"","population":"12714","elevation":"","dem":"6","timezone":"America/Moncton","modification_date":"2013-07-15"},{"geonameid":"7302644","name":"Tracadie-Sheila","asciiname":"Tracadie-Sheila","alternatenames":["Tracadie–Sheila","Trikadi-Shejla","Трикади-Шейла"],"latitude":"47.51444","longitude":"-64.91806","feature_class":"P","feature_code":"PPL","country_code":"CA","cc2":"","admin1_code":"04","admin2_code":"","admin3_code":"","admin4_code":"","population":"4474","elevation":"","dem":"18","timezone":"America/Moncton","modification_date":"2010-06-13"},{"geonameid":"7731836","name":"Saint-Léonard","asciiname":"Saint-Leonard","alternatenames":["Saint-Leonard","Saint-Léonard","YSL"],"latitude":"47.16317","longitude":"-67.9246","feature_class":"P","feature_code":"PPL","country_code":"CA","cc2":"","admin1_code":"04","admin2_code":"1313","admin3_code":"","admin4_code":"","population":"2700","elevation":"","dem":"154","timezone":"America/Moncton","modification_date":"2013-08-10"},{"geonameid":"7731837","name":"Harrison Brook","asciiname":"Harrison Brook","alternatenames":[""],"latitude":"47.21304","longitude":"-67.92847","feature_class":"P","feature_code":"PPL","country_code":"CA","cc2":"","admin1_code":"04","admin2_code":"","admin3_code":"","admin4_code":"","population":"3200","elevation":"","dem":"165","timezone":"America/Moncton","modification_date":"2011-03-21"},{"geonameid":"8581594","name":"Florenceville-Bristol","asciiname":"Florenceville-Bristol","alternatenames":[""],"latitude":"46.44353","longitude":"-67.61536","feature_class":"P","feature_code":"PPL","country_code":"CA","cc2":"","admin1_code":"04","admin2_code":"","admin3_code":"","admin4_code":"","population":"1639","elevation":"","dem":"64","timezone":"America/St_Johns","modification_date":"2013-07-17"}]}