{"region_data":{"countryId":"6251999","adminCode1":"05","countryName":"Canada","fclName":"country, state, region,...","countryCode":"CA","lng":"-56","fcodeName":"first-order administrative division","toponymName":"Newfoundland and Labrador","fcl":"A","name":"Newfoundland and Labrador","fcode":"ADM1","geonameId":6354959,"lat":"52","adminName1":"Newfoundland and Labrador","population":508099},"country_data":{"ISO":"CA","ISO3":"CAN","ISO_Numeric":"124","fips":"CA","country":"Canada","capital":"Ottawa","area":"9984670","Population":"33679000","Continent":"NA","tld":".ca","CurrencyCode":"CAD","CurrencyName":"Dollar","Phone":"1","Postal_Code_Format":"@#@ #@#","Postal_Code_Regex":"^([ABCEGHJKLMNPRSTVXY]\\d[ABCEGHJKLMNPRSTVWXYZ]) ?(\\d[ABCEGHJKLMNPRSTVWXYZ]\\d)$ ","Languages":"en-CA,fr-CA,iu","geonameid":"6251999","neighbours":"US","EquivalentFipsCode":""},"cities":[{"geonameid":"5895424","name":"Bay Roberts","asciiname":"Bay Roberts","alternatenames":[""],"latitude":"47.59989","longitude":"-53.26478","feature_class":"P","feature_code":"PPL","country_code":"CA","cc2":"","admin1_code":"05","admin2_code":"","admin3_code":"","admin4_code":"","population":"13737","elevation":"","dem":"9","timezone":"America/St_Johns","modification_date":"2006-01-22"},{"geonameid":"5905393","name":"Bonavista","asciiname":"Bonavista","alternatenames":[""],"latitude":"48.64989","longitude":"-53.11474","feature_class":"P","feature_code":"PPL","country_code":"CA","cc2":"","admin1_code":"05","admin2_code":"","admin3_code":"","admin4_code":"","population":"3658","elevation":"","dem":"-2","timezone":"America/St_Johns","modification_date":"2008-04-11"},{"geonameid":"5906229","name":"Botwood","asciiname":"Botwood","alternatenames":[""],"latitude":"49.14994","longitude":"-55.34819","feature_class":"P","feature_code":"PPL","country_code":"CA","cc2":"","admin1_code":"05","admin2_code":"","admin3_code":"","admin4_code":"","population":"2940","elevation":"","dem":"17","timezone":"America/St_Johns","modification_date":"2008-04-11"},{"geonameid":"5911440","name":"Burgeo","asciiname":"Burgeo","alternatenames":[""],"latitude":"47.61668","longitude":"-57.61516","feature_class":"P","feature_code":"PPL","country_code":"CA","cc2":"","admin1_code":"05","admin2_code":"","admin3_code":"","admin4_code":"","population":"1627","elevation":"","dem":"1","timezone":"America/St_Johns","modification_date":"2008-04-11"},{"geonameid":"5916722","name":"Carbonear","asciiname":"Carbonear","alternatenames":[""],"latitude":"47.73319","longitude":"-53.21478","feature_class":"P","feature_code":"PPL","country_code":"CA","cc2":"","admin1_code":"05","admin2_code":"","admin3_code":"","admin4_code":"","population":"6814","elevation":"","dem":"11","timezone":"America/St_Johns","modification_date":"2006-01-22"},{"geonameid":"5918243","name":"Catalina","asciiname":"Catalina","alternatenames":[""],"latitude":"48.51659","longitude":"-53.08135","feature_class":"P","feature_code":"PPL","country_code":"CA","cc2":"","admin1_code":"05","admin2_code":"","admin3_code":"","admin4_code":"","population":"1352","elevation":"","dem":"16","timezone":"America/St_Johns","modification_date":"2006-01-22"},{"geonameid":"5919815","name":"Channel-Port aux Basques","asciiname":"Channel-Port aux Basques","alternatenames":[""],"latitude":"47.57021","longitude":"-59.13674","feature_class":"P","feature_code":"PPL","country_code":"CA","cc2":"","admin1_code":"05","admin2_code":"","admin3_code":"","admin4_code":"","population":"4220","elevation":"","dem":"10","timezone":"America/St_Johns","modification_date":"2009-07-07"},{"geonameid":"5923119","name":"Clarenville-Shoal Harbour","asciiname":"Clarenville-Shoal Harbour","alternatenames":[""],"latitude":"48.1805","longitude":"-53.96982","feature_class":"P","feature_code":"PPL","country_code":"CA","cc2":"","admin1_code":"05","admin2_code":"","admin3_code":"","admin4_code":"","population":"3478","elevation":"","dem":"1","timezone":"America/St_Johns","modification_date":"2008-04-11"},{"geonameid":"5926511","name":"Conception Bay South","asciiname":"Conception Bay South","alternatenames":[""],"latitude":"47.49989","longitude":"-52.99806","feature_class":"P","feature_code":"PPL","country_code":"CA","cc2":"","admin1_code":"05","admin2_code":"","admin3_code":"","admin4_code":"","population":"17087","elevation":"","dem":"48","timezone":"America/St_Johns","modification_date":"2008-04-11"},{"geonameid":"5927969","name":"Corner Brook","asciiname":"Corner Brook","alternatenames":["Korner-Bruk","YNF","karnr brwk","ke na bu lu ke","konaburukku","koneobeulug","qwrnr brwq","Корнер-Брук","קורנר ברוק","کارنر بروک","コーナーブルック","科纳布鲁克","코너브룩"],"latitude":"48.95001","longitude":"-57.95202","feature_class":"P","feature_code":"PPL","country_code":"CA","cc2":"","admin1_code":"05","admin2_code":"","admin3_code":"","admin4_code":"","population":"18693","elevation":"","dem":"17","timezone":"America/St_Johns","modification_date":"2013-08-10"},{"geonameid":"5937252","name":"Deer Lake","asciiname":"Deer Lake","alternatenames":["YDF"],"latitude":"49.16671","longitude":"-57.43163","feature_class":"P","feature_code":"PPL","country_code":"CA","cc2":"","admin1_code":"05","admin2_code":"","admin3_code":"","admin4_code":"","population":"4163","elevation":"","dem":"34","timezone":"America/St_Johns","modification_date":"2008-04-11"},{"geonameid":"5959271","name":"Gambo","asciiname":"Gambo","alternatenames":[""],"latitude":"48.7832","longitude":"-54.21482","feature_class":"P","feature_code":"PPL","country_code":"CA","cc2":"","admin1_code":"05","admin2_code":"","admin3_code":"","admin4_code":"","population":"1614","elevation":"","dem":"7","timezone":"America/St_Johns","modification_date":"2008-04-11"},{"geonameid":"5964230","name":"Grand Bank","asciiname":"Grand Bank","alternatenames":[""],"latitude":"47.09995","longitude":"-55.76504","feature_class":"P","feature_code":"PPL","country_code":"CA","cc2":"","admin1_code":"05","admin2_code":"","admin3_code":"","admin4_code":"","population":"4623","elevation":"","dem":"5","timezone":"America/St_Johns","modification_date":"2006-01-22"},{"geonameid":"5964378","name":"Grand Falls-Windsor","asciiname":"Grand Falls-Windsor","alternatenames":[""],"latitude":"48.93324","longitude":"-55.66492","feature_class":"P","feature_code":"PPL","country_code":"CA","cc2":"","admin1_code":"05","admin2_code":"","admin3_code":"","admin4_code":"","population":"12076","elevation":"","dem":"67","timezone":"America/St_Johns","modification_date":"2008-04-11"},{"geonameid":"5970458","name":"Happy Valley-Goose Bay","asciiname":"Happy Valley-Goose Bay","alternatenames":["YYR"],"latitude":"53.31685","longitude":"-60.33153","feature_class":"P","feature_code":"PPL","country_code":"CA","cc2":"","admin1_code":"05","admin2_code":"","admin3_code":"","admin4_code":"","population":"7572","elevation":"12","dem":"18","timezone":"America/Goose_Bay","modification_date":"2013-04-05"},{"geonameid":"5970478","name":"Harbour Breton","asciiname":"Harbour Breton","alternatenames":[""],"latitude":"47.48325","longitude":"-55.79833","feature_class":"P","feature_code":"PPL","country_code":"CA","cc2":"","admin1_code":"05","admin2_code":"","admin3_code":"","admin4_code":"","population":"1898","elevation":"","dem":"1","timezone":"America/St_Johns","modification_date":"2008-04-11"},{"geonameid":"5994839","name":"Labrador City","asciiname":"Labrador City","alternatenames":[""],"latitude":"52.94626","longitude":"-66.91137","feature_class":"P","feature_code":"PPL","country_code":"CA","cc2":"","admin1_code":"05","admin2_code":"","admin3_code":"","admin4_code":"","population":"10313","elevation":"","dem":"555","timezone":"America/Goose_Bay","modification_date":"2008-09-17"},{"geonameid":"6053446","name":"Lewisporte","asciiname":"Lewisporte","alternatenames":[""],"latitude":"49.24993","longitude":"-55.04816","feature_class":"P","feature_code":"PPL","country_code":"CA","cc2":"","admin1_code":"05","admin2_code":"","admin3_code":"","admin4_code":"","population":"2935","elevation":"","dem":"-9999","timezone":"America/St_Johns","modification_date":"2008-04-11"},{"geonameid":"6067472","name":"Marystown","asciiname":"Marystown","alternatenames":[""],"latitude":"47.16663","longitude":"-55.14829","feature_class":"P","feature_code":"PPL","country_code":"CA","cc2":"","admin1_code":"05","admin2_code":"","admin3_code":"","admin4_code":"","population":"4558","elevation":"","dem":"17","timezone":"America/St_Johns","modification_date":"2008-04-11"},{"geonameid":"6082231","name":"Mount Pearl","asciiname":"Mount Pearl","alternatenames":[""],"latitude":"47.51659","longitude":"-52.78135","feature_class":"P","feature_code":"PPL","country_code":"CA","cc2":"","admin1_code":"05","admin2_code":"","admin3_code":"","admin4_code":"","population":"24671","elevation":"","dem":"109","timezone":"America/St_Johns","modification_date":"2010-09-22"},{"geonameid":"6098924","name":"Pasadena","asciiname":"Pasadena","alternatenames":[""],"latitude":"49.01671","longitude":"-57.59837","feature_class":"P","feature_code":"PPL","country_code":"CA","cc2":"","admin1_code":"05","admin2_code":"","admin3_code":"","admin4_code":"","population":"2248","elevation":"","dem":"28","timezone":"America/St_Johns","modification_date":"2008-04-11"},{"geonameid":"6156244","name":"Stephenville","asciiname":"Stephenville","alternatenames":["YJT"],"latitude":"48.55001","longitude":"-58.5818","feature_class":"P","feature_code":"PPL","country_code":"CA","cc2":"","admin1_code":"05","admin2_code":"","admin3_code":"","admin4_code":"","population":"6278","elevation":"","dem":"15","timezone":"America/St_Johns","modification_date":"2008-04-11"},{"geonameid":"6156245","name":"Stephenville Crossing","asciiname":"Stephenville Crossing","alternatenames":[""],"latitude":"48.50001","longitude":"-58.4318","feature_class":"P","feature_code":"PPL","country_code":"CA","cc2":"","admin1_code":"05","admin2_code":"","admin3_code":"","admin4_code":"","population":"1183","elevation":"","dem":"-9999","timezone":"America/St_Johns","modification_date":"2008-04-11"},{"geonameid":"6167817","name":"Torbay","asciiname":"Torbay","alternatenames":[""],"latitude":"47.66659","longitude":"-52.73135","feature_class":"P","feature_code":"PPL","country_code":"CA","cc2":"","admin1_code":"05","admin2_code":"","admin3_code":"","admin4_code":"","population":"3097","elevation":"","dem":"69","timezone":"America/St_Johns","modification_date":"2006-01-22"},{"geonameid":"6174727","name":"Wabana","asciiname":"Wabana","alternatenames":[""],"latitude":"47.63319","longitude":"-52.94806","feature_class":"P","feature_code":"PPL","country_code":"CA","cc2":"","admin1_code":"05","admin2_code":"","admin3_code":"","admin4_code":"","population":"2362","elevation":"","dem":"84","timezone":"America/St_Johns","modification_date":"2008-04-11"},{"geonameid":"6324733","name":"St. John's","asciiname":"St. John's","alternatenames":["Agios Ioannis Neas Gis","Baile Naoimh Eoin","Baile Naoimh Eòin","Baile Sheain","Baile Sheáin","Gorad Sent-Dzhons","Saint John","Saint John's","Saint-Jean","Saint-Jean de Terre-Neuve","San Juan de Terranova","Sanctus Ioannes Terrae Novae","Sejnt Dzhons","Sent DZons","Sent Dzonsas","Sent Džonsas","Sent-Dzhons","St Johns","St. John's","St. John's pa Newfoundland","St. John's på Newfoundland","St. John’s","YYT","ceyint jans","sant jwnz","seinteujonseu","sentojonzu","sheng yue han si","snt g'wns","Άγιος Ιωάννης Νέας Γης","Горад Сент-Джонс","Сейнт Джонс","Сент Џонс","Сент-Джонс","סנט ג'ונס","سانت جونز","سینٹ جان","سینٹ جانز، نیوفنلینڈ اور لیبراڈار","செயின்ட் ஜான்ஸ்","სენტ-ჯონზი","セントジョンズ","聖約翰斯","세인트존스"],"latitude":"47.56494","longitude":"-52.70931","feature_class":"P","feature_code":"PPLA","country_code":"CA","cc2":"","admin1_code":"05","admin2_code":"","admin3_code":"","admin4_code":"","population":"99182","elevation":"","dem":"35","timezone":"America/St_Johns","modification_date":"2014-07-21"}]}