{"region_data":{"countryId":"3686110","adminCode1":"19","countryName":"Colombia","fclName":"country, state, region,...","countryCode":"CO","lng":"-73","fcodeName":"first-order administrative division","toponymName":"Departamento del Meta","fcl":"A","numberOfChildren":29,"name":"Departamento del Meta","fcode":"ADM1","geonameId":3674810,"lat":"3.5","adminName1":"Meta","population":783168},"country_data":{"ISO":"CO","ISO3":"COL","ISO_Numeric":"170","fips":"CO","country":"Colombia","capital":"Bogota","area":"1138910","Population":"47790000","Continent":"SA","tld":".co","CurrencyCode":"COP","CurrencyName":"Peso","Phone":"57","Postal_Code_Format":"","Postal_Code_Regex":"","Languages":"es-CO","geonameid":"3686110","neighbours":"EC,PE,PA,BR,VE","EquivalentFipsCode":""},"cities":[{"geonameid":"3665860","name":"Vista Hermosa","asciiname":"Vista Hermosa","alternatenames":[""],"latitude":"3.12428","longitude":"-73.75156","feature_class":"P","feature_code":"PPL","country_code":"CO","cc2":"","admin1_code":"19","admin2_code":"","admin3_code":"","admin4_code":"","population":"4282","elevation":"","dem":"297","timezone":"America/Bogota","modification_date":"2006-01-17"},{"geonameid":"3665900","name":"Villavicencio","asciiname":"Villavicencio","alternatenames":["Cantarrana","Caserio Villavicencio","VVC","Vijavisensio","Vil'javisensio","Viljavisensijas","Viljavisensio","Villavicencio","Villavicêncio","bi ya wei sen xi ao","biryabisenshio","biyabisensio","viliavisensio","wlawyknsyw","Вильявисенсио","Вилявисенсио","Віявісенсіо","ولاویکنسیو","ვილიავისენსიო","ビリャビセンシオ","比亚维森西奥","비야비센시오"],"latitude":"4.142","longitude":"-73.62664","feature_class":"P","feature_code":"PPLA","country_code":"CO","cc2":"","admin1_code":"19","admin2_code":"50001","admin3_code":"","admin4_code":"","population":"321717","elevation":"","dem":"441","timezone":"America/Bogota","modification_date":"2015-04-04"},{"geonameid":"3669332","name":"San Martín","asciiname":"San Martin","alternatenames":["San Martin","San Martín"],"latitude":"3.69637","longitude":"-73.69957","feature_class":"P","feature_code":"PPL","country_code":"CO","cc2":"","admin1_code":"19","admin2_code":"","admin3_code":"","admin4_code":"","population":"16273","elevation":"","dem":"425","timezone":"America/Bogota","modification_date":"2015-06-08"},{"geonameid":"3669358","name":"Cubarral","asciiname":"Cubarral","alternatenames":["Cubarral","San Luis de Cubarral"],"latitude":"3.79536","longitude":"-73.84063","feature_class":"P","feature_code":"PPL","country_code":"CO","cc2":"","admin1_code":"19","admin2_code":"9172368","admin3_code":"","admin4_code":"","population":"2280","elevation":"","dem":"589","timezone":"America/Bogota","modification_date":"2014-08-02"},{"geonameid":"3669482","name":"San Juan de Arama","asciiname":"San Juan de Arama","alternatenames":["Municipio Juan de Arama","San Juan","San Juan de Arama"],"latitude":"3.36985","longitude":"-73.87267","feature_class":"P","feature_code":"PPL","country_code":"CO","cc2":"","admin1_code":"19","admin2_code":"","admin3_code":"","admin4_code":"","population":"2636","elevation":"","dem":"438","timezone":"America/Bogota","modification_date":"2013-08-07"},{"geonameid":"3669987","name":"San Carlos de Guaroa","asciiname":"San Carlos de Guaroa","alternatenames":["San Carlos de Guarda","San Carlos de Guaroa"],"latitude":"3.71161","longitude":"-73.24344","feature_class":"P","feature_code":"PPL","country_code":"CO","cc2":"","admin1_code":"19","admin2_code":"","admin3_code":"","admin4_code":"","population":"1604","elevation":"","dem":"224","timezone":"America/Bogota","modification_date":"2012-01-19"},{"geonameid":"3670855","name":"Restrepo","asciiname":"Restrepo","alternatenames":["Restrepo"],"latitude":"4.25833","longitude":"-73.56142","feature_class":"P","feature_code":"PPL","country_code":"CO","cc2":"","admin1_code":"19","admin2_code":"","admin3_code":"","admin4_code":"","population":"7511","elevation":"","dem":"474","timezone":"America/Bogota","modification_date":"2012-01-19"},{"geonameid":"3671346","name":"Puerto Yuca","asciiname":"Puerto Yuca","alternatenames":["Puerto Rico","Puerto Yuca"],"latitude":"2.93833","longitude":"-73.20833","feature_class":"P","feature_code":"PPL","country_code":"CO","cc2":"","admin1_code":"19","admin2_code":"","admin3_code":"","admin4_code":"","population":"5029","elevation":"","dem":"212","timezone":"America/Bogota","modification_date":"2013-10-07"},{"geonameid":"3671418","name":"Puerto López","asciiname":"Puerto Lopez","alternatenames":["Puerto Lopez","Puerto López"],"latitude":"4.09912","longitude":"-72.95647","feature_class":"P","feature_code":"PPL","country_code":"CO","cc2":"","admin1_code":"19","admin2_code":"3671422","admin3_code":"","admin4_code":"","population":"16678","elevation":"","dem":"180","timezone":"America/Bogota","modification_date":"2014-08-02"},{"geonameid":"3671424","name":"Puerto Lleras","asciiname":"Puerto Lleras","alternatenames":["Puerto Chinatas","Puerto Lleras","Puerto Saiz","Puerto Saíz"],"latitude":"3.02225","longitude":"-73.4044","feature_class":"P","feature_code":"PPL","country_code":"CO","cc2":"","admin1_code":"19","admin2_code":"","admin3_code":"","admin4_code":"","population":"5076","elevation":"","dem":"251","timezone":"America/Bogota","modification_date":"2012-01-19"},{"geonameid":"3681605","name":"Guamal","asciiname":"Guamal","alternatenames":["Guamal"],"latitude":"3.88043","longitude":"-73.76566","feature_class":"P","feature_code":"PPL","country_code":"CO","cc2":"","admin1_code":"19","admin2_code":"","admin3_code":"","admin4_code":"","population":"5026","elevation":"","dem":"522","timezone":"America/Bogota","modification_date":"2012-05-06"},{"geonameid":"3681957","name":"Granada","asciiname":"Granada","alternatenames":["Boca de Monte","Granada","Grenada","Гренада"],"latitude":"3.54625","longitude":"-73.70687","feature_class":"P","feature_code":"PPL","country_code":"CO","cc2":"","admin1_code":"19","admin2_code":"","admin3_code":"","admin4_code":"","population":"32365","elevation":"","dem":"336","timezone":"America/Bogota","modification_date":"2013-07-06"},{"geonameid":"3682299","name":"Fuente de Oro","asciiname":"Fuente de Oro","alternatenames":["Fuente de Oro","Municipio Fuente de Oro","San Antonio","San Antonio Ariari"],"latitude":"3.46263","longitude":"-73.62162","feature_class":"P","feature_code":"PPL","country_code":"CO","cc2":"","admin1_code":"19","admin2_code":"","admin3_code":"","admin4_code":"","population":"3609","elevation":"","dem":"301","timezone":"America/Bogota","modification_date":"2013-08-07"},{"geonameid":"3684662","name":"El Castillo","asciiname":"El Castillo","alternatenames":["El Castillo"],"latitude":"3.56363","longitude":"-73.79488","feature_class":"P","feature_code":"PPL","country_code":"CO","cc2":"","admin1_code":"19","admin2_code":"","admin3_code":"","admin4_code":"","population":"2581","elevation":"","dem":"350","timezone":"America/Bogota","modification_date":"2012-05-06"},{"geonameid":"3685442","name":"Cumaral","asciiname":"Cumaral","alternatenames":[""],"latitude":"4.2708","longitude":"-73.48669","feature_class":"P","feature_code":"PPL","country_code":"CO","cc2":"","admin1_code":"19","admin2_code":"","admin3_code":"","admin4_code":"","population":"11263","elevation":"","dem":"412","timezone":"America/Bogota","modification_date":"2006-01-17"},{"geonameid":"3687084","name":"Castilla La Nueva","asciiname":"Castilla La Nueva","alternatenames":["Castilla","Castilla La Nueva","Shell"],"latitude":"3.82722","longitude":"-73.68831","feature_class":"P","feature_code":"PPL","country_code":"CO","cc2":"","admin1_code":"19","admin2_code":"","admin3_code":"","admin4_code":"","population":"1543","elevation":"","dem":"417","timezone":"America/Bogota","modification_date":"2015-06-08"},{"geonameid":"3688151","name":"Cabuyaro","asciiname":"Cabuyaro","alternatenames":["Cabuyaro","Pueblo Cabuyaro"],"latitude":"4.2817","longitude":"-72.79399","feature_class":"P","feature_code":"PPL","country_code":"CO","cc2":"","admin1_code":"19","admin2_code":"","admin3_code":"","admin4_code":"","population":"1140","elevation":"","dem":"165","timezone":"America/Bogota","modification_date":"2012-01-19"},{"geonameid":"3689167","name":"Barranca de Upía","asciiname":"Barranca de Upia","alternatenames":["Barranca","Barranca de Upia","Barranca de Upta","Barranca de Upía","Cumaral"],"latitude":"4.56963","longitude":"-72.96676","feature_class":"P","feature_code":"PPL","country_code":"CO","cc2":"","admin1_code":"19","admin2_code":"","admin3_code":"","admin4_code":"","population":"1177","elevation":"","dem":"236","timezone":"America/Bogota","modification_date":"2012-01-19"},{"geonameid":"3690577","name":"Acacías","asciiname":"Acacias","alternatenames":["Acacias","Acacías"],"latitude":"3.98695","longitude":"-73.75797","feature_class":"P","feature_code":"PPL","country_code":"CO","cc2":"","admin1_code":"19","admin2_code":"","admin3_code":"","admin4_code":"","population":"40627","elevation":"","dem":"530","timezone":"America/Bogota","modification_date":"2012-01-19"},{"geonameid":"3732964","name":"Lejanías","asciiname":"Lejanias","alternatenames":["Lejanias","Lejanías"],"latitude":"3.52762","longitude":"-74.02335","feature_class":"P","feature_code":"PPL","country_code":"CO","cc2":"","admin1_code":"19","admin2_code":"","admin3_code":"","admin4_code":"","population":"5157","elevation":"","dem":"689","timezone":"America/Bogota","modification_date":"2015-06-08"},{"geonameid":"3733434","name":"El Dorado","asciiname":"El Dorado","alternatenames":[""],"latitude":"2.77411","longitude":"-72.86834","feature_class":"P","feature_code":"PPL","country_code":"CO","cc2":"","admin1_code":"19","admin2_code":"","admin3_code":"","admin4_code":"","population":"1011","elevation":"","dem":"201","timezone":"America/Bogota","modification_date":"2011-09-12"},{"geonameid":"3763578","name":"Mesetas","asciiname":"Mesetas","alternatenames":["Mesetas"],"latitude":"3.38463","longitude":"-74.04424","feature_class":"P","feature_code":"PPL","country_code":"CO","cc2":"","admin1_code":"19","admin2_code":"","admin3_code":"","admin4_code":"","population":"4163","elevation":"","dem":"550","timezone":"America/Bogota","modification_date":"2012-01-19"},{"geonameid":"3769976","name":"Puerto Gaitán","asciiname":"Puerto Gaitan","alternatenames":["Puerto Gaitan","Puerto Gaitán"],"latitude":"4.31328","longitude":"-72.08157","feature_class":"P","feature_code":"PPL","country_code":"CO","cc2":"","admin1_code":"19","admin2_code":"","admin3_code":"","admin4_code":"","population":"5928","elevation":"","dem":"160","timezone":"America/Bogota","modification_date":"2012-01-19"},{"geonameid":"3792394","name":"Mapiripán","asciiname":"Mapiripan","alternatenames":["Mapiripan","Mapiripán"],"latitude":"2.89115","longitude":"-72.13328","feature_class":"P","feature_code":"PPL","country_code":"CO","cc2":"","admin1_code":"19","admin2_code":"","admin3_code":"","admin4_code":"","population":"1993","elevation":"","dem":"181","timezone":"America/Bogota","modification_date":"2013-10-09"},{"geonameid":"3792395","name":"Puerto Concordia","asciiname":"Puerto Concordia","alternatenames":["Concordia","La Concordia","Puerto Concordia","Puerto La Concordia"],"latitude":"2.62206","longitude":"-72.75724","feature_class":"P","feature_code":"PPL","country_code":"CO","cc2":"","admin1_code":"19","admin2_code":"","admin3_code":"","admin4_code":"","population":"4313","elevation":"","dem":"188","timezone":"America/Bogota","modification_date":"2012-01-19"},{"geonameid":"3827693","name":"La Macarena","asciiname":"La Macarena","alternatenames":["La Macarena"],"latitude":"2.18367","longitude":"-73.78485","feature_class":"P","feature_code":"PPL","country_code":"CO","cc2":"","admin1_code":"19","admin2_code":"","admin3_code":"","admin4_code":"","population":"3466","elevation":"","dem":"229","timezone":"America/Bogota","modification_date":"2013-05-30"}]}