{"region_data":{"countryId":"3686110","adminCode1":"11","countryName":"Colombia","fclName":"country, state, region,...","countryCode":"CO","lng":"-77","fcodeName":"first-order administrative division","toponymName":"Departamento del Chocó","fcl":"A","numberOfChildren":30,"name":"Departamento del Chocó","fcode":"ADM1","geonameId":3686431,"lat":"6","adminName1":"Chocó","population":454030},"country_data":{"ISO":"CO","ISO3":"COL","ISO_Numeric":"170","fips":"CO","country":"Colombia","capital":"Bogota","area":"1138910","Population":"47790000","Continent":"SA","tld":".co","CurrencyCode":"COP","CurrencyName":"Peso","Phone":"57","Postal_Code_Format":"","Postal_Code_Regex":"","Languages":"es-CO","geonameid":"3686110","neighbours":"EC,PE,PA,BR,VE","EquivalentFipsCode":""},"cities":[{"geonameid":"3666475","name":"Ungia","asciiname":"Ungia","alternatenames":["Arquia","Ungia","Unguia","Unguía"],"latitude":"8.04364","longitude":"-77.09137","feature_class":"P","feature_code":"PPL","country_code":"CO","cc2":"","admin1_code":"11","admin2_code":"","admin3_code":"","admin4_code":"","population":"4179","elevation":"","dem":"14","timezone":"America/Bogota","modification_date":"2014-03-08"},{"geonameid":"3667579","name":"Tadó","asciiname":"Tado","alternatenames":["Tado","Tadó"],"latitude":"5.26598","longitude":"-76.56487","feature_class":"P","feature_code":"PPL","country_code":"CO","cc2":"","admin1_code":"11","admin2_code":"","admin3_code":"","admin4_code":"","population":"10095","elevation":"","dem":"75","timezone":"America/Bogota","modification_date":"2012-01-19"},{"geonameid":"3669549","name":"San José del Palmar","asciiname":"San Jose del Palmar","alternatenames":["San Jose del Palmar","San José del Palmar"],"latitude":"4.97417","longitude":"-76.22833","feature_class":"P","feature_code":"PPL","country_code":"CO","cc2":"","admin1_code":"11","admin2_code":"","admin3_code":"","admin4_code":"","population":"2392","elevation":"","dem":"1288","timezone":"America/Bogota","modification_date":"2012-01-19"},{"geonameid":"3670718","name":"Riosucio","asciiname":"Riosucio","alternatenames":["Riosucio"],"latitude":"7.44348","longitude":"-77.11964","feature_class":"P","feature_code":"PPL","country_code":"CO","cc2":"","admin1_code":"11","admin2_code":"","admin3_code":"","admin4_code":"","population":"7163","elevation":"","dem":"2","timezone":"America/Bogota","modification_date":"2015-06-08"},{"geonameid":"3671116","name":"Quibdó","asciiname":"Quibdo","alternatenames":["Kibdo","Quibdo","Quibdó","ji bu duo","kib do","kibeudo","kwbdw","Кибдо","کوبدو","กิบโด","基布多","키브도"],"latitude":"5.69472","longitude":"-76.66111","feature_class":"P","feature_code":"PPLA","country_code":"CO","cc2":"","admin1_code":"11","admin2_code":"","admin3_code":"","admin4_code":"","population":"75104","elevation":"","dem":"33","timezone":"America/Bogota","modification_date":"2012-01-19"},{"geonameid":"3672086","name":"Pizarro","asciiname":"Pizarro","alternatenames":["Bajo Baudo","Bajo Baudó","Baudo","Baudó","Pizarro","Puerto Pizarro"],"latitude":"4.95334","longitude":"-77.36598","feature_class":"P","feature_code":"PPL","country_code":"CO","cc2":"","admin1_code":"11","admin2_code":"","admin3_code":"","admin4_code":"","population":"6168","elevation":"","dem":"5","timezone":"America/Bogota","modification_date":"2012-01-19"},{"geonameid":"3672327","name":"Pié de Pató","asciiname":"Pie de Pato","alternatenames":["Alto Baudo","Alto Baudó","Pie de Pato","Pié de Pató","Puerto Yacup"],"latitude":"5.51604","longitude":"-76.97449","feature_class":"P","feature_code":"PPL","country_code":"CO","cc2":"","admin1_code":"11","admin2_code":"","admin3_code":"","admin4_code":"","population":"3242","elevation":"","dem":"21","timezone":"America/Bogota","modification_date":"2012-01-19"},{"geonameid":"3673690","name":"Nuquí","asciiname":"Nuqui","alternatenames":["Nugui","Nugul","Nuqui","Nuquí"],"latitude":"5.7125","longitude":"-77.27083","feature_class":"P","feature_code":"PPL","country_code":"CO","cc2":"","admin1_code":"11","admin2_code":"","admin3_code":"","admin4_code":"","population":"2741","elevation":"","dem":"9","timezone":"America/Bogota","modification_date":"2012-01-19"},{"geonameid":"3673783","name":"Nóvita","asciiname":"Novita","alternatenames":["Novita","Nóvita","San Jeronimo","San Jerónimo"],"latitude":"4.95511","longitude":"-76.60526","feature_class":"P","feature_code":"PPL","country_code":"CO","cc2":"","admin1_code":"11","admin2_code":"","admin3_code":"","admin4_code":"","population":"1898","elevation":"","dem":"51","timezone":"America/Bogota","modification_date":"2012-01-19"},{"geonameid":"3676477","name":"Lloró","asciiname":"Lloro","alternatenames":["Lloro","Lloró"],"latitude":"5.49605","longitude":"-76.54945","feature_class":"P","feature_code":"PPL","country_code":"CO","cc2":"","admin1_code":"11","admin2_code":"","admin3_code":"","admin4_code":"","population":"2651","elevation":"","dem":"90","timezone":"America/Bogota","modification_date":"2012-01-19"},{"geonameid":"3680090","name":"Juradó","asciiname":"Jurado","alternatenames":["Jurado","Juradó"],"latitude":"7.10611","longitude":"-77.75794","feature_class":"P","feature_code":"PPL","country_code":"CO","cc2":"","admin1_code":"11","admin2_code":"","admin3_code":"","admin4_code":"","population":"2351","elevation":"","dem":"15","timezone":"America/Bogota","modification_date":"2014-03-08"},{"geonameid":"3680453","name":"Istmina","asciiname":"Istmina","alternatenames":["Istmia","Istmina","Istmino","Itsmina"],"latitude":"5.16054","longitude":"-76.68397","feature_class":"P","feature_code":"PPL","country_code":"CO","cc2":"","admin1_code":"11","admin2_code":"","admin3_code":"","admin4_code":"","population":"13788","elevation":"","dem":"55","timezone":"America/Bogota","modification_date":"2012-01-19"},{"geonameid":"3684692","name":"El Carmen","asciiname":"El Carmen","alternatenames":["Carmen","El Carmen"],"latitude":"5.88778","longitude":"-75.16417","feature_class":"P","feature_code":"PPL","country_code":"CO","cc2":"","admin1_code":"11","admin2_code":"","admin3_code":"","admin4_code":"","population":"2258","elevation":"","dem":"1254","timezone":"America/Bogota","modification_date":"2012-01-19"},{"geonameid":"3686002","name":"Condoto","asciiname":"Condoto","alternatenames":["COG","Condoto"],"latitude":"5.09351","longitude":"-76.64973","feature_class":"P","feature_code":"PPL","country_code":"CO","cc2":"","admin1_code":"11","admin2_code":"","admin3_code":"","admin4_code":"","population":"9897","elevation":"","dem":"62","timezone":"America/Bogota","modification_date":"2012-01-19"},{"geonameid":"3686883","name":"Cértegui","asciiname":"Certegui","alternatenames":["Certegui","Certigui","Cértegui"],"latitude":"5.37073","longitude":"-76.6044","feature_class":"P","feature_code":"PPL","country_code":"CO","cc2":"","admin1_code":"11","admin2_code":"","admin3_code":"","admin4_code":"","population":"2854","elevation":"","dem":"53","timezone":"America/Bogota","modification_date":"2012-01-19"},{"geonameid":"3689325","name":"Mutis","asciiname":"Mutis","alternatenames":["Bahia Solano","Bahía Solano","Ciudad Mutis","Ciudad de Mutis","Mutis","Puerto Mutis"],"latitude":"6.22622","longitude":"-77.40439","feature_class":"P","feature_code":"PPL","country_code":"CO","cc2":"","admin1_code":"11","admin2_code":"","admin3_code":"","admin4_code":"","population":"3079","elevation":"","dem":"6","timezone":"America/Bogota","modification_date":"2012-01-19"},{"geonameid":"3689336","name":"Bagadó","asciiname":"Bagado","alternatenames":["Bagado","Bagadó"],"latitude":"5.41164","longitude":"-76.4152","feature_class":"P","feature_code":"PPL","country_code":"CO","cc2":"","admin1_code":"11","admin2_code":"","admin3_code":"","admin4_code":"","population":"4561","elevation":"","dem":"109","timezone":"America/Bogota","modification_date":"2012-01-19"},{"geonameid":"3690572","name":"Acandí","asciiname":"Acandi","alternatenames":["Acandi","Acandí","Acanti"],"latitude":"8.51158","longitude":"-77.27719","feature_class":"P","feature_code":"PPL","country_code":"CO","cc2":"","admin1_code":"11","admin2_code":"","admin3_code":"","admin4_code":"","population":"4840","elevation":"","dem":"9","timezone":"America/Bogota","modification_date":"2014-03-08"},{"geonameid":"3766939","name":"Bellavista","asciiname":"Bellavista","alternatenames":["Bellavista","Bojaya","Bojayá","La Loma"],"latitude":"6.5213","longitude":"-76.97234","feature_class":"P","feature_code":"PPL","country_code":"CO","cc2":"","admin1_code":"11","admin2_code":"","admin3_code":"","admin4_code":"","population":"1396","elevation":"","dem":"19","timezone":"America/Bogota","modification_date":"2012-01-19"},{"geonameid":"3792386","name":"El Cantón de San Pablo","asciiname":"El Canton de San Pablo","alternatenames":["El Canton de San Pablo","El Cantón de San Pablo"],"latitude":"5.33889","longitude":"-76.73139","feature_class":"P","feature_code":"PPL","country_code":"CO","cc2":"","admin1_code":"11","admin2_code":"","admin3_code":"","admin4_code":"","population":"3271","elevation":"","dem":"53","timezone":"America/Bogota","modification_date":"2012-01-19"},{"geonameid":"3792408","name":"Santa Genoveva de Docorodó","asciiname":"Santa Genoveva de Docorodo","alternatenames":["Litoral del San Juan","Santa Genoveva de Docorodo","Santa Genoveva de Docorodó"],"latitude":"4.25875","longitude":"-77.36516","feature_class":"P","feature_code":"PPL","country_code":"CO","cc2":"","admin1_code":"11","admin2_code":"","admin3_code":"","admin4_code":"","population":"1448","elevation":"","dem":"6","timezone":"America/Bogota","modification_date":"2012-01-19"}]}