{"region_data":{"countryId":"3686110","adminCode1":"20","countryName":"Colombia","fclName":"country, state, region,...","countryCode":"CO","lng":"-78","fcodeName":"first-order administrative division","toponymName":"Departamento de Nariño","fcl":"A","numberOfChildren":64,"name":"Departamento de Nariño","fcode":"ADM1","geonameId":3674021,"lat":"1.5","adminName1":"Nariño","population":1541956},"country_data":{"ISO":"CO","ISO3":"COL","ISO_Numeric":"170","fips":"CO","country":"Colombia","capital":"Bogota","area":"1138910","Population":"47790000","Continent":"SA","tld":".co","CurrencyCode":"COP","CurrencyName":"Peso","Phone":"57","Postal_Code_Format":"","Postal_Code_Regex":"","Languages":"es-CO","geonameid":"3686110","neighbours":"EC,PE,PA,BR,VE","EquivalentFipsCode":""},"cities":[{"geonameid":"3665811","name":"Yacuanquer","asciiname":"Yacuanquer","alternatenames":["Yacauquer","Yacuanquer","Yaquanquer"],"latitude":"1.11577","longitude":"-77.40169","feature_class":"P","feature_code":"PPL","country_code":"CO","cc2":"","admin1_code":"20","admin2_code":"","admin3_code":"","admin4_code":"","population":"2643","elevation":"","dem":"2708","timezone":"America/Bogota","modification_date":"2012-01-19"},{"geonameid":"3666582","name":"Túquerres","asciiname":"Tuquerres","alternatenames":["Tuquerres","Túquerres"],"latitude":"1.08878","longitude":"-77.61831","feature_class":"P","feature_code":"PPL","country_code":"CO","cc2":"","admin1_code":"20","admin2_code":"","admin3_code":"","admin4_code":"","population":"20184","elevation":"","dem":"3059","timezone":"America/Bogota","modification_date":"2013-10-07"},{"geonameid":"3666640","name":"Tumaco","asciiname":"Tumaco","alternatenames":["San Andres de Tumaco","San Andrés de Tumaco","TCO","Tucano","Tumaco","Tumakas","Tumako","tu ma ke","Тумако","圖馬科"],"latitude":"1.79861","longitude":"-78.81556","feature_class":"P","feature_code":"PPL","country_code":"CO","cc2":"","admin1_code":"20","admin2_code":"","admin3_code":"","admin4_code":"","population":"86713","elevation":"","dem":"6","timezone":"America/Bogota","modification_date":"2012-01-19"},{"geonameid":"3667447","name":"Tangua","asciiname":"Tangua","alternatenames":["Tangua"],"latitude":"1.09473","longitude":"-77.39482","feature_class":"P","feature_code":"PPL","country_code":"CO","cc2":"","admin1_code":"20","admin2_code":"","admin3_code":"","admin4_code":"","population":"3348","elevation":"","dem":"2402","timezone":"America/Bogota","modification_date":"2012-01-19"},{"geonameid":"3667471","name":"Taminango","asciiname":"Taminango","alternatenames":["Taminango"],"latitude":"1.57491","longitude":"-77.28666","feature_class":"P","feature_code":"PPL","country_code":"CO","cc2":"","admin1_code":"20","admin2_code":"","admin3_code":"","admin4_code":"","population":"2919","elevation":"","dem":"1470","timezone":"America/Bogota","modification_date":"2012-01-19"},{"geonameid":"3667791","name":"Sotomayor","asciiname":"Sotomayor","alternatenames":["Los Andes","Sotomayor"],"latitude":"1.51469","longitude":"-77.50444","feature_class":"P","feature_code":"PPL","country_code":"CO","cc2":"","admin1_code":"20","admin2_code":"","admin3_code":"","admin4_code":"","population":"4839","elevation":"","dem":"1123","timezone":"America/Bogota","modification_date":"2012-01-19"},{"geonameid":"3668268","name":"Sapuyes","asciiname":"Sapuyes","alternatenames":["Sapuyes"],"latitude":"1.03728","longitude":"-77.62094","feature_class":"P","feature_code":"PPL","country_code":"CO","cc2":"","admin1_code":"20","admin2_code":"","admin3_code":"","admin4_code":"","population":"2628","elevation":"","dem":"2995","timezone":"America/Bogota","modification_date":"2014-04-06"},{"geonameid":"3669214","name":"San Pablo","asciiname":"San Pablo","alternatenames":[""],"latitude":"1.6725","longitude":"-77.01389","feature_class":"P","feature_code":"PPL","country_code":"CO","cc2":"","admin1_code":"20","admin2_code":"","admin3_code":"","admin4_code":"","population":"6522","elevation":"","dem":"1733","timezone":"America/Bogota","modification_date":"2006-01-17"},{"geonameid":"3669440","name":"San Lorenzo","asciiname":"San Lorenzo","alternatenames":["San Lorenzo"],"latitude":"1.50628","longitude":"-77.21898","feature_class":"P","feature_code":"PPL","country_code":"CO","cc2":"","admin1_code":"20","admin2_code":"","admin3_code":"","admin4_code":"","population":"2394","elevation":"","dem":"1995","timezone":"America/Bogota","modification_date":"2012-01-19"},{"geonameid":"3669654","name":"San José","asciiname":"San Jose","alternatenames":["Roberto Payan","Roberto Payán","San Jose","San José"],"latitude":"1.69659","longitude":"-78.24482","feature_class":"P","feature_code":"PPL","country_code":"CO","cc2":"","admin1_code":"20","admin2_code":"","admin3_code":"","admin4_code":"","population":"1772","elevation":"","dem":"39","timezone":"America/Bogota","modification_date":"2012-01-19"},{"geonameid":"3669938","name":"Sandoná","asciiname":"Sandona","alternatenames":["Sandona","Sandoná"],"latitude":"1.28626","longitude":"-77.46921","feature_class":"P","feature_code":"PPL","country_code":"CO","cc2":"","admin1_code":"20","admin2_code":"","admin3_code":"","admin4_code":"","population":"10401","elevation":"","dem":"1817","timezone":"America/Bogota","modification_date":"2013-10-07"},{"geonameid":"3670293","name":"Samaniego","asciiname":"Samaniego","alternatenames":["Samaniego"],"latitude":"1.33849","longitude":"-77.5957","feature_class":"P","feature_code":"PPL","country_code":"CO","cc2":"","admin1_code":"20","admin2_code":"","admin3_code":"","admin4_code":"","population":"13515","elevation":"","dem":"1459","timezone":"America/Bogota","modification_date":"2012-01-19"},{"geonameid":"3670816","name":"Ricaurte","asciiname":"Ricaurte","alternatenames":[""],"latitude":"1.18112","longitude":"-77.96124","feature_class":"P","feature_code":"PPL","country_code":"CO","cc2":"","admin1_code":"20","admin2_code":"","admin3_code":"","admin4_code":"","population":"2617","elevation":"","dem":"1306","timezone":"America/Bogota","modification_date":"2013-10-07"},{"geonameid":"3671228","name":"Pupiales","asciiname":"Pupiales","alternatenames":["Pupiales"],"latitude":"0.87136","longitude":"-77.64027","feature_class":"P","feature_code":"PPL","country_code":"CO","cc2":"","admin1_code":"20","admin2_code":"","admin3_code":"","admin4_code":"","population":"6760","elevation":"","dem":"2974","timezone":"America/Bogota","modification_date":"2012-01-19"},{"geonameid":"3671576","name":"Puerres","asciiname":"Puerres","alternatenames":[""],"latitude":"1.19374","longitude":"-77.26661","feature_class":"P","feature_code":"PPL","country_code":"CO","cc2":"","admin1_code":"20","admin2_code":"","admin3_code":"","admin4_code":"","population":"3812","elevation":"","dem":"2577","timezone":"America/Bogota","modification_date":"2011-10-11"},{"geonameid":"3671714","name":"Providencia","asciiname":"Providencia","alternatenames":[""],"latitude":"1.56976","longitude":"-77.464","feature_class":"P","feature_code":"PPL","country_code":"CO","cc2":"","admin1_code":"20","admin2_code":"","admin3_code":"","admin4_code":"","population":"3326","elevation":"","dem":"1115","timezone":"America/Bogota","modification_date":"2006-01-17"},{"geonameid":"3671848","name":"Potosí","asciiname":"Potosi","alternatenames":[""],"latitude":"0.80739","longitude":"-77.57216","feature_class":"P","feature_code":"PPL","country_code":"CO","cc2":"","admin1_code":"20","admin2_code":"","admin3_code":"","admin4_code":"","population":"3979","elevation":"","dem":"2742","timezone":"America/Bogota","modification_date":"2011-10-11"},{"geonameid":"3671961","name":"Policarpa","asciiname":"Policarpa","alternatenames":["Policarpa"],"latitude":"1.63231","longitude":"-77.46199","feature_class":"P","feature_code":"PPL","country_code":"CO","cc2":"","admin1_code":"20","admin2_code":"","admin3_code":"","admin4_code":"","population":"2377","elevation":"","dem":"896","timezone":"America/Bogota","modification_date":"2012-01-19"},{"geonameid":"3672087","name":"Francisco Pizarro","asciiname":"Francisco Pizarro","alternatenames":["Francisco Pizarro","Pizarro","Salahonda"],"latitude":"2.10194","longitude":"-78.72167","feature_class":"P","feature_code":"PPL","country_code":"CO","cc2":"","admin1_code":"20","admin2_code":"","admin3_code":"","admin4_code":"","population":"6105","elevation":"","dem":"-9999","timezone":"America/Bogota","modification_date":"2012-01-19"},{"geonameid":"3672295","name":"Piedrancha","asciiname":"Piedrancha","alternatenames":["Mallama","Piedra Ancha","Piedrancha"],"latitude":"1.1374","longitude":"-77.8489","feature_class":"P","feature_code":"PPL","country_code":"CO","cc2":"","admin1_code":"20","admin2_code":"","admin3_code":"","admin4_code":"","population":"1788","elevation":"","dem":"2197","timezone":"America/Bogota","modification_date":"2012-01-19"},{"geonameid":"3672665","name":"Payán","asciiname":"Payan","alternatenames":["Capital Payan","Capital Payán","Magui","Magüí","Mangui","Mangüi","Payan","Payán"],"latitude":"1.935","longitude":"-78.205","feature_class":"P","feature_code":"PPL","country_code":"CO","cc2":"","admin1_code":"20","admin2_code":"","admin3_code":"","admin4_code":"","population":"2892","elevation":"","dem":"45","timezone":"America/Bogota","modification_date":"2012-01-19"},{"geonameid":"3672778","name":"Pasto","asciiname":"Pasto","alternatenames":["PSO","Pastas","Pasto","San Juan de Pasto","Пасто"],"latitude":"1.21361","longitude":"-77.28111","feature_class":"P","feature_code":"PPLA","country_code":"CO","cc2":"","admin1_code":"20","admin2_code":"","admin3_code":"","admin4_code":"","population":"382236","elevation":"","dem":"2545","timezone":"America/Bogota","modification_date":"2012-01-19"},{"geonameid":"3673482","name":"Ospina","asciiname":"Ospina","alternatenames":[""],"latitude":"1.0595","longitude":"-77.56554","feature_class":"P","feature_code":"PPL","country_code":"CO","cc2":"","admin1_code":"20","admin2_code":"","admin3_code":"","admin4_code":"","population":"2747","elevation":"","dem":"2862","timezone":"America/Bogota","modification_date":"2011-10-11"},{"geonameid":"3673609","name":"Olaya Herrera","asciiname":"Olaya Herrera","alternatenames":["Hatillo","Olaya Herrera"],"latitude":"1.24803","longitude":"-77.49085","feature_class":"P","feature_code":"PPL","country_code":"CO","cc2":"","admin1_code":"20","admin2_code":"","admin3_code":"","admin4_code":"","population":"9820","elevation":"","dem":"1666","timezone":"America/Bogota","modification_date":"2013-10-07"},{"geonameid":"3674031","name":"Nariño","asciiname":"Narino","alternatenames":["Narino","Nariño"],"latitude":"1.28995","longitude":"-77.35721","feature_class":"P","feature_code":"PPL","country_code":"CO","cc2":"","admin1_code":"20","admin2_code":"","admin3_code":"","admin4_code":"","population":"2933","elevation":"","dem":"2347","timezone":"America/Bogota","modification_date":"2013-10-07"},{"geonameid":"3674293","name":"Mosquera","asciiname":"Mosquera","alternatenames":[""],"latitude":"2.50861","longitude":"-78.4511","feature_class":"P","feature_code":"PPL","country_code":"CO","cc2":"","admin1_code":"20","admin2_code":"","admin3_code":"","admin4_code":"","population":"3471","elevation":"","dem":"7","timezone":"America/Bogota","modification_date":"2011-10-11"},{"geonameid":"3676540","name":"Linares","asciiname":"Linares","alternatenames":["Linares"],"latitude":"1.35783","longitude":"-77.52725","feature_class":"P","feature_code":"PPL","country_code":"CO","cc2":"","admin1_code":"20","admin2_code":"","admin3_code":"","admin4_code":"","population":"3512","elevation":"","dem":"1668","timezone":"America/Bogota","modification_date":"2012-01-19"},{"geonameid":"3676661","name":"Leiva","asciiname":"Leiva","alternatenames":["Leiva"],"latitude":"1.93389","longitude":"-77.30253","feature_class":"P","feature_code":"PPL","country_code":"CO","cc2":"","admin1_code":"20","admin2_code":"","admin3_code":"","admin4_code":"","population":"3668","elevation":"","dem":"1464","timezone":"America/Bogota","modification_date":"2012-01-19"},{"geonameid":"3676934","name":"La Unión","asciiname":"La Union","alternatenames":[""],"latitude":"1.6045","longitude":"-77.13152","feature_class":"P","feature_code":"PPL","country_code":"CO","cc2":"","admin1_code":"20","admin2_code":"","admin3_code":"","admin4_code":"","population":"15061","elevation":"","dem":"1721","timezone":"America/Bogota","modification_date":"2011-10-11"},{"geonameid":"3678575","name":"La Llanada","asciiname":"La Llanada","alternatenames":["La Llanada","Llanada"],"latitude":"1.48997","longitude":"-77.58347","feature_class":"P","feature_code":"PPL","country_code":"CO","cc2":"","admin1_code":"20","admin2_code":"","admin3_code":"","admin4_code":"","population":"2747","elevation":"","dem":"2836","timezone":"America/Bogota","modification_date":"2012-01-19"},{"geonameid":"3679007","name":"La Florida","asciiname":"La Florida","alternatenames":["Florida","La Florida"],"latitude":"1.29851","longitude":"-77.40614","feature_class":"P","feature_code":"PPL","country_code":"CO","cc2":"","admin1_code":"20","admin2_code":"","admin3_code":"","admin4_code":"","population":"2882","elevation":"","dem":"2185","timezone":"America/Bogota","modification_date":"2012-01-19"},{"geonameid":"3680491","name":"Iscuandé","asciiname":"Iscuande","alternatenames":["Iscande","Iscandé","Iscuande","Iscuandé","Santa Barbara","Santá Barbara"],"latitude":"2.45007","longitude":"-77.97936","feature_class":"P","feature_code":"PPL","country_code":"CO","cc2":"","admin1_code":"20","admin2_code":"","admin3_code":"","admin4_code":"","population":"4875","elevation":"","dem":"5","timezone":"America/Bogota","modification_date":"2012-01-19"},{"geonameid":"3680539","name":"Ipiales","asciiname":"Ipiales","alternatenames":["Gorad Ipijales","IPI","Ip'jales","Ipiales","Ipjalesas","yi pi ya lai si","Горад Іпіялес","Ипьялес","伊皮亞萊斯"],"latitude":"0.83018","longitude":"-77.64959","feature_class":"P","feature_code":"PPL","country_code":"CO","cc2":"","admin1_code":"20","admin2_code":"","admin3_code":"","admin4_code":"","population":"77729","elevation":"","dem":"2912","timezone":"America/Bogota","modification_date":"2012-01-19"},{"geonameid":"3680601","name":"Imués","asciiname":"Imues","alternatenames":["Imues","Imués"],"latitude":"1.05295","longitude":"-77.50171","feature_class":"P","feature_code":"PPL","country_code":"CO","cc2":"","admin1_code":"20","admin2_code":"","admin3_code":"","admin4_code":"","population":"1736","elevation":"","dem":"2610","timezone":"America/Bogota","modification_date":"2013-10-07"},{"geonameid":"3680616","name":"Iles","asciiname":"Iles","alternatenames":["Iles"],"latitude":"0.97491","longitude":"-77.52741","feature_class":"P","feature_code":"PPL","country_code":"CO","cc2":"","admin1_code":"20","admin2_code":"","admin3_code":"","admin4_code":"","population":"1879","elevation":"","dem":"2913","timezone":"America/Bogota","modification_date":"2012-01-19"},{"geonameid":"3681619","name":"Gualmatán","asciiname":"Gualmatan","alternatenames":["Gualmatan","Gualmatán"],"latitude":"0.91888","longitude":"-77.56651","feature_class":"P","feature_code":"PPL","country_code":"CO","cc2":"","admin1_code":"20","admin2_code":"","admin3_code":"","admin4_code":"","population":"2510","elevation":"","dem":"2917","timezone":"America/Bogota","modification_date":"2012-01-19"},{"geonameid":"3681644","name":"Guaitarilla","asciiname":"Guaitarilla","alternatenames":["Guaitarilla","Guaitarrilla"],"latitude":"1.13103","longitude":"-77.54815","feature_class":"P","feature_code":"PPL","country_code":"CO","cc2":"","admin1_code":"20","admin2_code":"","admin3_code":"","admin4_code":"","population":"6280","elevation":"","dem":"2627","timezone":"America/Bogota","modification_date":"2013-10-07"},{"geonameid":"3681756","name":"Guachucal","asciiname":"Guachucal","alternatenames":["Guachegal","Guachucal"],"latitude":"0.96093","longitude":"-77.73161","feature_class":"P","feature_code":"PPL","country_code":"CO","cc2":"","admin1_code":"20","admin2_code":"","admin3_code":"","admin4_code":"","population":"4014","elevation":"","dem":"3091","timezone":"America/Bogota","modification_date":"2012-01-19"},{"geonameid":"3682283","name":"Funes","asciiname":"Funes","alternatenames":["Funes"],"latitude":"1.00266","longitude":"-77.45067","feature_class":"P","feature_code":"PPL","country_code":"CO","cc2":"","admin1_code":"20","admin2_code":"","admin3_code":"","admin4_code":"","population":"2508","elevation":"","dem":"2278","timezone":"America/Bogota","modification_date":"2012-01-19"},{"geonameid":"3682965","name":"El Tambo","asciiname":"El Tambo","alternatenames":["El Tambo","Tambo"],"latitude":"1.41814","longitude":"-77.39678","feature_class":"P","feature_code":"PPL","country_code":"CO","cc2":"","admin1_code":"20","admin2_code":"","admin3_code":"","admin4_code":"","population":"7279","elevation":"","dem":"2304","timezone":"America/Bogota","modification_date":"2012-01-19"},{"geonameid":"3682981","name":"El Tablón","asciiname":"El Tablon","alternatenames":["El Tablon","El Tablón","Tablon"],"latitude":"1.43188","longitude":"-77.09664","feature_class":"P","feature_code":"PPL","country_code":"CO","cc2":"","admin1_code":"20","admin2_code":"","admin3_code":"","admin4_code":"","population":"2373","elevation":"","dem":"1515","timezone":"America/Bogota","modification_date":"2012-01-19"},{"geonameid":"3683149","name":"El Rosario","asciiname":"El Rosario","alternatenames":["El Rosario","Rosario"],"latitude":"1.74173","longitude":"-77.3352","feature_class":"P","feature_code":"PPL","country_code":"CO","cc2":"","admin1_code":"20","admin2_code":"","admin3_code":"","admin4_code":"","population":"2607","elevation":"","dem":"1611","timezone":"America/Bogota","modification_date":"2012-01-19"},{"geonameid":"3683508","name":"El Peñol","asciiname":"El Penol","alternatenames":["El Penol","El Peñol","Penol","Peñol"],"latitude":"1.45987","longitude":"-77.44544","feature_class":"P","feature_code":"PPL","country_code":"CO","cc2":"","admin1_code":"20","admin2_code":"","admin3_code":"","admin4_code":"","population":"2294","elevation":"","dem":"1665","timezone":"America/Bogota","modification_date":"2012-01-19"},{"geonameid":"3684579","name":"El Charco","asciiname":"El Charco","alternatenames":["Charco","El Charco"],"latitude":"2.47691","longitude":"-78.11049","feature_class":"P","feature_code":"PPL","country_code":"CO","cc2":"","admin1_code":"20","admin2_code":"","admin3_code":"","admin4_code":"","population":"28673","elevation":"","dem":"6","timezone":"America/Bogota","modification_date":"2012-01-19"},{"geonameid":"3685428","name":"Cumbitara","asciiname":"Cumbitara","alternatenames":["Cumbitara","San Pedro"],"latitude":"1.65174","longitude":"-77.58225","feature_class":"P","feature_code":"PPL","country_code":"CO","cc2":"","admin1_code":"20","admin2_code":"","admin3_code":"","admin4_code":"","population":"1091","elevation":"","dem":"1738","timezone":"America/Bogota","modification_date":"2012-01-19"},{"geonameid":"3685432","name":"Cumbal","asciiname":"Cumbal","alternatenames":[""],"latitude":"0.90875","longitude":"-77.79145","feature_class":"P","feature_code":"PPL","country_code":"CO","cc2":"","admin1_code":"20","admin2_code":"","admin3_code":"","admin4_code":"","population":"7529","elevation":"","dem":"3127","timezone":"America/Bogota","modification_date":"2011-10-11"},{"geonameid":"3685903","name":"Córdoba","asciiname":"Cordoba","alternatenames":["Cordoba","Córdoba","Males"],"latitude":"0.85905","longitude":"-77.5195","feature_class":"P","feature_code":"PPL","country_code":"CO","cc2":"","admin1_code":"20","admin2_code":"","admin3_code":"","admin4_code":"","population":"3784","elevation":"","dem":"2850","timezone":"America/Bogota","modification_date":"2012-01-19"},{"geonameid":"3685974","name":"Contadero","asciiname":"Contadero","alternatenames":[""],"latitude":"0.907","longitude":"-77.54729","feature_class":"P","feature_code":"PPL","country_code":"CO","cc2":"","admin1_code":"20","admin2_code":"","admin3_code":"","admin4_code":"","population":"1603","elevation":"","dem":"2572","timezone":"America/Bogota","modification_date":"2011-10-11"},{"geonameid":"3685984","name":"Consacá","asciiname":"Consaca","alternatenames":["Consaca","Consacá"],"latitude":"1.20805","longitude":"-77.46548","feature_class":"P","feature_code":"PPL","country_code":"CO","cc2":"","admin1_code":"20","admin2_code":"","admin3_code":"","admin4_code":"","population":"2239","elevation":"","dem":"1660","timezone":"America/Bogota","modification_date":"2013-10-07"},{"geonameid":"3686867","name":"Chachagüí","asciiname":"Chachagui","alternatenames":[""],"latitude":"1.35943","longitude":"-77.28367","feature_class":"P","feature_code":"PPL","country_code":"CO","cc2":"","admin1_code":"20","admin2_code":"","admin3_code":"","admin4_code":"","population":"4899","elevation":"","dem":"1982","timezone":"America/Bogota","modification_date":"2008-05-21"},{"geonameid":"3687335","name":"Carlosama","asciiname":"Carlosama","alternatenames":["Carlosama","Cuaspud"],"latitude":"0.86292","longitude":"-77.72734","feature_class":"P","feature_code":"PPL","country_code":"CO","cc2":"","admin1_code":"20","admin2_code":"","admin3_code":"","admin4_code":"","population":"2010","elevation":"","dem":"3027","timezone":"America/Bogota","modification_date":"2012-01-19"},{"geonameid":"3688266","name":"Buesaco","asciiname":"Buesaco","alternatenames":["Buesaco","Bueysaco"],"latitude":"1.39017","longitude":"-77.15981","feature_class":"P","feature_code":"PPL","country_code":"CO","cc2":"","admin1_code":"20","admin2_code":"","admin3_code":"","admin4_code":"","population":"4177","elevation":"","dem":"1770","timezone":"America/Bogota","modification_date":"2012-01-19"},{"geonameid":"3688875","name":"Arboleda","asciiname":"Arboleda","alternatenames":["Arboleda","Berruacos","Berruecos"],"latitude":"1.49766","longitude":"-77.13587","feature_class":"P","feature_code":"PPL","country_code":"CO","cc2":"","admin1_code":"20","admin2_code":"","admin3_code":"","admin4_code":"","population":"1736","elevation":"","dem":"2134","timezone":"America/Bogota","modification_date":"2011-12-12"},{"geonameid":"3689006","name":"Belén","asciiname":"Belen","alternatenames":["Belen","Belén"],"latitude":"1.59477","longitude":"-77.05408","feature_class":"P","feature_code":"PPL","country_code":"CO","cc2":"","admin1_code":"20","admin2_code":"","admin3_code":"","admin4_code":"","population":"3131","elevation":"","dem":"2331","timezone":"America/Bogota","modification_date":"2014-06-24"},{"geonameid":"3689228","name":"Barbacoas","asciiname":"Barbacoas","alternatenames":["Barbacoas"],"latitude":"1.67154","longitude":"-78.13978","feature_class":"P","feature_code":"PPL","country_code":"CO","cc2":"","admin1_code":"20","admin2_code":"","admin3_code":"","admin4_code":"","population":"7633","elevation":"","dem":"37","timezone":"America/Bogota","modification_date":"2012-01-19"},{"geonameid":"3689915","name":"Ancuya","asciiname":"Ancuya","alternatenames":["Ancuya"],"latitude":"1.2633","longitude":"-77.51376","feature_class":"P","feature_code":"PPL","country_code":"CO","cc2":"","admin1_code":"20","admin2_code":"","admin3_code":"","admin4_code":"","population":"5852","elevation":"","dem":"1360","timezone":"America/Bogota","modification_date":"2013-10-07"},{"geonameid":"3690226","name":"Aldana","asciiname":"Aldana","alternatenames":["Aldana","Dana"],"latitude":"0.88283","longitude":"-77.70103","feature_class":"P","feature_code":"PPL","country_code":"CO","cc2":"","admin1_code":"20","admin2_code":"","admin3_code":"","admin4_code":"","population":"1956","elevation":"","dem":"3016","timezone":"America/Bogota","modification_date":"2012-01-19"},{"geonameid":"3735680","name":"Santacruz","asciiname":"Santacruz","alternatenames":["Santacruz","Sontarruz"],"latitude":"1.5209","longitude":"-77.26206","feature_class":"P","feature_code":"PPL","country_code":"CO","cc2":"","admin1_code":"20","admin2_code":"","admin3_code":"","admin4_code":"","population":"2469","elevation":"","dem":"1763","timezone":"America/Bogota","modification_date":"2012-01-19"},{"geonameid":"3792396","name":"La Tola","asciiname":"La Tola","alternatenames":["La Tola"],"latitude":"2.41083","longitude":"-78.24278","feature_class":"P","feature_code":"PPL","country_code":"CO","cc2":"","admin1_code":"20","admin2_code":"","admin3_code":"","admin4_code":"","population":"3769","elevation":"","dem":"14","timezone":"America/Bogota","modification_date":"2012-01-19"}]}