{"region_data":{"countryId":"3686110","adminCode1":"17","countryName":"Colombia","fclName":"country, state, region,...","countryCode":"CO","lng":"-72.5","fcodeName":"first-order administrative division","toponymName":"Departamento de La Guajira","fcl":"A","numberOfChildren":15,"name":"Departamento de La Guajira","fcode":"ADM1","geonameId":3678847,"lat":"11.5","adminName1":"La Guajira","population":681575},"country_data":{"ISO":"CO","ISO3":"COL","ISO_Numeric":"170","fips":"CO","country":"Colombia","capital":"Bogota","area":"1138910","Population":"47790000","Continent":"SA","tld":".co","CurrencyCode":"COP","CurrencyName":"Peso","Phone":"57","Postal_Code_Format":"","Postal_Code_Regex":"","Languages":"es-CO","geonameid":"3686110","neighbours":"EC,PE,PA,BR,VE","EquivalentFipsCode":""},"cities":[{"geonameid":"3665934","name":"Villanueva","asciiname":"Villanueva","alternatenames":["Villanueva"],"latitude":"10.60528","longitude":"-72.98","feature_class":"P","feature_code":"PPL","country_code":"CO","cc2":"","admin1_code":"17","admin2_code":"","admin3_code":"","admin4_code":"","population":"18699","elevation":"","dem":"239","timezone":"America/Bogota","modification_date":"2012-01-19"},{"geonameid":"3666381","name":"Urumita","asciiname":"Urumita","alternatenames":["Orumito","Uramita","Urumita"],"latitude":"10.55894","longitude":"-73.01232","feature_class":"P","feature_code":"PPL","country_code":"CO","cc2":"","admin1_code":"17","admin2_code":"","admin3_code":"","admin4_code":"","population":"8509","elevation":"","dem":"248","timezone":"America/Bogota","modification_date":"2012-01-19"},{"geonameid":"3666409","name":"Uribia","asciiname":"Uribia","alternatenames":[""],"latitude":"11.7139","longitude":"-72.26604","feature_class":"P","feature_code":"PPL","country_code":"CO","cc2":"","admin1_code":"17","admin2_code":"","admin3_code":"","admin4_code":"","population":"7519","elevation":"","dem":"23","timezone":"America/Bogota","modification_date":"2011-10-11"},{"geonameid":"3669469","name":"San Juan del Cesar","asciiname":"San Juan del Cesar","alternatenames":["San Juan de Cesar","San Juan de César","San Juan del Cesar"],"latitude":"10.77107","longitude":"-73.00314","feature_class":"P","feature_code":"PPL","country_code":"CO","cc2":"","admin1_code":"17","admin2_code":"","admin3_code":"","admin4_code":"","population":"26848","elevation":"","dem":"214","timezone":"America/Bogota","modification_date":"2012-01-19"},{"geonameid":"3670745","name":"Ríohacha","asciiname":"Riohacha","alternatenames":["Riochacha","Riohacha","Ríohacha"],"latitude":"11.54444","longitude":"-72.90722","feature_class":"P","feature_code":"PPLA","country_code":"CO","cc2":"","admin1_code":"17","admin2_code":"","admin3_code":"","admin4_code":"","population":"92431","elevation":"","dem":"7","timezone":"America/Bogota","modification_date":"2015-06-03"},{"geonameid":"3675504","name":"Manaure","asciiname":"Manaure","alternatenames":["Manare","Manaure"],"latitude":"11.77505","longitude":"-72.44447","feature_class":"P","feature_code":"PPL","country_code":"CO","cc2":"","admin1_code":"17","admin2_code":"","admin3_code":"","admin4_code":"","population":"9703","elevation":"","dem":"3","timezone":"America/Bogota","modification_date":"2012-01-19"},{"geonameid":"3675657","name":"Maicao","asciiname":"Maicao","alternatenames":["Maicao"],"latitude":"11.38321","longitude":"-72.24321","feature_class":"P","feature_code":"PPL","country_code":"CO","cc2":"","admin1_code":"17","admin2_code":"","admin3_code":"","admin4_code":"","population":"130348","elevation":"","dem":"49","timezone":"America/Bogota","modification_date":"2012-01-19"},{"geonameid":"3682374","name":"Fonseca","asciiname":"Fonseca","alternatenames":[""],"latitude":"10.88606","longitude":"-72.8487","feature_class":"P","feature_code":"PPL","country_code":"CO","cc2":"","admin1_code":"17","admin2_code":"","admin3_code":"","admin4_code":"","population":"23509","elevation":"","dem":"182","timezone":"America/Bogota","modification_date":"2011-10-11"},{"geonameid":"3683778","name":"El Molino","asciiname":"El Molino","alternatenames":["El Molino","Molino"],"latitude":"10.65225","longitude":"-72.92405","feature_class":"P","feature_code":"PPL","country_code":"CO","cc2":"","admin1_code":"17","admin2_code":"","admin3_code":"","admin4_code":"","population":"5265","elevation":"","dem":"253","timezone":"America/Bogota","modification_date":"2012-01-19"},{"geonameid":"3685200","name":"Distracción","asciiname":"Distraccion","alternatenames":["Distraccion","Distracción"],"latitude":"10.89693","longitude":"-72.8861","feature_class":"P","feature_code":"PPL","country_code":"CO","cc2":"","admin1_code":"17","admin2_code":"","admin3_code":"","admin4_code":"","population":"4742","elevation":"","dem":"207","timezone":"America/Bogota","modification_date":"2012-01-19"},{"geonameid":"3685223","name":"Dibulla","asciiname":"Dibulla","alternatenames":["Corregimiento Dibulla","Dibulla"],"latitude":"11.27251","longitude":"-73.30911","feature_class":"P","feature_code":"PPL","country_code":"CO","cc2":"","admin1_code":"17","admin2_code":"","admin3_code":"","admin4_code":"","population":"4402","elevation":"","dem":"4","timezone":"America/Bogota","modification_date":"2012-01-19"},{"geonameid":"3689162","name":"Barrancas","asciiname":"Barrancas","alternatenames":[""],"latitude":"10.95756","longitude":"-72.78769","feature_class":"P","feature_code":"PPL","country_code":"CO","cc2":"","admin1_code":"17","admin2_code":"","admin3_code":"","admin4_code":"","population":"17350","elevation":"","dem":"150","timezone":"America/Bogota","modification_date":"2011-10-11"},{"geonameid":"3690250","name":"Albania","asciiname":"Albania","alternatenames":["Albania","Albanio"],"latitude":"11.16099","longitude":"-72.59238","feature_class":"P","feature_code":"PPL","country_code":"CO","cc2":"","admin1_code":"17","admin2_code":"","admin3_code":"","admin4_code":"","population":"6364","elevation":"","dem":"94","timezone":"America/Bogota","modification_date":"2012-01-19"}]}