{"region_data":{"countryId":"3686110","adminCode1":"23","countryName":"Colombia","fclName":"country, state, region,...","countryCode":"CO","lng":"-75.66667","fcodeName":"first-order administrative division","toponymName":"Quindío Department","fcl":"A","numberOfChildren":12,"name":"Quindío Department","fcode":"ADM1","geonameId":3671087,"lat":"4.5","adminName1":"Quindío","population":534552},"country_data":{"ISO":"CO","ISO3":"COL","ISO_Numeric":"170","fips":"CO","country":"Colombia","capital":"Bogota","area":"1138910","Population":"47790000","Continent":"SA","tld":".co","CurrencyCode":"COP","CurrencyName":"Peso","Phone":"57","Postal_Code_Format":"","Postal_Code_Regex":"","Languages":"es-CO","geonameid":"3686110","neighbours":"EC,PE,PA,BR,VE","EquivalentFipsCode":""},"cities":[{"geonameid":"3670352","name":"Salento","asciiname":"Salento","alternatenames":["Salento"],"latitude":"4.6375","longitude":"-75.57028","feature_class":"P","feature_code":"PPL","country_code":"CO","cc2":"","admin1_code":"23","admin2_code":"","admin3_code":"","admin4_code":"","population":"4135","elevation":"","dem":"1995","timezone":"America/Bogota","modification_date":"2012-01-19"},{"geonameid":"3671098","name":"Quimbaya","asciiname":"Quimbaya","alternatenames":["Quimbaya"],"latitude":"4.62306","longitude":"-75.76278","feature_class":"P","feature_code":"PPL","country_code":"CO","cc2":"","admin1_code":"23","admin2_code":"","admin3_code":"","admin4_code":"","population":"31391","elevation":"","dem":"1313","timezone":"America/Bogota","modification_date":"2012-10-24"},{"geonameid":"3672255","name":"Pijao","asciiname":"Pijao","alternatenames":["Pijao"],"latitude":"4.33419","longitude":"-75.70348","feature_class":"P","feature_code":"PPL","country_code":"CO","cc2":"","admin1_code":"23","admin2_code":"","admin3_code":"","admin4_code":"","population":"5668","elevation":"","dem":"1656","timezone":"America/Bogota","modification_date":"2012-01-19"},{"geonameid":"3674463","name":"Montenegro","asciiname":"Montenegro","alternatenames":[""],"latitude":"4.56639","longitude":"-75.75111","feature_class":"P","feature_code":"PPL","country_code":"CO","cc2":"","admin1_code":"23","admin2_code":"","admin3_code":"","admin4_code":"","population":"36499","elevation":"","dem":"1297","timezone":"America/Bogota","modification_date":"2006-01-17"},{"geonameid":"3677010","name":"La Tebaida","asciiname":"La Tebaida","alternatenames":["La Tebaida","Tebaida"],"latitude":"4.45265","longitude":"-75.78746","feature_class":"P","feature_code":"PPLA2","country_code":"CO","cc2":"","admin1_code":"23","admin2_code":"3677011","admin3_code":"","admin4_code":"","population":"27098","elevation":"","dem":"1191","timezone":"America/Bogota","modification_date":"2012-11-25"},{"geonameid":"3682068","name":"Génova","asciiname":"Genova","alternatenames":[""],"latitude":"4.31667","longitude":"-75.76667","feature_class":"P","feature_code":"PPL","country_code":"CO","cc2":"","admin1_code":"23","admin2_code":"","admin3_code":"","admin4_code":"","population":"7140","elevation":"","dem":"1228","timezone":"America/Bogota","modification_date":"2006-01-17"},{"geonameid":"3682473","name":"Filandia","asciiname":"Filandia","alternatenames":["Filandia","Finlandia"],"latitude":"4.67472","longitude":"-75.65833","feature_class":"P","feature_code":"PPL","country_code":"CO","cc2":"","admin1_code":"23","admin2_code":"","admin3_code":"","admin4_code":"","population":"6851","elevation":"","dem":"1919","timezone":"America/Bogota","modification_date":"2012-01-19"},{"geonameid":"3685900","name":"Córdoba","asciiname":"Cordoba","alternatenames":["Cordoba","Cordova","Córdoba","Córdova"],"latitude":"4.39318","longitude":"-75.68935","feature_class":"P","feature_code":"PPL","country_code":"CO","cc2":"","admin1_code":"23","admin2_code":"","admin3_code":"","admin4_code":"","population":"4063","elevation":"","dem":"1478","timezone":"America/Bogota","modification_date":"2012-01-19"},{"geonameid":"3686233","name":"Circasia","asciiname":"Circasia","alternatenames":["Circacia","Circasia"],"latitude":"4.61889","longitude":"-75.63583","feature_class":"P","feature_code":"PPL","country_code":"CO","cc2":"","admin1_code":"23","admin2_code":"","admin3_code":"","admin4_code":"","population":"20113","elevation":"","dem":"1772","timezone":"America/Bogota","modification_date":"2012-01-19"},{"geonameid":"3687964","name":"Calarcá","asciiname":"Calarca","alternatenames":["Calarca","Calarcá"],"latitude":"4.52949","longitude":"-75.64091","feature_class":"P","feature_code":"PPL","country_code":"CO","cc2":"","admin1_code":"23","admin2_code":"","admin3_code":"","admin4_code":"","population":"62170","elevation":"","dem":"1537","timezone":"America/Bogota","modification_date":"2012-01-19"},{"geonameid":"3688433","name":"Buenavista","asciiname":"Buenavista","alternatenames":["Buenavista","El Tolra","El Tolrá"],"latitude":"4.3539","longitude":"-75.71782","feature_class":"P","feature_code":"PPL","country_code":"CO","cc2":"","admin1_code":"23","admin2_code":"","admin3_code":"","admin4_code":"","population":"2084","elevation":"","dem":"1860","timezone":"America/Bogota","modification_date":"2012-01-19"},{"geonameid":"3689560","name":"Armenia","asciiname":"Armenia","alternatenames":["AXM","Armenia"],"latitude":"4.53389","longitude":"-75.68111","feature_class":"P","feature_code":"PPLA","country_code":"CO","cc2":"","admin1_code":"23","admin2_code":"","admin3_code":"","admin4_code":"","population":"315328","elevation":"","dem":"1480","timezone":"America/Bogota","modification_date":"2012-01-19"}]}