{"region_data":{"countryId":"390903","adminCode1":"ESYE31","countryName":"Greece","fclName":"country, state, region,...","countryCode":"GR","lng":"23.9035","fcodeName":"first-order administrative division","toponymName":"Attica","fcl":"A","numberOfChildren":5,"name":"Attica","fcode":"ADM1","geonameId":6692632,"lat":"37.92037","adminName1":"Attica","population":3761810},"country_data":{"ISO":"GR","ISO3":"GRC","ISO_Numeric":"300","fips":"GR","country":"Greece","capital":"Athens","area":"131940","Population":"11000000","Continent":"EU","tld":".gr","CurrencyCode":"EUR","CurrencyName":"Euro","Phone":"30","Postal_Code_Format":"### ##","Postal_Code_Regex":"^(\\d{5})$","Languages":"el-GR,en,fr","geonameid":"390903","neighbours":"AL,MK,TR,BG","EquivalentFipsCode":""},"cities":[{"geonameid":"251671","name":"Vraná","asciiname":"Vrana","alternatenames":["Vrana","Vranas","Vraná","Βρανάς"],"latitude":"38.12497","longitude":"23.95198","feature_class":"P","feature_code":"PPL","country_code":"GR","cc2":"","admin1_code":"ESYE31","admin2_code":"445406","admin3_code":"9220","admin4_code":"","population":"1082","elevation":"","dem":"33","timezone":"Europe/Athens","modification_date":"2014-05-21"},{"geonameid":"251773","name":"Vouliagméni","asciiname":"Vouliagmeni","alternatenames":["Vouliagmeni","Vouliagméni","Βουλιαγμένη"],"latitude":"37.81423","longitude":"23.77892","feature_class":"P","feature_code":"PPL","country_code":"GR","cc2":"","admin1_code":"ESYE31","admin2_code":"445406","admin3_code":"9216","admin4_code":"","population":"4180","elevation":"","dem":"6","timezone":"Europe/Athens","modification_date":"2014-08-26"},{"geonameid":"251780","name":"Voúla","asciiname":"Voula","alternatenames":["Voula","Voúla","Vule","Βούλα","Вуле"],"latitude":"37.84221","longitude":"23.77651","feature_class":"P","feature_code":"PPLA3","country_code":"GR","cc2":"","admin1_code":"ESYE31","admin2_code":"445406","admin3_code":"9216","admin4_code":"","population":"28364","elevation":"","dem":"54","timezone":"Europe/Athens","modification_date":"2014-08-26"},{"geonameid":"251948","name":"Výronas","asciiname":"Vyronas","alternatenames":["Viron","Vyron","Vyronas","Víron","Výronas","Βύρων","Βύρωνας"],"latitude":"37.96105","longitude":"23.753","feature_class":"P","feature_code":"PPLA3","country_code":"GR","cc2":"","admin1_code":"ESYE31","admin2_code":"445408","admin3_code":"9187","admin4_code":"","population":"61308","elevation":"","dem":"143","timezone":"Europe/Athens","modification_date":"2014-08-26"},{"geonameid":"251959","name":"Vília","asciiname":"Vilia","alternatenames":["Bilia","Vilia","Villia","Vília","Βίλια"],"latitude":"38.16716","longitude":"23.33659","feature_class":"P","feature_code":"PPL","country_code":"GR","cc2":"","admin1_code":"ESYE31","admin2_code":"445407","admin3_code":"9230","admin4_code":"","population":"1269","elevation":"","dem":"508","timezone":"Europe/Athens","modification_date":"2014-05-22"},{"geonameid":"252165","name":"Vathí","asciiname":"Vathi","alternatenames":["Vathi","Vathy","Vathí","Βαθύ"],"latitude":"37.76567","longitude":"23.4812","feature_class":"P","feature_code":"PPL","country_code":"GR","cc2":"","admin1_code":"ESYE31","admin2_code":"406101","admin3_code":"9208","admin4_code":"","population":"1495","elevation":"","dem":"48","timezone":"Europe/Athens","modification_date":"2014-08-30"},{"geonameid":"252244","name":"Varnávas","asciiname":"Varnavas","alternatenames":["Barnabas","Varnavas","Varnávas","Βαρνάβας"],"latitude":"38.22358","longitude":"23.92307","feature_class":"P","feature_code":"PPL","country_code":"GR","cc2":"","admin1_code":"ESYE31","admin2_code":"445406","admin3_code":"9220","admin4_code":"","population":"1326","elevation":"","dem":"465","timezone":"Europe/Athens","modification_date":"2014-05-21"},{"geonameid":"252270","name":"Vári","asciiname":"Vari","alternatenames":["Vari","Vári","Βάρη"],"latitude":"37.8312","longitude":"23.80809","feature_class":"P","feature_code":"PPL","country_code":"GR","cc2":"","admin1_code":"ESYE31","admin2_code":"445406","admin3_code":"9216","admin4_code":"","population":"15855","elevation":"","dem":"18","timezone":"Europe/Athens","modification_date":"2014-08-26"},{"geonameid":"253025","name":"Távros","asciiname":"Tavros","alternatenames":["Nea Sfayia","Néa Sfayía","Tavros","Távros","Ταύρος"],"latitude":"37.97064","longitude":"23.69043","feature_class":"P","feature_code":"PPL","country_code":"GR","cc2":"","admin1_code":"ESYE31","admin2_code":"445408","admin3_code":"9199","admin4_code":"","population":"14972","elevation":"","dem":"23","timezone":"Europe/Athens","modification_date":"2014-08-26"},{"geonameid":"253302","name":"Stamáta","asciiname":"Stamata","alternatenames":["Stamata","Stamáta","Σταμάτα"],"latitude":"38.13333","longitude":"23.88333","feature_class":"P","feature_code":"PPL","country_code":"GR","cc2":"","admin1_code":"ESYE31","admin2_code":"445406","admin3_code":"9217","admin4_code":"","population":"2906","elevation":"","dem":"355","timezone":"Europe/Athens","modification_date":"2014-08-26"},{"geonameid":"253356","name":"Spétses","asciiname":"Spetses","alternatenames":["Pityoussa","Spetes","Spetsai","Spetses","Spezzia","Spétsai","Spétses","Πιτυούσσα","Σπέτες","Σπέτσαι","Σπέτσες"],"latitude":"37.26191","longitude":"23.15943","feature_class":"P","feature_code":"PPLA3","country_code":"GR","cc2":"","admin1_code":"ESYE31","admin2_code":"406101","admin3_code":"9212","admin4_code":"","population":"4001","elevation":"","dem":"14","timezone":"Europe/Athens","modification_date":"2014-08-19"},{"geonameid":"253376","name":"Spáta","asciiname":"Spata","alternatenames":["Spata","Spáta","Σπάτα"],"latitude":"37.96163","longitude":"23.91514","feature_class":"P","feature_code":"PPLA3","country_code":"GR","cc2":"","admin1_code":"ESYE31","admin2_code":"445406","admin3_code":"9226","admin4_code":"","population":"9198","elevation":"","dem":"142","timezone":"Europe/Athens","modification_date":"2014-05-22"},{"geonameid":"253688","name":"Skaramangás","asciiname":"Skaramangas","alternatenames":["Scaramanga","Skaramagkas","Skaramanga","Skaramangas","Skaramangá","Skaramangás","Skaramankas","Skarmankas","Σκαραμαγκάς","Σκαρμαγκάς"],"latitude":"38.00817","longitude":"23.60226","feature_class":"P","feature_code":"PPL","country_code":"GR","cc2":"","admin1_code":"ESYE31","admin2_code":"445408","admin3_code":"9185","admin4_code":"","population":"1255","elevation":"","dem":"16","timezone":"Europe/Athens","modification_date":"2014-05-19"},{"geonameid":"253716","name":"Skála Oropoú","asciiname":"Skala Oropou","alternatenames":["Scalaorapou","Skala Oropou","Skála Oropoú","Σκάλα Όρωπού"],"latitude":"38.31964","longitude":"23.78763","feature_class":"P","feature_code":"PPL","country_code":"GR","cc2":"","admin1_code":"ESYE31","admin2_code":"445406","admin3_code":"9227","admin4_code":"","population":"1430","elevation":"","dem":"4","timezone":"Europe/Athens","modification_date":"2014-05-22"},{"geonameid":"254030","name":"Selínia","asciiname":"Selinia","alternatenames":["Selinia","Selínia","Σελήνια"],"latitude":"37.9332","longitude":"23.53147","feature_class":"P","feature_code":"PPL","country_code":"GR","cc2":"","admin1_code":"ESYE31","admin2_code":"406101","admin3_code":"9211","admin4_code":"","population":"2509","elevation":"","dem":"19","timezone":"Europe/Athens","modification_date":"2014-09-06"},{"geonameid":"254144","name":"Salamína","asciiname":"Salamina","alternatenames":["Koulouri","Koúlouri","Salamina","Salamis","Salamís","Σαλαμίνα","Σαλαμίς","Саламина"],"latitude":"37.96427","longitude":"23.49649","feature_class":"P","feature_code":"PPLA3","country_code":"GR","cc2":"","admin1_code":"ESYE31","admin2_code":"406101","admin3_code":"9211","admin4_code":"","population":"25370","elevation":"","dem":"5","timezone":"Europe/Athens","modification_date":"2014-09-06"},{"geonameid":"254425","name":"Rafína","asciiname":"Rafina","alternatenames":["Arafin","Aráfin","Rafina","Rafína","Triglia","Tríglia","Αράφην","Ραφήνα"],"latitude":"38.01812","longitude":"24.00599","feature_class":"P","feature_code":"PPLA3","country_code":"GR","cc2":"","admin1_code":"ESYE31","admin2_code":"445406","admin3_code":"9224","admin4_code":"","population":"12168","elevation":"","dem":"11","timezone":"Europe/Athens","modification_date":"2014-05-22"},{"geonameid":"254505","name":"Psychikó","asciiname":"Psychiko","alternatenames":["Psichiko","Psikhiko","Psikhikon","Psikhikó","Psikhikón","Psychico","Psychiko","Psychikó","Psykiko","Ψυχικό"],"latitude":"38.01324","longitude":"23.77223","feature_class":"P","feature_code":"PPLA3","country_code":"GR","cc2":"","admin1_code":"ESYE31","admin2_code":"445408","admin3_code":"9177","admin4_code":"","population":"9529","elevation":"","dem":"197","timezone":"Europe/Athens","modification_date":"2014-08-26"},{"geonameid":"254865","name":"Póros","asciiname":"Poros","alternatenames":["Poros","Póros","Πόρος"],"latitude":"37.49944","longitude":"23.45361","feature_class":"P","feature_code":"PPLA3","country_code":"GR","cc2":"","admin1_code":"ESYE31","admin2_code":"406101","admin3_code":"9210","admin4_code":"","population":"3651","elevation":"","dem":"23","timezone":"Europe/Athens","modification_date":"2014-09-03"},{"geonameid":"254924","name":"Polydéndri","asciiname":"Polydendri","alternatenames":["Mazi","Polidhendhri","Polidhendri","Polidhendrion","Polidhéndhri","Polidhéndri","Polidhéndrion","Polydendri","Polydéndri","Μάζι","Πολυδένδρι"],"latitude":"38.21667","longitude":"23.86667","feature_class":"P","feature_code":"PPL","country_code":"GR","cc2":"","admin1_code":"ESYE31","admin2_code":"445406","admin3_code":"9227","admin4_code":"","population":"1385","elevation":"","dem":"339","timezone":"Europe/Athens","modification_date":"2014-05-22"},{"geonameid":"255274","name":"Piraeus","asciiname":"Piraeus","alternatenames":["El Pireo","El Pireu","Gorad Pirehj","Il Pireo","Le Piree","Le Pirée","Lo Pireu","Lo Pirèu","O Pireo","Peiraeus","Peiraia","Peiraias","Peiraiefs","Peiraieus","Peiraievs","Peiraiá","Peiraiás","Peiraiéfs","Piraeus","Piraievs","Piraiévs","Piraus","Pire","Pireas","Pireefs","Pirej","Pireja","Pirejas","Pireo","Pireu","Pireus","Pireusz","Piräus","Piræus","Piréefs","Pirėjas","bi lei ai fu si","byrayws","phiri xas","pileaseu","pireusu","pyrh","Πειραιάς","Πειραιεύς","Горад Пірэй","Пирей","Пирея","Пиреј","Пірей","פיראוס","بيرايوس","پیره","ไพรีอัส","ピレウス","比雷埃夫斯","피레아스"],"latitude":"37.94745","longitude":"23.63708","feature_class":"P","feature_code":"PPLA3","country_code":"GR","cc2":"","admin1_code":"ESYE31","admin2_code":"35","admin3_code":"","admin4_code":"","population":"163688","elevation":"","dem":"12","timezone":"Europe/Athens","modification_date":"2015-06-25"},{"geonameid":"255319","name":"Pikérmi","asciiname":"Pikermi","alternatenames":["Kato Pikermi","Káto Pikérmi","Passadhes","Passádhes","Pikermi","Pikermion","Pikérmi","Pikérmion","Πικέρμι","Πικέρμιον"],"latitude":"38.00161","longitude":"23.94075","feature_class":"P","feature_code":"PPL","country_code":"GR","cc2":"","admin1_code":"ESYE31","admin2_code":"445406","admin3_code":"9224","admin4_code":"","population":"2009","elevation":"","dem":"106","timezone":"Europe/Athens","modification_date":"2014-05-22"},{"geonameid":"255377","name":"Petroúpolis","asciiname":"Petroupolis","alternatenames":["Kipoupolis","Kipoúpolis","Petroupoli","Petroupolis","Πετρούπολη","Петроуполис"],"latitude":"38.04187","longitude":"23.68494","feature_class":"P","feature_code":"PPLA3","country_code":"GR","cc2":"","admin1_code":"ESYE31","admin2_code":"445408","admin3_code":"9184","admin4_code":"","population":"58979","elevation":"","dem":"144","timezone":"Europe/Athens","modification_date":"2014-08-26"},{"geonameid":"255524","name":"Peristéri","asciiname":"Peristeri","alternatenames":["Peristeri","Peristeri Attikes","Peristerion","Peristéri","Peristérion","Περιστέρι","Περιστέρι Αττικής","Περιστέριον","Перистерион"],"latitude":"38.01539","longitude":"23.69187","feature_class":"P","feature_code":"PPLA3","country_code":"GR","cc2":"","admin1_code":"ESYE31","admin2_code":"445408","admin3_code":"9183","admin4_code":"","population":"139981","elevation":"","dem":"66","timezone":"Europe/Athens","modification_date":"2014-08-26"},{"geonameid":"255588","name":"Pérama","asciiname":"Perama","alternatenames":["Perama","Pérama","Πέραμα","Перама"],"latitude":"37.96775","longitude":"23.5721","feature_class":"P","feature_code":"PPLA3","country_code":"GR","cc2":"","admin1_code":"ESYE31","admin2_code":"406101","admin3_code":"9206","admin4_code":"","population":"25389","elevation":"","dem":"71","timezone":"Europe/Athens","modification_date":"2014-08-26"},{"geonameid":"255610","name":"Pentéli","asciiname":"Penteli","alternatenames":["Pendeli","Pendéli","Penteli","Pentéli","Πεντέλη"],"latitude":"38.05","longitude":"23.86667","feature_class":"P","feature_code":"PPLA3","country_code":"GR","cc2":"","admin1_code":"ESYE31","admin2_code":"445408","admin3_code":"9176","admin4_code":"","population":"4851","elevation":"","dem":"450","timezone":"Europe/Athens","modification_date":"2014-08-26"},{"geonameid":"255971","name":"Pallíni","asciiname":"Pallini","alternatenames":["Ano Kharvati","Pallini","Pallíni","Áno Kharváti","Παλλήνη"],"latitude":"37.99702","longitude":"23.87723","feature_class":"P","feature_code":"PPL","country_code":"GR","cc2":"","admin1_code":"ESYE31","admin2_code":"445406","admin3_code":"9223","admin4_code":"","population":"14808","elevation":"","dem":"176","timezone":"Europe/Athens","modification_date":"2014-09-10"},{"geonameid":"256075","name":"Palaió Fáliro","asciiname":"Palaio Faliro","alternatenames":["Alt Phaleron","Old Faliron","Palaio Faliro","Palaion Faliron","Palaió Fáliro","Palaión Fáliron","Paleo Faliro","Palio Faliro","Παλαιό Φάληρο","Παλαιόν Φάληρον","Παλιό Φάληρο"],"latitude":"37.92812","longitude":"23.70105","feature_class":"P","feature_code":"PPLA3","country_code":"GR","cc2":"","admin1_code":"ESYE31","admin2_code":"445408","admin3_code":"9201","admin4_code":"","population":"64021","elevation":"","dem":"18","timezone":"Europe/Athens","modification_date":"2014-08-26"},{"geonameid":"256173","name":"Palaiá Fókaia","asciiname":"Palaia Fokaia","alternatenames":["Fokaia","Fókaia","Palaia Fokaia","Palaiá Fókaia","Παλαιά Φώκαια","Φώκαια"],"latitude":"37.71998","longitude":"23.94792","feature_class":"P","feature_code":"PPL","country_code":"GR","cc2":"","admin1_code":"ESYE31","admin2_code":"445406","admin3_code":"9225","admin4_code":"","population":"2713","elevation":"","dem":"8","timezone":"Europe/Athens","modification_date":"2014-09-10"},{"geonameid":"256197","name":"Paianía","asciiname":"Paiania","alternatenames":["Liopesi","Liópesi","Paiania","Paianía","Παιανία"],"latitude":"37.95527","longitude":"23.85443","feature_class":"P","feature_code":"PPLA3","country_code":"GR","cc2":"","admin1_code":"ESYE31","admin2_code":"445406","admin3_code":"9222","admin4_code":"","population":"14595","elevation":"","dem":"183","timezone":"Europe/Athens","modification_date":"2014-05-22"},{"geonameid":"256257","name":"Oropós","asciiname":"Oropos","alternatenames":["Oropos","Oropus","Oropós","Ωρωπός"],"latitude":"38.30326","longitude":"23.75549","feature_class":"P","feature_code":"PPLA3","country_code":"GR","cc2":"","admin1_code":"ESYE31","admin2_code":"445406","admin3_code":"9227","admin4_code":"","population":"1111","elevation":"","dem":"32","timezone":"Europe/Athens","modification_date":"2014-05-22"},{"geonameid":"256342","name":"Papágou","asciiname":"Papagou","alternatenames":["Oikismos Papagou","Oikismós Papágou","Papagos","Papagou","Papágos","Papágou","Οικισμός Παπάγου","Παπάγου"],"latitude":"37.98642","longitude":"23.79347","feature_class":"P","feature_code":"PPL","country_code":"GR","cc2":"","admin1_code":"ESYE31","admin2_code":"445408","admin3_code":"9175","admin4_code":"","population":"13699","elevation":"","dem":"222","timezone":"Europe/Athens","modification_date":"2014-08-26"},{"geonameid":"256429","name":"Níkaia","asciiname":"Nikaia","alternatenames":["Nea Kokkinia","Neokokinis","Nikaia","Nikea","Néa Kokkiniá","Níkaia","Νέα Κοκκινιά","Νίκαια"],"latitude":"37.96667","longitude":"23.65","feature_class":"P","feature_code":"PPLA3","country_code":"GR","cc2":"","admin1_code":"ESYE31","admin2_code":"406101","admin3_code":"9204","admin4_code":"","population":"89380","elevation":"","dem":"30","timezone":"Europe/Athens","modification_date":"2014-05-26"},{"geonameid":"256575","name":"Néa Smýrni","asciiname":"Nea Smyrni","alternatenames":["Nea Smirni","Nea Smyrne","Nea Smyrni","Néa Smírni","Néa Smýrni","Νέα Σμύρνη"],"latitude":"37.94504","longitude":"23.71416","feature_class":"P","feature_code":"PPLA3","country_code":"GR","cc2":"","admin1_code":"ESYE31","admin2_code":"445408","admin3_code":"9200","admin4_code":"","population":"73076","elevation":"","dem":"57","timezone":"Europe/Athens","modification_date":"2014-08-26"},{"geonameid":"256592","name":"Néa Péramos","asciiname":"Nea Peramos","alternatenames":["Nea Peramos","Néa Péramos","Νέα Πέραμος"],"latitude":"38.00763","longitude":"23.42295","feature_class":"P","feature_code":"PPL","country_code":"GR","cc2":"","admin1_code":"ESYE31","admin2_code":"445407","admin3_code":"9231","admin4_code":"","population":"8333","elevation":"","dem":"17","timezone":"Europe/Athens","modification_date":"2014-05-23"},{"geonameid":"256593","name":"Néa Palátia","asciiname":"Nea Palatia","alternatenames":["Nea Palatia","Néa Palátia","Νέα Παλάτια"],"latitude":"38.31942","longitude":"23.79649","feature_class":"P","feature_code":"PPL","country_code":"GR","cc2":"","admin1_code":"ESYE31","admin2_code":"445406","admin3_code":"9227","admin4_code":"","population":"2723","elevation":"","dem":"17","timezone":"Europe/Athens","modification_date":"2014-05-22"},{"geonameid":"256598","name":"Néa Mákri","asciiname":"Nea Makri","alternatenames":["Ayios Konstandinos","Nea Makre","Nea Makri","Néa Mákri","Áyios Konstandínos","Νέα Μάκρη"],"latitude":"38.08733","longitude":"23.97642","feature_class":"P","feature_code":"PPL","country_code":"GR","cc2":"","admin1_code":"ESYE31","admin2_code":"445406","admin3_code":"9220","admin4_code":"","population":"15554","elevation":"","dem":"15","timezone":"Europe/Athens","modification_date":"2014-05-21"},{"geonameid":"256601","name":"Ílion","asciiname":"Ilion","alternatenames":["Ilion","Kato Liosia","Káto Liósia","Nea Liosia","Néa Liósia","Ílion","Ίλιον","Νέα Λιόσια"],"latitude":"38.03333","longitude":"23.7","feature_class":"P","feature_code":"PPLA3","country_code":"GR","cc2":"","admin1_code":"ESYE31","admin2_code":"445408","admin3_code":"9182","admin4_code":"","population":"84793","elevation":"","dem":"90","timezone":"Europe/Athens","modification_date":"2014-08-26"},{"geonameid":"256614","name":"Néa Ionía","asciiname":"Nea Ionia","alternatenames":["Nea Ionia","Néa Ionía","Podharadhes","Podharádhes","Νέα Ιωνία"],"latitude":"38.0357","longitude":"23.75733","feature_class":"P","feature_code":"PPLA3","country_code":"GR","cc2":"","admin1_code":"ESYE31","admin2_code":"445408","admin3_code":"9174","admin4_code":"","population":"67134","elevation":"","dem":"152","timezone":"Europe/Athens","modification_date":"2014-08-26"},{"geonameid":"256621","name":"Néa Filadélfeia","asciiname":"Nea Filadelfeia","alternatenames":["Filadelfia","Nea Filadelfeia","Nea Filadhelfia","Néa Filadhélfia","Néa Filadélfeia","Podhoniftis","Podhoníftis","Νέα Φιλαδέλφεια"],"latitude":"38.03491","longitude":"23.73811","feature_class":"P","feature_code":"PPLA3","country_code":"GR","cc2":"","admin1_code":"ESYE31","admin2_code":"445408","admin3_code":"9193","admin4_code":"","population":"25734","elevation":"","dem":"104","timezone":"Europe/Athens","modification_date":"2014-08-26"},{"geonameid":"256622","name":"Néa Erythraía","asciiname":"Nea Erythraia","alternatenames":["Nea Erithraia","Nea Erythraia","Néa Erithraía","Néa Erythraía","Νέα Ερυθραία"],"latitude":"38.1","longitude":"23.81667","feature_class":"P","feature_code":"PPL","country_code":"GR","cc2":"","admin1_code":"ESYE31","admin2_code":"445408","admin3_code":"9171","admin4_code":"","population":"17379","elevation":"","dem":"274","timezone":"Europe/Athens","modification_date":"2014-08-26"},{"geonameid":"256750","name":"Moskháton","asciiname":"Moskhaton","alternatenames":["Moschato","Moschaton","Moscháto","Moscháton","Μοσχάτο","Μοσχάτον"],"latitude":"37.94789","longitude":"23.6788","feature_class":"P","feature_code":"PPLA3","country_code":"GR","cc2":"","admin1_code":"ESYE31","admin2_code":"445408","admin3_code":"9199","admin4_code":"","population":"25441","elevation":"","dem":"6","timezone":"Europe/Athens","modification_date":"2014-08-26"},{"geonameid":"257302","name":"Melíssia","asciiname":"Melissia","alternatenames":["Melissia","Melissija","Melíssia","Μελίσσια","Мелиссия"],"latitude":"38.05","longitude":"23.83333","feature_class":"P","feature_code":"PPLA3","country_code":"GR","cc2":"","admin1_code":"ESYE31","admin2_code":"445408","admin3_code":"9176","admin4_code":"","population":"22741","elevation":"","dem":"273","timezone":"Europe/Athens","modification_date":"2014-08-26"},{"geonameid":"257365","name":"Mégara","asciiname":"Megara","alternatenames":["Megara","Megare","Mégara","Mégare","megala","Μέγαρα","Мегара","메가라"],"latitude":"37.99471","longitude":"23.34324","feature_class":"P","feature_code":"PPLA3","country_code":"GR","cc2":"","admin1_code":"ESYE31","admin2_code":"445407","admin3_code":"9231","admin4_code":"","population":"23456","elevation":"","dem":"35","timezone":"Europe/Athens","modification_date":"2014-05-23"},{"geonameid":"257669","name":"Markópoulo Oropoú","asciiname":"Markopoulo Oropou","alternatenames":["Markopoulo Oropou","Markopoulon","Markopoulon Oropion","Markopoulon Oropou","Markópoulo Oropoú","Markópoulon","Markópoulon Oropoú","Markópoulon Óropion","Μαρκόπουλο Ωρωπού"],"latitude":"38.2898","longitude":"23.82475","feature_class":"P","feature_code":"PPL","country_code":"GR","cc2":"","admin1_code":"ESYE31","admin2_code":"445406","admin3_code":"9227","admin4_code":"","population":"2549","elevation":"","dem":"185","timezone":"Europe/Athens","modification_date":"2014-05-22"},{"geonameid":"257671","name":"Markópoulo","asciiname":"Markopoulo","alternatenames":["Markopoulo","Markopoulo Mesogaias","Markopoulon","Markopulo","Markópoulo","Markópoulon","Mavrovouni","Mavrovoúni","Μαρκόπουλο Μεσογαίας","Μαρκόπουλον"],"latitude":"37.88333","longitude":"23.93333","feature_class":"P","feature_code":"PPLA3","country_code":"GR","cc2":"","admin1_code":"ESYE31","admin2_code":"445406","admin3_code":"9221","admin4_code":"","population":"9513","elevation":"","dem":"95","timezone":"Europe/Athens","modification_date":"2014-05-22"},{"geonameid":"257717","name":"Marathónas","asciiname":"Marathonas","alternatenames":["Marafon","Marathon","Marathona","Marathonas","Marathón","Marathóna","Marathónas","Marato","Maraton","Maratona","Marató","Maratón","ma la song","maraton","Μαραθών","Μαραθώνας","Маратон","Марафон","マラトン","马拉松"],"latitude":"38.15317","longitude":"23.96278","feature_class":"P","feature_code":"PPLA3","country_code":"GR","cc2":"","admin1_code":"ESYE31","admin2_code":"445406","admin3_code":"9220","admin4_code":"","population":"7170","elevation":"","dem":"40","timezone":"Europe/Athens","modification_date":"2014-05-21"},{"geonameid":"257811","name":"Mándra","asciiname":"Mandra","alternatenames":["Mandhra","Mandra","Mándhra","Mándra","Μάνδρα"],"latitude":"38.06667","longitude":"23.5","feature_class":"P","feature_code":"PPLA3","country_code":"GR","cc2":"","admin1_code":"ESYE31","admin2_code":"445407","admin3_code":"9230","admin4_code":"","population":"11327","elevation":"","dem":"79","timezone":"Europe/Athens","modification_date":"2014-08-26"},{"geonameid":"258007","name":"Magoúla","asciiname":"Magoula","alternatenames":["Magoula","Magoúla","Μαγούλα"],"latitude":"38.07989","longitude":"23.52108","feature_class":"P","feature_code":"PPL","country_code":"GR","cc2":"","admin1_code":"ESYE31","admin2_code":"445407","admin3_code":"9229","admin4_code":"","population":"4735","elevation":"","dem":"76","timezone":"Europe/Athens","modification_date":"2014-05-22"},{"geonameid":"258038","name":"Artémida","asciiname":"Artemida","alternatenames":["Artemi","Artemida","Artemis","Artémida","Loutsa","Loútsa","Ártemis","Άρτεμη","Άρτεμις","Αρτέμιδα","Λούτσα"],"latitude":"37.96667","longitude":"24","feature_class":"P","feature_code":"PPL","country_code":"GR","cc2":"","admin1_code":"ESYE31","admin2_code":"445406","admin3_code":"9226","admin4_code":"","population":"21488","elevation":"","dem":"26","timezone":"Europe/Athens","modification_date":"2014-05-22"},{"geonameid":"258314","name":"Limín Mesoyaías","asciiname":"Limin Mesoyaias","alternatenames":["Limin Markopoulou","Limin Mesogaias","Limin Mesoyaias","Limín Mesoyaías","Porto Rafti","Pórto Ráfti","Schneiderhafen","Λιμήν Μαρκοπούλου","Λιμήν Μεσογαίας","Πόρτο Ράφτη"],"latitude":"37.89108","longitude":"24.00307","feature_class":"P","feature_code":"PPL","country_code":"GR","cc2":"","admin1_code":"ESYE31","admin2_code":"445406","admin3_code":"9221","admin4_code":"","population":"9686","elevation":"","dem":"21","timezone":"Europe/Athens","modification_date":"2014-09-10"},{"geonameid":"258332","name":"Lykóvrysi","asciiname":"Lykovrysi","alternatenames":["Likovrisi","Likóvrisi","Lycovrissi","Lykobryse","Lykovrisi","Lykovrysi","Lykóvrysi","Λυκόβρυση"],"latitude":"38.06667","longitude":"23.78333","feature_class":"P","feature_code":"PPL","country_code":"GR","cc2":"","admin1_code":"ESYE31","admin2_code":"445408","admin3_code":"9172","admin4_code":"","population":"9650","elevation":"","dem":"243","timezone":"Europe/Athens","modification_date":"2014-08-26"},{"geonameid":"258508","name":"Leondárion","asciiname":"Leondarion","alternatenames":["Kambas","Kambás","Kanca","Kandza","Kantza","Ktima Kantza","Kándza","Kántza","Leondarion","Leondárion","Leontario","Leontarion","Liontari","Liotari","Κάντζα","Κτήμα Κάντζα","Λεοντάριο","Λεοντάριον","Λιοντάρι","Канца","Лиота́ри"],"latitude":"37.987","longitude":"23.85518","feature_class":"P","feature_code":"PPL","country_code":"GR","cc2":"","admin1_code":"ESYE31","admin2_code":"445406","admin3_code":"9223","admin4_code":"","population":"5929","elevation":"","dem":"207","timezone":"Europe/Athens","modification_date":"2014-05-22"},{"geonameid":"258543","name":"Lávrio","asciiname":"Lavrio","alternatenames":["Ergasteria","Ergastiria","Ergastíria","Laurium","Lavrio","Lavrion","Lavrium","Lávrio","Lávrion","Λαύριο","Λαύριον","Лаврион"],"latitude":"37.71445","longitude":"24.05647","feature_class":"P","feature_code":"PPLA3","country_code":"GR","cc2":"","admin1_code":"ESYE31","admin2_code":"445406","admin3_code":"9219","admin4_code":"","population":"7078","elevation":"","dem":"9","timezone":"Europe/Athens","modification_date":"2014-05-21"},{"geonameid":"258793","name":"Kryonéri","asciiname":"Kryoneri","alternatenames":["Bafi","Báfi","Krionerion","Krionérion","Kryoneri","Kryonerion","Kryonéri","Κρυονέρι","Κρυονέριον"],"latitude":"38.13712","longitude":"23.83055","feature_class":"P","feature_code":"PPL","country_code":"GR","cc2":"","admin1_code":"ESYE31","admin2_code":"445406","admin3_code":"9217","admin4_code":"","population":"5040","elevation":"","dem":"365","timezone":"Europe/Athens","modification_date":"2014-08-26"},{"geonameid":"258912","name":"Kouvarás","asciiname":"Kouvaras","alternatenames":["Koubaras","Kouvaras","Kouvarás","Κουβαράς"],"latitude":"37.82711","longitude":"23.96715","feature_class":"P","feature_code":"PPL","country_code":"GR","cc2":"","admin1_code":"ESYE31","admin2_code":"445406","admin3_code":"9225","admin4_code":"","population":"1426","elevation":"","dem":"225","timezone":"Europe/Athens","modification_date":"2014-05-22"},{"geonameid":"259128","name":"Metamórfosi","asciiname":"Metamorfosi","alternatenames":["Koukouvaounai","Koukouvaounes","Koukouváounai","Koukouváounes","Metamorfosi","Κουκουβάουναι","Κουκουβάουνες","Μεταμόρφωση"],"latitude":"38.06576","longitude":"23.76356","feature_class":"P","feature_code":"PPLA3","country_code":"GR","cc2":"","admin1_code":"ESYE31","admin2_code":"445408","admin3_code":"9173","admin4_code":"","population":"29891","elevation":"","dem":"173","timezone":"Europe/Athens","modification_date":"2014-08-26"},{"geonameid":"259251","name":"Koropí","asciiname":"Koropi","alternatenames":["Kekropia","Koropi","Koropia","Koropion","Koropí","Koropíon","Κεκρωπία","Κοροπίον","Κορωπί","Κορωπία","Κορωπίον"],"latitude":"37.89886","longitude":"23.87181","feature_class":"P","feature_code":"PPLA3","country_code":"GR","cc2":"","admin1_code":"ESYE31","admin2_code":"445406","admin3_code":"9218","admin4_code":"","population":"19164","elevation":"","dem":"130","timezone":"Europe/Athens","modification_date":"2014-08-26"},{"geonameid":"259710","name":"Kýthira","asciiname":"Kythira","alternatenames":["Cythera","Kithira","Kythira","Kíthira","Kýthira","Κύθηρα"],"latitude":"36.14955","longitude":"22.98979","feature_class":"P","feature_code":"PPLA3","country_code":"GR","cc2":"","admin1_code":"ESYE31","admin2_code":"406101","admin3_code":"9209","admin4_code":"","population":"281","elevation":"","dem":"137","timezone":"Europe/Athens","modification_date":"2014-08-30"},{"geonameid":"259745","name":"Kipséli","asciiname":"Kipseli","alternatenames":["Kipseli","Kypseli","Κυψέλη","Кипсели"],"latitude":"38.00288","longitude":"23.73755","feature_class":"P","feature_code":"PPLX","country_code":"GR","cc2":"","admin1_code":"ESYE31","admin2_code":"445408","admin3_code":"9186","admin4_code":"","population":"2096","elevation":"","dem":"126","timezone":"Europe/Athens","modification_date":"2014-05-17"},{"geonameid":"259750","name":"Kypséli","asciiname":"Kypseli","alternatenames":["Khalasmeni","Khalasméni","Kipseli","Kipséli","Kypseli","Kypséli","Κυψέλη"],"latitude":"37.76021","longitude":"23.45448","feature_class":"P","feature_code":"PPL","country_code":"GR","cc2":"","admin1_code":"ESYE31","admin2_code":"406101","admin3_code":"9208","admin4_code":"","population":"2124","elevation":"","dem":"57","timezone":"Europe/Athens","modification_date":"2014-08-30"},{"geonameid":"259796","name":"Kinéta","asciiname":"Kineta","alternatenames":["Kineta","Kinéta","Κινέτα"],"latitude":"37.96843","longitude":"23.21351","feature_class":"P","feature_code":"PPL","country_code":"GR","cc2":"","admin1_code":"ESYE31","admin2_code":"445407","admin3_code":"9231","admin4_code":"","population":"1446","elevation":"","dem":"4","timezone":"Europe/Athens","modification_date":"2014-05-23"},{"geonameid":"259824","name":"Kifisiá","asciiname":"Kifisia","alternatenames":["Kefissia","Kephisia","Kephissia","Kifisia","Kifisija","Kifisià","Kifissia","Kēfissia","Κηφισιά","Кифисия","Кифисија","Кіфісія"],"latitude":"38.07438","longitude":"23.81106","feature_class":"P","feature_code":"PPLA3","country_code":"GR","cc2":"","admin1_code":"ESYE31","admin2_code":"445408","admin3_code":"9171","admin4_code":"","population":"47332","elevation":"","dem":"290","timezone":"Europe/Athens","modification_date":"2015-06-25"},{"geonameid":"259949","name":"Cholargós","asciiname":"Cholargos","alternatenames":["Cholargos","Cholargós","Holargos","Kholargos","Kholargós","Χολαργός"],"latitude":"38","longitude":"23.8","feature_class":"P","feature_code":"PPLA3","country_code":"GR","cc2":"","admin1_code":"ESYE31","admin2_code":"445408","admin3_code":"9175","admin4_code":"","population":"30840","elevation":"","dem":"219","timezone":"Europe/Athens","modification_date":"2014-08-26"},{"geonameid":"260128","name":"Khalkoútsion","asciiname":"Khalkoutsion","alternatenames":["Chalkoutsi","Chalkoutsion","Khalkoutsi","Khalkoutsion","Khalkoútsi","Khalkoútsion","Χαλκούτσι","Χαλκούτσιον"],"latitude":"38.33263","longitude":"23.73188","feature_class":"P","feature_code":"PPL","country_code":"GR","cc2":"","admin1_code":"ESYE31","admin2_code":"445406","admin3_code":"9227","admin4_code":"","population":"2094","elevation":"","dem":"6","timezone":"Europe/Athens","modification_date":"2014-05-22"},{"geonameid":"260172","name":"Khalándrion","asciiname":"Khalandrion","alternatenames":["Chalandri","Chalandrion","Flya","Khalandhrion","Khalandri","Khalándhrion","Khalándri","Phlya","Φλύα","Χαλάνδρι","Χαλάνδριον"],"latitude":"38.02369","longitude":"23.80068","feature_class":"P","feature_code":"PPLA3","country_code":"GR","cc2":"","admin1_code":"ESYE31","admin2_code":"445408","admin3_code":"9178","admin4_code":"","population":"74192","elevation":"","dem":"194","timezone":"Europe/Athens","modification_date":"2014-08-26"},{"geonameid":"260183","name":"Chaïdári","asciiname":"Chaidari","alternatenames":["Chaidari","Chaïdári","Khaidhari","Khaidharion","Khaïdhári","Khaïdhárion","Χαϊδάρι"],"latitude":"38.01135","longitude":"23.66597","feature_class":"P","feature_code":"PPLA3","country_code":"GR","cc2":"","admin1_code":"ESYE31","admin2_code":"445408","admin3_code":"9185","admin4_code":"","population":"45642","elevation":"","dem":"92","timezone":"Europe/Athens","modification_date":"2014-08-26"},{"geonameid":"260204","name":"Keratsíni","asciiname":"Keratsini","alternatenames":["Agios Georgios Keratsiniou","Ayios Yeoryios","Ayios Yeoryios Keratsiniou","Hagios Georgios Keratsiniou","Keratsini","Keratsinion","Keratsiniou","Keratsiníou","Keratsíni","Keratsínion","Tseratsinion","Áyios Yeóryios","Άγιος Γεώργιος Κερατσινίου","Κερατσίνι","Κερατσίνιον","Τσερατσίνιον"],"latitude":"37.9625","longitude":"23.61972","feature_class":"P","feature_code":"PPLA3","country_code":"GR","cc2":"","admin1_code":"ESYE31","admin2_code":"406101","admin3_code":"9202","admin4_code":"","population":"77077","elevation":"","dem":"40","timezone":"Europe/Athens","modification_date":"2014-08-25"},{"geonameid":"260210","name":"Keratéa","asciiname":"Keratea","alternatenames":["Keratea","Keratéa","Κερατέα"],"latitude":"37.80733","longitude":"23.97692","feature_class":"P","feature_code":"PPL","country_code":"GR","cc2":"","admin1_code":"ESYE31","admin2_code":"445406","admin3_code":"9219","admin4_code":"","population":"7493","elevation":"","dem":"198","timezone":"Europe/Athens","modification_date":"2014-05-21"},{"geonameid":"260478","name":"Káto Soúlion","asciiname":"Kato Soulion","alternatenames":["Kato Souli","Kato Soulion","Káto Soúli","Káto Soúlion","Κάτω Σούλι","Κάτω Σούλιον"],"latitude":"38.16803","longitude":"24.01628","feature_class":"P","feature_code":"PPL","country_code":"GR","cc2":"","admin1_code":"ESYE31","admin2_code":"445406","admin3_code":"9220","admin4_code":"","population":"2142","elevation":"","dem":"18","timezone":"Europe/Athens","modification_date":"2014-05-21"},{"geonameid":"261133","name":"Kapandríti","asciiname":"Kapandriti","alternatenames":["Kapandhrition","Kapandhrítion","Kapandriti","Kapandrition","Kapandríti","Kapandrítion","Καπανδρίτι","Καπανδρίτιον"],"latitude":"38.21579","longitude":"23.87938","feature_class":"P","feature_code":"PPL","country_code":"GR","cc2":"","admin1_code":"ESYE31","admin2_code":"445406","admin3_code":"9227","admin4_code":"","population":"3359","elevation":"","dem":"351","timezone":"Europe/Athens","modification_date":"2014-05-22"},{"geonameid":"261249","name":"Kamaterón","asciiname":"Kamateron","alternatenames":["Kamatero","Kamateró","Καματερό"],"latitude":"38.05586","longitude":"23.70515","feature_class":"P","feature_code":"PPL","country_code":"GR","cc2":"","admin1_code":"ESYE31","admin2_code":"445408","admin3_code":"9180","admin4_code":"","population":"28361","elevation":"","dem":"142","timezone":"Europe/Athens","modification_date":"2014-08-26"},{"geonameid":"261414","name":"Kallithéa","asciiname":"Kallithea","alternatenames":["Kalitea","Kaliteja","Kalithea","Kalithéa","Kalitėja","Kallifeja","Kalliteja","Kallithea","Kallithéa","kalythya","kalyth‌a","Καλλιθέα","Калитеа","Каллифея","Каллітея","كاليثيا","کالیته‌آ"],"latitude":"37.95","longitude":"23.7","feature_class":"P","feature_code":"PPLA3","country_code":"GR","cc2":"","admin1_code":"ESYE31","admin2_code":"445408","admin3_code":"9198","admin4_code":"","population":"100641","elevation":"","dem":"28","timezone":"Europe/Athens","modification_date":"2014-08-26"},{"geonameid":"261445","name":"Kalývia Thorikoú","asciiname":"Kalyvia Thorikou","alternatenames":["Kalivia","Kalivia Thorikou","Kalyvia","Kalyvia Thorikou","Kalívia","Kalívia Thorikoú","Kalývia Thorikoú","Kouvara","Kouvará","Thorikou","Thorikoú","Καλύβια","Καλύβια Θορικού"],"latitude":"37.83894","longitude":"23.92505","feature_class":"P","feature_code":"PPLA3","country_code":"GR","cc2":"","admin1_code":"ESYE31","admin2_code":"445406","admin3_code":"9225","admin4_code":"","population":"14424","elevation":"","dem":"116","timezone":"Europe/Athens","modification_date":"2014-09-10"},{"geonameid":"261571","name":"Kálamos","asciiname":"Kalamos","alternatenames":["Kalamos","Kálamos","Peraia","Κάλαμος","Περαία"],"latitude":"38.28333","longitude":"23.86667","feature_class":"P","feature_code":"PPL","country_code":"GR","cc2":"","admin1_code":"ESYE31","admin2_code":"445406","admin3_code":"9227","admin4_code":"","population":"1824","elevation":"","dem":"319","timezone":"Europe/Athens","modification_date":"2014-05-22"},{"geonameid":"261614","name":"Álimos","asciiname":"Alimos","alternatenames":["Alimos","Kalamaki","Kalamakion","Kalamáki","Kalamákion","Álimos","Άλιμος","Καλαμάκι","Καλαμάκιον"],"latitude":"37.91033","longitude":"23.72361","feature_class":"P","feature_code":"PPLA3","country_code":"GR","cc2":"","admin1_code":"ESYE31","admin2_code":"445408","admin3_code":"9195","admin4_code":"","population":"41720","elevation":"","dem":"44","timezone":"Europe/Athens","modification_date":"2014-08-26"},{"geonameid":"261678","name":"Kaisarianí","asciiname":"Kaisariani","alternatenames":["Kaisariane","Kaisariani","Kaisarianí","Kesariani","Καισαριανή","Кесариани"],"latitude":"37.9634","longitude":"23.76523","feature_class":"P","feature_code":"PPLA3","country_code":"GR","cc2":"","admin1_code":"ESYE31","admin2_code":"445408","admin3_code":"9192","admin4_code":"","population":"26370","elevation":"","dem":"191","timezone":"Europe/Athens","modification_date":"2014-08-26"},{"geonameid":"261743","name":"Irákleio","asciiname":"Irakleio","alternatenames":["Irakleio","Iraklion","Irákleio","Iráklion","Ηράκλειο"],"latitude":"38.05282","longitude":"23.76523","feature_class":"P","feature_code":"PPLA3","country_code":"GR","cc2":"","admin1_code":"ESYE31","admin2_code":"445408","admin3_code":"9173","admin4_code":"","population":"49642","elevation":"","dem":"169","timezone":"Europe/Athens","modification_date":"2014-08-26"},{"geonameid":"261822","name":"Ýdra","asciiname":"Ydra","alternatenames":["Hydra","Idhra","Ydra","Ídhra","Ýdra","Ύδρα"],"latitude":"37.34976","longitude":"23.4656","feature_class":"P","feature_code":"PPLA3","country_code":"GR","cc2":"","admin1_code":"ESYE31","admin2_code":"406101","admin3_code":"9214","admin4_code":"","population":"1900","elevation":"","dem":"1","timezone":"Europe/Athens","modification_date":"2014-09-06"},{"geonameid":"261903","name":"Grammatikó","asciiname":"Grammatiko","alternatenames":["Grammatiko","Grammatikon","Grammatikó","Grammatikón","Γραμματικό","Γραμματικόν"],"latitude":"38.20251","longitude":"23.96504","feature_class":"P","feature_code":"PPL","country_code":"GR","cc2":"","admin1_code":"ESYE31","admin2_code":"445406","admin3_code":"9220","admin4_code":"","population":"1432","elevation":"","dem":"267","timezone":"Europe/Athens","modification_date":"2014-05-21"},{"geonameid":"262036","name":"Glyfáda","asciiname":"Glyfada","alternatenames":["Aixone","Glifadha","Glifádha","Glyfada","Glyfáda","Γλυφάδα","Γλυφαδα"],"latitude":"37.86289","longitude":"23.75802","feature_class":"P","feature_code":"PPLA3","country_code":"GR","cc2":"","admin1_code":"ESYE31","admin2_code":"445408","admin3_code":"9196","admin4_code":"","population":"87305","elevation":"","dem":"24","timezone":"Europe/Athens","modification_date":"2014-08-26"},{"geonameid":"262135","name":"Galátsi","asciiname":"Galatsi","alternatenames":["Galatsi","Galatsion","Galátsi","Galátsion","Γαλάτσι","Γαλάτσιον"],"latitude":"38.01667","longitude":"23.75","feature_class":"P","feature_code":"PPLA3","country_code":"GR","cc2":"","admin1_code":"ESYE31","admin2_code":"445408","admin3_code":"9188","admin4_code":"","population":"59345","elevation":"","dem":"177","timezone":"Europe/Athens","modification_date":"2014-08-26"},{"geonameid":"262143","name":"Galatás","asciiname":"Galatas","alternatenames":["Galatas","Galatás","Γαλατάς"],"latitude":"37.49618","longitude":"23.44886","feature_class":"P","feature_code":"PPLA3","country_code":"GR","cc2":"","admin1_code":"ESYE31","admin2_code":"406101","admin3_code":"9213","admin4_code":"","population":"2195","elevation":"","dem":"16","timezone":"Europe/Athens","modification_date":"2014-09-06"},{"geonameid":"262398","name":"Filothéi","asciiname":"Filothei","alternatenames":["Filothei","Filothéi","Nea Alexandia","Néa Alexándia","Φιλοθέη"],"latitude":"38.02524","longitude":"23.78257","feature_class":"P","feature_code":"PPL","country_code":"GR","cc2":"","admin1_code":"ESYE31","admin2_code":"445408","admin3_code":"9168","admin4_code":"","population":"7302","elevation":"","dem":"162","timezone":"Europe/Athens","modification_date":"2014-08-26"},{"geonameid":"262426","name":"Fylí","asciiname":"Fyli","alternatenames":["Fili","Filí","Fyli","Fylí","Khasia","Khasiá","Phyle","Φυλή","Фили"],"latitude":"38.10235","longitude":"23.66901","feature_class":"P","feature_code":"PPL","country_code":"GR","cc2":"","admin1_code":"ESYE31","admin2_code":"445407","admin3_code":"9232","admin4_code":"","population":"2937","elevation":"","dem":"333","timezone":"Europe/Athens","modification_date":"2014-05-23"},{"geonameid":"262609","name":"Erythrés","asciiname":"Erythres","alternatenames":["Eleutherae","Erithrai","Erithraí","Erythrai","Erythres","Erythrés","Kriekouki","Kriekoúki","Ερυθρές","Ερυθραί","Κριεκούκι"],"latitude":"38.21741","longitude":"23.32234","feature_class":"P","feature_code":"PPL","country_code":"GR","cc2":"","admin1_code":"ESYE31","admin2_code":"445407","admin3_code":"9230","admin4_code":"","population":"2862","elevation":"","dem":"389","timezone":"Europe/Athens","modification_date":"2014-05-22"},{"geonameid":"262719","name":"Ellinikó","asciiname":"Elliniko","alternatenames":["Elliniko","Ellinikon","Ellinikó","Ellinikón","Ελληνικό","Ελληνικόν"],"latitude":"37.88333","longitude":"23.73333","feature_class":"P","feature_code":"PPL","country_code":"GR","cc2":"","admin1_code":"ESYE31","admin2_code":"445408","admin3_code":"9197","admin4_code":"","population":"17259","elevation":"","dem":"24","timezone":"Europe/Athens","modification_date":"2014-08-26"},{"geonameid":"262752","name":"Elefsína","asciiname":"Elefsina","alternatenames":["Elefis","Elefsina","Elefsis","Elefsína","Elefsís","Eleusis","Elevsis","Elevsís","Lepsina","Ελευσίνα","Ελευσίς"],"latitude":"38.04135","longitude":"23.54295","feature_class":"P","feature_code":"PPLA3","country_code":"GR","cc2":"","admin1_code":"ESYE31","admin2_code":"445407","admin3_code":"9229","admin4_code":"","population":"24910","elevation":"","dem":"7","timezone":"Europe/Athens","modification_date":"2014-05-22"},{"geonameid":"262833","name":"Ekáli","asciiname":"Ekali","alternatenames":["Ekale","Ekali","Ekáli","Εκάλη"],"latitude":"38.11035","longitude":"23.83505","feature_class":"P","feature_code":"PPL","country_code":"GR","cc2":"","admin1_code":"ESYE31","admin2_code":"445408","admin3_code":"9171","admin4_code":"","population":"5889","elevation":"","dem":"323","timezone":"Europe/Athens","modification_date":"2014-08-26"},{"geonameid":"262871","name":"Drosiá","asciiname":"Drosia","alternatenames":["Dhrosia","Dhrosiá","Drosia","Drosiá","Rossochori","Rossokhorion","Rossokhoríon","Δροσιά","Ρωσσοχώρι"],"latitude":"38.11977","longitude":"23.86428","feature_class":"P","feature_code":"PPL","country_code":"GR","cc2":"","admin1_code":"ESYE31","admin2_code":"445406","admin3_code":"9217","admin4_code":"","population":"7186","elevation":"","dem":"377","timezone":"Europe/Athens","modification_date":"2014-08-26"},{"geonameid":"262969","name":"Dhráfi","asciiname":"Dhrafi","alternatenames":["Dhrafi","Dhráfi","Drafi","Drafí","Ntrafi","Ντράφι"],"latitude":"38.02375","longitude":"23.90788","feature_class":"P","feature_code":"PPL","country_code":"GR","cc2":"","admin1_code":"ESYE31","admin2_code":"445406","admin3_code":"9224","admin4_code":"","population":"3055","elevation":"","dem":"268","timezone":"Europe/Athens","modification_date":"2014-05-22"},{"geonameid":"263064","name":"Diónysos","asciiname":"Dionysos","alternatenames":["Dhionisos","Dhiónisos","Dionysos","Diónysos","Διόνυσος"],"latitude":"38.1","longitude":"23.88333","feature_class":"P","feature_code":"PPL","country_code":"GR","cc2":"","admin1_code":"ESYE31","admin2_code":"445406","admin3_code":"9217","admin4_code":"","population":"5651","elevation":"","dem":"478","timezone":"Europe/Athens","modification_date":"2014-08-26"},{"geonameid":"263312","name":"Dhafní","asciiname":"Dhafni","alternatenames":["Dafni","Daphne","Daphni","Dhafni","Dhafní","Katsipodhion","Katsipódhion","Vlikha","Δάφνη"],"latitude":"37.95002","longitude":"23.73437","feature_class":"P","feature_code":"PPLA3","country_code":"GR","cc2":"","admin1_code":"ESYE31","admin2_code":"445408","admin3_code":"9189","admin4_code":"","population":"22913","elevation":"","dem":"100","timezone":"Europe/Athens","modification_date":"2014-08-26"},{"geonameid":"263535","name":"Rodópoli","asciiname":"Rodopoli","alternatenames":["Bala","Bála","Rodopoli","Μπάλα","Ροδόπολη"],"latitude":"38.11667","longitude":"23.88333","feature_class":"P","feature_code":"PPL","country_code":"GR","cc2":"","admin1_code":"ESYE31","admin2_code":"445406","admin3_code":"9217","admin4_code":"","population":"2078","elevation":"","dem":"421","timezone":"Europe/Athens","modification_date":"2013-12-27"},{"geonameid":"263725","name":"Ágios Stéfanos","asciiname":"Agios Stefanos","alternatenames":["Agios Stefanos","Agios Stephanos","Ayios Stefanos","Ágios Stéfanos","Áyios Stéfanos","Άγιος Στέφανος"],"latitude":"38.14657","longitude":"23.85608","feature_class":"P","feature_code":"PPLA3","country_code":"GR","cc2":"","admin1_code":"ESYE31","admin2_code":"445406","admin3_code":"9217","admin4_code":"","population":"9892","elevation":"","dem":"368","timezone":"Europe/Athens","modification_date":"2014-08-26"},{"geonameid":"263986","name":"Agios Dimitrios","asciiname":"Agios Dimitrios","alternatenames":["Agios Dimitrios","Ayios Dhimitrios","Brakhami","Brakhámi","Áyios Dhimítrios","Άγιος Δημήτριος"],"latitude":"37.93333","longitude":"23.73333","feature_class":"P","feature_code":"PPLA3","country_code":"GR","cc2":"","admin1_code":"ESYE31","admin2_code":"445408","admin3_code":"9194","admin4_code":"","population":"71294","elevation":"","dem":"73","timezone":"Europe/Athens","modification_date":"2014-08-26"},{"geonameid":"264094","name":"Áyioi Apóstoloi","asciiname":"Ayioi Apostoloi","alternatenames":["Aghioi Apostoloi","Agii Apostoli","Agioi Apostoloi","Άγιοι Απόστολοι"],"latitude":"38.29169","longitude":"23.91011","feature_class":"P","feature_code":"PPL","country_code":"GR","cc2":"","admin1_code":"ESYE31","admin2_code":"445406","admin3_code":"9227","admin4_code":"","population":"1904","elevation":"","dem":"15","timezone":"Europe/Athens","modification_date":"2014-05-22"},{"geonameid":"264111","name":"Agía Varvára","asciiname":"Agia Varvara","alternatenames":["Agia Barbara","Agia Varvara","Agía Varvára","Ayia Varvara","Ayía Varvára","Αγία Βαρβάρα"],"latitude":"37.98938","longitude":"23.66011","feature_class":"P","feature_code":"PPLA3","country_code":"GR","cc2":"","admin1_code":"ESYE31","admin2_code":"445408","admin3_code":"9179","admin4_code":"","population":"26550","elevation":"","dem":"58","timezone":"Europe/Athens","modification_date":"2014-08-26"},{"geonameid":"264194","name":"Agía Paraskeví","asciiname":"Agia Paraskevi","alternatenames":["Agia Paraskeue","Agia Paraskevi","Agía Paraskeví","Ayia Paraskevi","Ayía Paraskeví","Αγία Παρασκευή"],"latitude":"38.01667","longitude":"23.83333","feature_class":"P","feature_code":"PPLA3","country_code":"GR","cc2":"","admin1_code":"ESYE31","admin2_code":"445408","admin3_code":"9167","admin4_code":"","population":"59704","elevation":"","dem":"216","timezone":"Europe/Athens","modification_date":"2014-08-26"},{"geonameid":"264310","name":"Avlónas","asciiname":"Avlonas","alternatenames":["Avlon","Avlona","Avlonas","Avlón","Avlónas","Kakosalesi","Kakosálesi","Salesi","Salisati","Sálesi","Αυλών","Αυλώνας","Κακοσάλεσι","Σάλεσι","Σαλισάτι"],"latitude":"38.25149","longitude":"23.69554","feature_class":"P","feature_code":"PPL","country_code":"GR","cc2":"","admin1_code":"ESYE31","admin2_code":"445406","admin3_code":"9227","admin4_code":"","population":"5744","elevation":"","dem":"155","timezone":"Europe/Athens","modification_date":"2014-05-22"},{"geonameid":"264371","name":"Athens","asciiname":"Athens","alternatenames":["ATH","Afina","Afini","Afiny","An Aithin","Ateena","Atehny","Aten","Atena","Atenai","Atenas","Atenas - Athena","Atenas - Αθήνα","Atene","Atenes","Ateni","Ateno","Atenoj","Ateny","Athen","Athena","Athenae","Athenai","Athene","Athenes","Athens","Atheny","Athina","Athinai","Athinia","Athènes","Athén","Athénes","Athény","Athína","Athínai","Atina","Atény","Atēnas","Atėnai","Aþena","Kota Athena","Lungsod ng Athina","Lungsod ng Athína","atene","atene si","ateni","athensa","athyna","atn","etens","xethens","ya dian","Αθήνα","Αθήναι","Αθηνα","Αθηναι","Атина","Атэны","Афины","Афіни","Аѳины","Աթենք","אתונה","آتن","أثينا","ئافېنا","ܐܬܝܢܐ","अथेन्स","ஏதென்ஸ்","เอเธนส์","ათენი","Ἀθῆναι","アテネ","雅典","아테네","아테네 시"],"latitude":"37.97945","longitude":"23.71622","feature_class":"P","feature_code":"PPLC","country_code":"GR","cc2":"","admin1_code":"ESYE31","admin2_code":"445408","admin3_code":"9186","admin4_code":"","population":"664046","elevation":"70","dem":"42","timezone":"Europe/Athens","modification_date":"2015-06-25"},{"geonameid":"264445","name":"Asprópyrgos","asciiname":"Aspropyrgos","alternatenames":["Aspropirgos","Aspropyrgos","Asprópirgos","Asprópyrgos","Kalivia","Kalivia Khasias","Kalyvia Chasias","Kalívia","Kalívia Khasiás","Ασπρόπυργος","Καλύβια Χασιάς"],"latitude":"38.06134","longitude":"23.58971","feature_class":"P","feature_code":"PPLA3","country_code":"GR","cc2":"","admin1_code":"ESYE31","admin2_code":"445407","admin3_code":"9228","admin4_code":"","population":"30251","elevation":"","dem":"35","timezone":"Europe/Athens","modification_date":"2014-08-28"},{"geonameid":"264516","name":"Argyroúpoli","asciiname":"Argyroupoli","alternatenames":["Argyroupoli","Argyroupolis","Argyroúpoli","Aryiroupolis","Aryiroúpolis","Αργυρούπολη"],"latitude":"37.90594","longitude":"23.75035","feature_class":"P","feature_code":"PPLA3","country_code":"GR","cc2":"","admin1_code":"ESYE31","admin2_code":"445408","admin3_code":"9197","admin4_code":"","population":"34097","elevation":"","dem":"67","timezone":"Europe/Athens","modification_date":"2014-08-26"},{"geonameid":"264888","name":"Áno Liósia","asciiname":"Ano Liosia","alternatenames":["Ano Liosia","Áno Liósia","Άνω Λιόσια"],"latitude":"38.08333","longitude":"23.7","feature_class":"P","feature_code":"PPLA3","country_code":"GR","cc2":"","admin1_code":"ESYE31","admin2_code":"445407","admin3_code":"9232","admin4_code":"","population":"33565","elevation":"","dem":"174","timezone":"Europe/Athens","modification_date":"2014-05-23"},{"geonameid":"264929","name":"Anoixi","asciiname":"Anoixi","alternatenames":["Anixi","Anoixi","Anoixis","Boyati","Boyiati","Boyiáti","Boyáti","Oion","Oíon","Palaion Boyati","Palaion Boyation","Palaión Boyáti","Palaión Boyátion","Ánoixis","Άνοιξη","Άνοιξις"],"latitude":"38.13267","longitude":"23.85874","feature_class":"P","feature_code":"PPL","country_code":"GR","cc2":"","admin1_code":"ESYE31","admin2_code":"445406","admin3_code":"9217","admin4_code":"","population":"6510","elevation":"","dem":"359","timezone":"Europe/Athens","modification_date":"2014-08-26"},{"geonameid":"265001","name":"Megalochóri","asciiname":"Megalochori","alternatenames":["Agkistri","Agkistrion","Agkístri","Agkístrion","Angistri","Angistrion","Angístri","Angístrion","Ankistri","Ankistrion","Megalochori","Megalohori","Megalokhori","Megalokhóri","Milos","Mylos","Αγκίστρι","Αγκίστριον","Μεγαλοχώρι","Μύλος"],"latitude":"37.71051","longitude":"23.34659","feature_class":"P","feature_code":"PPLA3","country_code":"GR","cc2":"","admin1_code":"ESYE31","admin2_code":"406101","admin3_code":"9207","admin4_code":"","population":"566","elevation":"","dem":"20","timezone":"Europe/Athens","modification_date":"2014-08-26"},{"geonameid":"265100","name":"Anávyssos","asciiname":"Anavyssos","alternatenames":["Anaflystos","Anavissos","Anavyssos","Anáflystos","Anávissos","Anávyssos","Ανάβυσσος","Ανάφλυστος"],"latitude":"37.73414","longitude":"23.94389","feature_class":"P","feature_code":"PPL","country_code":"GR","cc2":"","admin1_code":"ESYE31","admin2_code":"445406","admin3_code":"9225","admin4_code":"","population":"6202","elevation":"","dem":"6","timezone":"Europe/Athens","modification_date":"2014-05-22"},{"geonameid":"265240","name":"Ampelákia","asciiname":"Ampelakia","alternatenames":["Ambelaki","Ambelakia","Ambeláki","Ambelákia","Ampelakia","Ampelákia","Αμπελάκια"],"latitude":"37.94902","longitude":"23.52445","feature_class":"P","feature_code":"PPL","country_code":"GR","cc2":"","admin1_code":"ESYE31","admin2_code":"406101","admin3_code":"9211","admin4_code":"","population":"4710","elevation":"","dem":"18","timezone":"Europe/Athens","modification_date":"2014-09-06"},{"geonameid":"265243","name":"Maroúsi","asciiname":"Marousi","alternatenames":["Amarousio","Amarousion","Amaroúsion","Marousi","Maroussi","Maroúsi","Αμαρούσιον","Μαρούσι"],"latitude":"38.05","longitude":"23.8","feature_class":"P","feature_code":"PPLA3","country_code":"GR","cc2":"","admin1_code":"ESYE31","admin2_code":"445408","admin3_code":"9168","admin4_code":"","population":"72333","elevation":"","dem":"220","timezone":"Europe/Athens","modification_date":"2014-12-16"},{"geonameid":"265488","name":"Acharnés","asciiname":"Acharnes","alternatenames":["Acharnae","Acharnai","Acharne","Acharnes","Akharnai","Akharnaí","Menidhi","Menidhion","Menidi","Menidion","Menioi","Menídhi","Menídhion","Meníoi","Αχαρνές","Αχαρναί","Μενίδι","Μενίδιον"],"latitude":"38.08333","longitude":"23.73333","feature_class":"P","feature_code":"PPLA3","country_code":"GR","cc2":"","admin1_code":"ESYE31","admin2_code":"445406","admin3_code":"9215","admin4_code":"","population":"99346","elevation":"","dem":"171","timezone":"Europe/Athens","modification_date":"2014-08-26"},{"geonameid":"265502","name":"Aegina","asciiname":"Aegina","alternatenames":["Aegina","Aigina","Aiyina","Aígina","Aíyina","Egina","Αίγινα"],"latitude":"37.74667","longitude":"23.4275","feature_class":"P","feature_code":"PPLA3","country_code":"GR","cc2":"","admin1_code":"ESYE31","admin2_code":"406101","admin3_code":"9208","admin4_code":"","population":"6867","elevation":"","dem":"4","timezone":"Europe/Athens","modification_date":"2014-11-04"},{"geonameid":"265533","name":"Aigáleo","asciiname":"Aigaleo","alternatenames":["Aegaleo","Aigaleo","Aigáleo","Egaleo","Αιγάλεω"],"latitude":"37.98333","longitude":"23.68333","feature_class":"P","feature_code":"PPLA3","country_code":"GR","cc2":"","admin1_code":"ESYE31","admin2_code":"445408","admin3_code":"9181","admin4_code":"","population":"69946","elevation":"","dem":"24","timezone":"Europe/Athens","modification_date":"2014-08-26"},{"geonameid":"265546","name":"Aiánteio","asciiname":"Aianteio","alternatenames":["Aiandion","Aianteio","Aianteion","Aiantion","Aiándion","Aiánteion","Aiántion","Moulki","Moúlki","Αιάντειο","Αιάντειον"],"latitude":"37.92135","longitude":"23.45877","feature_class":"P","feature_code":"PPL","country_code":"GR","cc2":"","admin1_code":"ESYE31","admin2_code":"406101","admin3_code":"9211","admin4_code":"","population":"4860","elevation":"","dem":"30","timezone":"Europe/Athens","modification_date":"2014-09-06"},{"geonameid":"265658","name":"Afidnés","asciiname":"Afidnes","alternatenames":["Afidhnai","Afidnai","Afidnes","Afidni","Afidnés","Afídhnai","Kiourka","Kioúrka","Αφίδναι","Αφίδνες","Αφίδνη","Αφιδνές","Κιούρκα"],"latitude":"38.20332","longitude":"23.83982","feature_class":"P","feature_code":"PPL","country_code":"GR","cc2":"","admin1_code":"ESYE31","admin2_code":"445406","admin3_code":"9227","admin4_code":"","population":"1908","elevation":"","dem":"330","timezone":"Europe/Athens","modification_date":"2014-05-22"},{"geonameid":"6324534","name":"Vrilissia","asciiname":"Vrilissia","alternatenames":["Vrilissia","Βριλήσσια"],"latitude":"38.03381","longitude":"23.82962","feature_class":"P","feature_code":"PPLA3","country_code":"GR","cc2":"","admin1_code":"ESYE31","admin2_code":"445408","admin3_code":"9169","admin4_code":"","population":"30741","elevation":"250","dem":"232","timezone":"Europe/Athens","modification_date":"2014-08-26"},{"geonameid":"7324476","name":"Saronída","asciiname":"Saronida","alternatenames":["Nkiourntas","Saronida","Saronis","Saronída","Saronís","Γκιουρντάς","Σαρωνίδα","Σαρωνίς"],"latitude":"37.74598","longitude":"23.90451","feature_class":"P","feature_code":"PPL","country_code":"GR","cc2":"","admin1_code":"ESYE31","admin2_code":"445406","admin3_code":"9225","admin4_code":"","population":"2932","elevation":"","dem":"23","timezone":"Europe/Athens","modification_date":"2014-05-22"},{"geonameid":"7667930","name":"Ymittos","asciiname":"Ymittos","alternatenames":["Imittos","Ymetto","Ymittos Attikis","amytws","Υμηττός Αττικής","إميتوس"],"latitude":"37.95342","longitude":"23.74897","feature_class":"P","feature_code":"PPLX","country_code":"GR","cc2":"","admin1_code":"ESYE31","admin2_code":"445408","admin3_code":"9189","admin4_code":"","population":"11000","elevation":"120","dem":"122","timezone":"Europe/Athens","modification_date":"2012-01-17"},{"geonameid":"8131587","name":"Ymittos Athens","asciiname":"Ymittos Athens","alternatenames":["Ymittos","Υμηττός"],"latitude":"37.95342","longitude":"23.74897","feature_class":"P","feature_code":"PPL","country_code":"GR","cc2":"","admin1_code":"ESYE31","admin2_code":"445408","admin3_code":"9189","admin4_code":"","population":"10715","elevation":"120","dem":"122","timezone":"Europe/Athens","modification_date":"2014-08-26"},{"geonameid":"8201845","name":"Gérakas","asciiname":"Gerakas","alternatenames":["Gerakas","Gérakas","Γέρακας"],"latitude":"38.02277","longitude":"23.8576","feature_class":"P","feature_code":"PPLA3","country_code":"GR","cc2":"","admin1_code":"ESYE31","admin2_code":"445406","admin3_code":"9223","admin4_code":"","population":"29939","elevation":"","dem":"250","timezone":"Europe/Athens","modification_date":"2014-09-10"},{"geonameid":"8310138","name":"Ilioúpoli","asciiname":"Ilioupoli","alternatenames":["Ilioupoli","Ilioúpoli","Ηλιούπολη"],"latitude":"37.93149","longitude":"23.76779","feature_class":"P","feature_code":"PPLA3","country_code":"GR","cc2":"","admin1_code":"ESYE31","admin2_code":"445408","admin3_code":"9191","admin4_code":"","population":"78153","elevation":"","dem":"308","timezone":"Europe/Athens","modification_date":"2014-08-26"},{"geonameid":"8310183","name":"Korydallós","asciiname":"Korydallos","alternatenames":["Korydallos","Korydallós","Κορυδαλλός"],"latitude":"37.98468","longitude":"23.64711","feature_class":"P","feature_code":"PPLA3","country_code":"GR","cc2":"","admin1_code":"ESYE31","admin2_code":"406101","admin3_code":"9203","admin4_code":"","population":"63445","elevation":"","dem":"93","timezone":"Europe/Athens","modification_date":"2015-04-27"},{"geonameid":"8358544","name":"Zográfos","asciiname":"Zografos","alternatenames":["Zografos","Zografou","Zográfos","Ζωγράφος","Ζωγράφου"],"latitude":"37.97332","longitude":"23.7909","feature_class":"P","feature_code":"PPLA2","country_code":"GR","cc2":"","admin1_code":"ESYE31","admin2_code":"35","admin3_code":"","admin4_code":"","population":"71026","elevation":"","dem":"249","timezone":"Europe/Athens","modification_date":"2014-08-26"},{"geonameid":"8358562","name":"Péfki","asciiname":"Pefki","alternatenames":["Pefki","Pevki","Péfki","Pévki","Πεύκη"],"latitude":"38.06019","longitude":"23.79264","feature_class":"P","feature_code":"PPLA3","country_code":"GR","cc2":"","admin1_code":"ESYE31","admin2_code":"445408","admin3_code":"9172","admin4_code":"","population":"21352","elevation":"","dem":"257","timezone":"Europe/Athens","modification_date":"2015-04-27"},{"geonameid":"8358563","name":"Ágioi Anárgyroi","asciiname":"Agioi Anargyroi","alternatenames":["Agioi Anargyroi","Ágioi Anárgyroi","Άγιοι Ανάργυροι"],"latitude":"38.03013","longitude":"23.72379","feature_class":"P","feature_code":"PPLA3","country_code":"GR","cc2":"","admin1_code":"ESYE31","admin2_code":"445408","admin3_code":"9180","admin4_code":"","population":"34168","elevation":"","dem":"84","timezone":"Europe/Athens","modification_date":"2014-08-26"},{"geonameid":"8478257","name":"Agios Ioannis Rentis","asciiname":"Agios Ioannis Rentis","alternatenames":["Agios Ioannis Rentis","Rentis","Άγιος Ιωάννης Ρέντης","Ρέντης"],"latitude":"37.96491","longitude":"23.66511","feature_class":"P","feature_code":"PPL","country_code":"GR","cc2":"","admin1_code":"ESYE31","admin2_code":"406101","admin3_code":"9204","admin4_code":"","population":"16050","elevation":"","dem":"13","timezone":"Europe/Athens","modification_date":"2014-05-23"},{"geonameid":"8644195","name":"Drapetsóna","asciiname":"Drapetsona","alternatenames":["Drapetsona","Δραπετσώνα"],"latitude":"37.94988","longitude":"23.62309","feature_class":"P","feature_code":"PPL","country_code":"GR","cc2":"","admin1_code":"ESYE31","admin2_code":"406101","admin3_code":"9202","admin4_code":"","population":"13968","elevation":"","dem":"33","timezone":"Europe/Athens","modification_date":"2013-12-31"},{"geonameid":"8657513","name":"Néo Psychikó","asciiname":"Neo Psychiko","alternatenames":["Neo Psychiko","Νέο Ψυχικό"],"latitude":"38.00624","longitude":"23.78373","feature_class":"P","feature_code":"PPL","country_code":"GR","cc2":"","admin1_code":"ESYE31","admin2_code":"445408","admin3_code":"9177","admin4_code":"","population":"10137","elevation":"","dem":"195","timezone":"Europe/Athens","modification_date":"2014-08-26"},{"geonameid":"8740252","name":"Varybóbi","asciiname":"Varybobi","alternatenames":["Varympompi","Βαρυμπόμπη"],"latitude":"38.12723","longitude":"23.78729","feature_class":"P","feature_code":"PPL","country_code":"GR","cc2":"","admin1_code":"ESYE31","admin2_code":"445406","admin3_code":"9215","admin4_code":"","population":"1377","elevation":"","dem":"298","timezone":"Europe/Athens","modification_date":"2014-05-19"},{"geonameid":"8740257","name":"Aghios Panteleímon","asciiname":"Aghios Panteleimon","alternatenames":["Agios Panteleimon Marathona","Agios Panteleimon Marathóna","Άγιος Παντελεήμων Μαραθώνα"],"latitude":"38.11643","longitude":"23.98182","feature_class":"P","feature_code":"PPL","country_code":"GR","cc2":"","admin1_code":"ESYE31","admin2_code":"445406","admin3_code":"9220","admin4_code":"","population":"1591","elevation":"","dem":"7","timezone":"Europe/Athens","modification_date":"2014-05-21"},{"geonameid":"8740260","name":"Anthoúsa","asciiname":"Anthousa","alternatenames":["Anthousa","Anthoussa","Anthoúsa","Panagia Anthousis","Ανθούσα","Παναγιά Ανθούσης"],"latitude":"38.02544","longitude":"23.87617","feature_class":"P","feature_code":"PPL","country_code":"GR","cc2":"","admin1_code":"ESYE31","admin2_code":"445406","admin3_code":"9223","admin4_code":"","population":"2132","elevation":"","dem":"316","timezone":"Europe/Athens","modification_date":"2014-05-22"},{"geonameid":"9035858","name":"Zefyri","asciiname":"Zefyri","alternatenames":["Zefiri","Zefyri","Ζεφύρι"],"latitude":"38.06647","longitude":"23.71701","feature_class":"P","feature_code":"PPL","country_code":"GR","cc2":"","admin1_code":"ESYE31","admin2_code":"445407","admin3_code":"9232","admin4_code":"","population":"9454","elevation":"","dem":"124","timezone":"Europe/Athens","modification_date":"2014-05-23"},{"geonameid":"9035859","name":"Thrakomakedónes","asciiname":"Thrakomakedones","alternatenames":["Thrakomakedones","Θρακομακεδόνες"],"latitude":"38.12964","longitude":"23.75751","feature_class":"P","feature_code":"PPL","country_code":"GR","cc2":"","admin1_code":"ESYE31","admin2_code":"445406","admin3_code":"9215","admin4_code":"","population":"6200","elevation":"","dem":"364","timezone":"Europe/Athens","modification_date":"2014-08-26"},{"geonameid":"9035866","name":"Néa Pentéli","asciiname":"Nea Penteli","alternatenames":["Nea Penteli","Νέα Πεντέλη"],"latitude":"38.06059","longitude":"23.85926","feature_class":"P","feature_code":"PPL","country_code":"GR","cc2":"","admin1_code":"ESYE31","admin2_code":"445408","admin3_code":"9176","admin4_code":"","population":"7198","elevation":"","dem":"482","timezone":"Europe/Athens","modification_date":"2014-08-26"},{"geonameid":"9035867","name":"Néa Chalkidóna","asciiname":"Nea Chalkidona","alternatenames":["Nea Chalkidona","Νέα Χαλκηδόνα"],"latitude":"38.0271","longitude":"23.73051","feature_class":"P","feature_code":"PPL","country_code":"GR","cc2":"","admin1_code":"ESYE31","admin2_code":"445408","admin3_code":"9193","admin4_code":"","population":"9822","elevation":"","dem":"89","timezone":"Europe/Athens","modification_date":"2014-08-26"},{"geonameid":"9036675","name":"Kítsi","asciiname":"Kitsi","alternatenames":["Kitsi","Κίτσι"],"latitude":"37.85181","longitude":"23.84068","feature_class":"P","feature_code":"PPL","country_code":"GR","cc2":"","admin1_code":"ESYE31","admin2_code":"445406","admin3_code":"9218","admin4_code":"","population":"4788","elevation":"","dem":"150","timezone":"Europe/Athens","modification_date":"2014-05-19"},{"geonameid":"9036676","name":"Agía Marína","asciiname":"Agia Marina","alternatenames":["Agia Marina","Ayia Marina","Αγία Μαρίνα"],"latitude":"37.82036","longitude":"23.84424","feature_class":"P","feature_code":"PPL","country_code":"GR","cc2":"","admin1_code":"ESYE31","admin2_code":"445406","admin3_code":"9218","admin4_code":"","population":"3765","elevation":"","dem":"12","timezone":"Europe/Athens","modification_date":"2014-05-19"},{"geonameid":"9036677","name":"Agios Dimítrios Kropiás","asciiname":"Agios Dimitrios Kropias","alternatenames":["Agios Dimitrios Kropias","Άγιος Δημήτριος Κρωπίας"],"latitude":"37.80612","longitude":"23.85793","feature_class":"P","feature_code":"PPL","country_code":"GR","cc2":"","admin1_code":"ESYE31","admin2_code":"445406","admin3_code":"9218","admin4_code":"","population":"1011","elevation":"","dem":"-9999","timezone":"Europe/Athens","modification_date":"2014-05-23"},{"geonameid":"9036678","name":"Karellás","asciiname":"Karellas","alternatenames":["Karellas","Καρελλάς"],"latitude":"37.93445","longitude":"23.86484","feature_class":"P","feature_code":"PPL","country_code":"GR","cc2":"","admin1_code":"ESYE31","admin2_code":"445406","admin3_code":"9218","admin4_code":"","population":"1579","elevation":"","dem":"196","timezone":"Europe/Athens","modification_date":"2014-05-19"},{"geonameid":"9036767","name":"Neos Voutzás","asciiname":"Neos Voutzas","alternatenames":["Neos Voutzas","Νέος Βουτζάς"],"latitude":"38.04312","longitude":"23.97749","feature_class":"P","feature_code":"PPL","country_code":"GR","cc2":"","admin1_code":"ESYE31","admin2_code":"445406","admin3_code":"9220","admin4_code":"","population":"1116","elevation":"","dem":"122","timezone":"Europe/Athens","modification_date":"2014-05-21"},{"geonameid":"9036773","name":"Argithéa","asciiname":"Argithea","alternatenames":["Argithea","Αργιθέα"],"latitude":"37.97688","longitude":"23.88715","feature_class":"P","feature_code":"PPL","country_code":"GR","cc2":"","admin1_code":"ESYE31","admin2_code":"445406","admin3_code":"9222","admin4_code":"","population":"1024","elevation":"","dem":"140","timezone":"Europe/Athens","modification_date":"2014-05-22"},{"geonameid":"9036774","name":"Dióni","asciiname":"Dioni","alternatenames":["Dioni","Διώ��η"],"latitude":"38.02328","longitude":"23.93286","feature_class":"P","feature_code":"PPL","country_code":"GR","cc2":"","admin1_code":"ESYE31","admin2_code":"445406","admin3_code":"9224","admin4_code":"","population":"2111","elevation":"","dem":"160","timezone":"Europe/Athens","modification_date":"2014-05-22"},{"geonameid":"9036830","name":"Vlycháda","asciiname":"Vlychada","alternatenames":["Vlychada","Βλυχάδα"],"latitude":"38.02734","longitude":"23.43663","feature_class":"P","feature_code":"PPL","country_code":"GR","cc2":"","admin1_code":"ESYE31","admin2_code":"445407","admin3_code":"9231","admin4_code":"","population":"1462","elevation":"","dem":"152","timezone":"Europe/Athens","modification_date":"2014-05-23"}]}