{"region_data":{"countryId":"390903","adminCode1":"ESYE22","countryName":"Greece","fclName":"country, state, region,...","countryCode":"GR","lng":"20.37277","fcodeName":"first-order administrative division","toponymName":"Ionian Islands","fcl":"A","numberOfChildren":4,"name":"Ionian Islands","fcode":"ADM1","geonameId":6697805,"lat":"38.97649","adminName1":"Ionian Islands","population":212984},"country_data":{"ISO":"GR","ISO3":"GRC","ISO_Numeric":"300","fips":"GR","country":"Greece","capital":"Athens","area":"131940","Population":"11000000","Continent":"EU","tld":".gr","CurrencyCode":"EUR","CurrencyName":"Euro","Phone":"30","Postal_Code_Format":"### ##","Postal_Code_Regex":"^(\\d{5})$","Languages":"el-GR,en,fr","geonameid":"390903","neighbours":"AL,MK,TR,BG","EquivalentFipsCode":""},"cities":[{"geonameid":"251280","name":"Zákynthos","asciiname":"Zakynthos","alternatenames":["ZTH","Zacinto","Zakinthos","Zakintos","Zakynthos","Zante","Zákinthos","Zákynthos","Ζάκυνθος","Закинтос"],"latitude":"37.78022","longitude":"20.89555","feature_class":"P","feature_code":"PPLA2","country_code":"GR","cc2":"","admin1_code":"ESYE22","admin2_code":"28","admin3_code":"9116","admin4_code":"","population":"11541","elevation":"","dem":"8","timezone":"Europe/Athens","modification_date":"2015-02-07"},{"geonameid":"252300","name":"Vanáton","asciiname":"Vanaton","alternatenames":["Vanato","Vanaton","Vanáton","Βανάτο","Βανάτον"],"latitude":"37.79446","longitude":"20.85188","feature_class":"P","feature_code":"PPL","country_code":"GR","cc2":"","admin1_code":"ESYE22","admin2_code":"28","admin3_code":"9116","admin4_code":"","population":"1045","elevation":"","dem":"17","timezone":"Europe/Athens","modification_date":"2014-06-18"},{"geonameid":"252327","name":"Valsamáta","asciiname":"Valsamata","alternatenames":["Valsamata","Valsamáta","Βαλσαμάτα"],"latitude":"38.176","longitude":"20.58392","feature_class":"P","feature_code":"PPL","country_code":"GR","cc2":"","admin1_code":"ESYE22","admin2_code":"27","admin3_code":"9120","admin4_code":"","population":"1008","elevation":"","dem":"415","timezone":"Europe/Athens","modification_date":"2014-10-01"},{"geonameid":"254123","name":"Sámi","asciiname":"Sami","alternatenames":["Aigialos","Aigialós","Aiyialos","Aiyialós","Gialos","Sami","Samos","Sámi","Yialos","Yialós","Γιαλός","Σάμη"],"latitude":"38.25081","longitude":"20.64686","feature_class":"P","feature_code":"PPL","country_code":"GR","cc2":"","admin1_code":"ESYE22","admin2_code":"27","admin3_code":"9120","admin4_code":"","population":"1347","elevation":"","dem":"0","timezone":"Europe/Athens","modification_date":"2014-10-01"},{"geonameid":"254864","name":"Póros","asciiname":"Poros","alternatenames":["Poros","Póros","Πόρος"],"latitude":"38.15369","longitude":"20.7712","feature_class":"P","feature_code":"PPL","country_code":"GR","cc2":"","admin1_code":"ESYE22","admin2_code":"27","admin3_code":"9120","admin4_code":"","population":"1059","elevation":"","dem":"19","timezone":"Europe/Athens","modification_date":"2014-09-06"},{"geonameid":"255498","name":"Perivóli","asciiname":"Perivoli","alternatenames":["Perivoli","Perivolion","Perivóli","Perivólion","Περιβόλι","Περιβόλιον"],"latitude":"39.41936","longitude":"20.01469","feature_class":"P","feature_code":"PPL","country_code":"GR","cc2":"","admin1_code":"ESYE22","admin2_code":"25","admin3_code":"9118","admin4_code":"","population":"1378","elevation":"","dem":"41","timezone":"Europe/Athens","modification_date":"2014-10-01"},{"geonameid":"255654","name":"Gáïos","asciiname":"Gaios","alternatenames":["Gaios","Gáïos","Pakhi","Pakhí","Paxoi","Paxoí","Γάϊος"],"latitude":"39.19722","longitude":"20.18556","feature_class":"P","feature_code":"PPLA3","country_code":"GR","cc2":"","admin1_code":"ESYE22","admin2_code":"25","admin3_code":"9119","admin4_code":"","population":"487","elevation":"","dem":"4","timezone":"Europe/Athens","modification_date":"2012-05-09"},{"geonameid":"256664","name":"Mouzaki","asciiname":"Mouzaki","alternatenames":["Mouzaki","Mouzáki","Μουζάκι"],"latitude":"37.73565","longitude":"20.82291","feature_class":"P","feature_code":"PPL","country_code":"GR","cc2":"","admin1_code":"ESYE22","admin2_code":"28","admin3_code":"9116","admin4_code":"","population":"1702","elevation":"","dem":"86","timezone":"Europe/Athens","modification_date":"2014-06-18"},{"geonameid":"258175","name":"Lixoúri","asciiname":"Lixouri","alternatenames":["Lixouri","Lixourion","Lixoúri","Lixoúrion","Lixuri","Ληξούρι","Ληξούριον"],"latitude":"38.20133","longitude":"20.43706","feature_class":"P","feature_code":"PPL","country_code":"GR","cc2":"","admin1_code":"ESYE22","admin2_code":"27","admin3_code":"9120","admin4_code":"","population":"3752","elevation":"","dem":"5","timezone":"Europe/Athens","modification_date":"2015-06-01"},{"geonameid":"258241","name":"Lithakiá","asciiname":"Lithakia","alternatenames":["Lithakia","Lithakiá","Λιθακιά"],"latitude":"37.71935","longitude":"20.83013","feature_class":"P","feature_code":"PPL","country_code":"GR","cc2":"","admin1_code":"ESYE22","admin2_code":"28","admin3_code":"9116","admin4_code":"","population":"1307","elevation":"","dem":"94","timezone":"Europe/Athens","modification_date":"2014-06-18"},{"geonameid":"258427","name":"Lefkímmi","asciiname":"Lefkimmi","alternatenames":["Agioi Theodoroi","Ayios Theodhoros","Lefkimmi","Lefkímmi","Levkimmi","Levkímmi","Ágioi Theódoroi","Áyios Theódhoros","Λευκίμμη"],"latitude":"39.42336","longitude":"20.07094","feature_class":"P","feature_code":"PPL","country_code":"GR","cc2":"","admin1_code":"ESYE22","admin2_code":"25","admin3_code":"9118","admin4_code":"","population":"2935","elevation":"","dem":"21","timezone":"Europe/Athens","modification_date":"2014-10-01"},{"geonameid":"258438","name":"Lefkáda","asciiname":"Lefkada","alternatenames":["Lefkada","Lefkados","Lefkas","Lefkáda","Lefkádos","Lefkás","Leukas","Levkadha","Levkas","Levkádha","Levkás","lai fu ka zha","lepeukada","Λευκάδα","Λευκάς","Лефкада","Лефкас","莱夫卡扎","레프카다"],"latitude":"38.83036","longitude":"20.70442","feature_class":"P","feature_code":"PPLA2","country_code":"GR","cc2":"","admin1_code":"ESYE22","admin2_code":"26","admin3_code":"9121","admin4_code":"","population":"8673","elevation":"","dem":"8","timezone":"Europe/Athens","modification_date":"2014-10-01"},{"geonameid":"260674","name":"Katastárion","asciiname":"Katastarion","alternatenames":["Katastari","Katastarion","Katastári","Katastárion","Καταστάρι","Καταστάριον"],"latitude":"37.83012","longitude":"20.75755","feature_class":"P","feature_code":"PPL","country_code":"GR","cc2":"","admin1_code":"ESYE22","admin2_code":"28","admin3_code":"9116","admin4_code":"","population":"1378","elevation":"","dem":"24","timezone":"Europe/Athens","modification_date":"2014-06-18"},{"geonameid":"261708","name":"Itháki","asciiname":"Ithaki","alternatenames":["Ithaca","Ithake","Vathi","Vathí","Ιθάκη"],"latitude":"38.36421","longitude":"20.71848","feature_class":"P","feature_code":"PPL","country_code":"GR","cc2":"","admin1_code":"ESYE22","admin2_code":"27","admin3_code":"9117","admin4_code":"","population":"1843","elevation":"","dem":"3","timezone":"Europe/Athens","modification_date":"2012-01-17"},{"geonameid":"262159","name":"Gaïtánion","asciiname":"Gaitanion","alternatenames":["Gaitani","Gaitanion","Gaïtáni","Gaïtánion","Γαϊτάνι"],"latitude":"37.79134","longitude":"20.87407","feature_class":"P","feature_code":"PPL","country_code":"GR","cc2":"","admin1_code":"ESYE22","admin2_code":"28","admin3_code":"9116","admin4_code":"","population":"1899","elevation":"","dem":"9","timezone":"Europe/Athens","modification_date":"2014-06-18"},{"geonameid":"264668","name":"Argostólion","asciiname":"Argostolion","alternatenames":["Argostoli","Argostolion","Argostóli","Αργοστόλι","Αργοστόλιον"],"latitude":"38.18109","longitude":"20.48903","feature_class":"P","feature_code":"PPLA2","country_code":"GR","cc2":"","admin1_code":"ESYE22","admin2_code":"27","admin3_code":"9120","admin4_code":"","population":"9820","elevation":"","dem":"2","timezone":"Europe/Athens","modification_date":"2014-07-18"},{"geonameid":"265210","name":"Ambelókipoi","asciiname":"Ambelokipoi","alternatenames":["Ambelokipoi","Ambelókipoi","Ampelokepoi","Ampelokipoi","Roidhon","Róïdhon","Αμπελόκηποι"],"latitude":"37.75809","longitude":"20.87248","feature_class":"P","feature_code":"PPL","country_code":"GR","cc2":"","admin1_code":"ESYE22","admin2_code":"28","admin3_code":"9116","admin4_code":"","population":"1606","elevation":"","dem":"4","timezone":"Europe/Athens","modification_date":"2014-06-18"},{"geonameid":"2463549","name":"Virós","asciiname":"Viros","alternatenames":["Ano Virou","Biros","Viros","Virós","Áno Viroú","Βιρός"],"latitude":"39.5834","longitude":"19.8827","feature_class":"P","feature_code":"PPL","country_code":"GR","cc2":"","admin1_code":"ESYE22","admin2_code":"25","admin3_code":"9118","admin4_code":"","population":"1201","elevation":"","dem":"107","timezone":"Europe/Athens","modification_date":"2014-06-12"},{"geonameid":"2463594","name":"Potamós","asciiname":"Potamos","alternatenames":["Potamos","Ποταμός"],"latitude":"39.6242","longitude":"19.87826","feature_class":"P","feature_code":"PPL","country_code":"GR","cc2":"","admin1_code":"ESYE22","admin2_code":"25","admin3_code":"9118","admin4_code":"","population":"3840","elevation":"","dem":"16","timezone":"Europe/Athens","modification_date":"2014-06-13"},{"geonameid":"2463662","name":"Kontokáli","asciiname":"Kontokali","alternatenames":["Kondokali","Kondokalion","Kondokálion","Kondókali","Kontokali","Kontokalion","Kontokáli","Kontokálion","Κοντοκάλι","Κοντοκάλιον"],"latitude":"39.64436","longitude":"19.85194","feature_class":"P","feature_code":"PPL","country_code":"GR","cc2":"","admin1_code":"ESYE22","admin2_code":"25","admin3_code":"9118","admin4_code":"","population":"1660","elevation":"","dem":"7","timezone":"Europe/Athens","modification_date":"2014-10-01"},{"geonameid":"2463670","name":"Kynopiástes","asciiname":"Kynopiastes","alternatenames":["Kinopiastai","Kinopiastais","Kinopiástai","Kinopiástais","Kynopiastai","Kynopiastes","Kynopiástai","Κυνοπιάσται","Κυνοπιάστες"],"latitude":"39.56785","longitude":"19.88362","feature_class":"P","feature_code":"PPL","country_code":"GR","cc2":"","admin1_code":"ESYE22","admin2_code":"25","admin3_code":"9118","admin4_code":"","population":"1054","elevation":"","dem":"68","timezone":"Europe/Athens","modification_date":"2014-06-12"},{"geonameid":"2463679","name":"Kérkyra","asciiname":"Kerkyra","alternatenames":["CFU","Corcyra","Corfou","Corfu","Corfù","Corfú","Kerkira","Kerkyra","Korfu","Krf","Kérkira","Kérkyra","kerkira","Κέρκυρα","Корфу","Крф"],"latitude":"39.62069","longitude":"19.91975","feature_class":"P","feature_code":"PPLA","country_code":"GR","cc2":"","admin1_code":"ESYE22","admin2_code":"25","admin3_code":"9118","admin4_code":"","population":"27003","elevation":"","dem":"15","timezone":"Europe/Athens","modification_date":"2014-12-04"},{"geonameid":"2463705","name":"Kanáli","asciiname":"Kanali","alternatenames":["Kanali","Kanali Lemendion","Kanalion","Kanalion Lemendion","Kanalion Lemention","Kanáli Lemendíon","Kanálion","Kanálion Lemendíon","Kanálion Lementíon","Κανάλι","Κανάλιον"],"latitude":"39.60556","longitude":"19.8925","feature_class":"P","feature_code":"PPL","country_code":"GR","cc2":"","admin1_code":"ESYE22","admin2_code":"25","admin3_code":"9118","admin4_code":"","population":"4086","elevation":"","dem":"16","timezone":"Europe/Athens","modification_date":"2014-06-13"},{"geonameid":"2463763","name":"Ágios Matthaíos","asciiname":"Agios Matthaios","alternatenames":["Aghios Matheos","Agios Mathaios","Agios Matthaios","Ayios Matthaios","Mathaios","Ágios Matthaíos","Áyios Matthaíos","Άγιος Ματθαίος"],"latitude":"39.49506","longitude":"19.87336","feature_class":"P","feature_code":"PPL","country_code":"GR","cc2":"","admin1_code":"ESYE22","admin2_code":"25","admin3_code":"9118","admin4_code":"","population":"1088","elevation":"","dem":"112","timezone":"Europe/Athens","modification_date":"2014-10-01"},{"geonameid":"2463800","name":"Alepoú","asciiname":"Alepou","alternatenames":["Alepou","Alepoú","Αλεπού"],"latitude":"39.61594","longitude":"19.89564","feature_class":"P","feature_code":"PPL","country_code":"GR","cc2":"","admin1_code":"ESYE22","admin2_code":"25","admin3_code":"9118","admin4_code":"","population":"3149","elevation":"","dem":"16","timezone":"Europe/Athens","modification_date":"2014-06-12"},{"geonameid":"6692637","name":"Acharávi","asciiname":"Acharavi","alternatenames":["Acharavi","Αχαράβη"],"latitude":"39.7936","longitude":"19.81736","feature_class":"P","feature_code":"PPL","country_code":"GR","cc2":"","admin1_code":"ESYE22","admin2_code":"25","admin3_code":"9118","admin4_code":"","population":"1013","elevation":"","dem":"8","timezone":"Europe/Athens","modification_date":"2014-06-13"},{"geonameid":"6692641","name":"Agios Georgis","asciiname":"Agios Georgis","alternatenames":["Aghios Georgios","Agios Georgios","Agios-Georgios","Агиос Георгиос","Агиос-Георгиос"],"latitude":"39.72363","longitude":"19.69969","feature_class":"P","feature_code":"PPL","country_code":"GR","cc2":"","admin1_code":"ESYE22","admin2_code":"25","admin3_code":"9118","admin4_code":"","population":"4958","elevation":"","dem":"25","timezone":"Europe/Athens","modification_date":"2014-06-12"},{"geonameid":"6692709","name":"Nidri","asciiname":"Nidri","alternatenames":["Nidri","Nydri","Νυδρί","Нидри"],"latitude":"38.70708","longitude":"20.70983","feature_class":"P","feature_code":"PPL","country_code":"GR","cc2":"","admin1_code":"ESYE22","admin2_code":"26","admin3_code":"9121","admin4_code":"","population":"1011","elevation":"","dem":"4","timezone":"Europe/Athens","modification_date":"2014-06-21"},{"geonameid":"9165903","name":"Pérama","asciiname":"Perama","alternatenames":["Perama","Πέραμα"],"latitude":"39.58289","longitude":"19.9122","feature_class":"P","feature_code":"PPL","country_code":"GR","cc2":"","admin1_code":"ESYE22","admin2_code":"25","admin3_code":"9118","admin4_code":"","population":"1021","elevation":"","dem":"124","timezone":"Europe/Athens","modification_date":"2014-06-12"}]}