{"region_data":{"countryId":"934841","adminCode1":"03","countryName":"Swaziland","fclName":"country, state, region,...","countryCode":"SZ","lng":"31.25","fcodeName":"first-order administrative division","toponymName":"Manzini District","fcl":"A","numberOfChildren":2,"name":"Manzini District","fcode":"ADM1","geonameId":934994,"lat":"-26.58333","adminName1":"Manzini","population":354155},"country_data":{"ISO":"SZ","ISO3":"SWZ","ISO_Numeric":"748","fips":"WZ","country":"Swaziland","capital":"Mbabane","area":"17363","Population":"1354051","Continent":"AF","tld":".sz","CurrencyCode":"SZL","CurrencyName":"Lilangeni","Phone":"268","Postal_Code_Format":"@###","Postal_Code_Regex":"^([A-Z]\\d{3})$","Languages":"en-SZ,ss-SZ","geonameid":"934841","neighbours":"ZA,MZ","EquivalentFipsCode":""},"cities":[{"geonameid":"934971","name":"Mhlambanyatsi","asciiname":"Mhlambanyatsi","alternatenames":["Mhlambanyati","Mhlambanyatsi"],"latitude":"-26.45","longitude":"31.01667","feature_class":"P","feature_code":"PPL","country_code":"SZ","cc2":"","admin1_code":"03","admin2_code":"","admin3_code":"","admin4_code":"","population":"2886","elevation":"","dem":"1317","timezone":"Africa/Mbabane","modification_date":"2012-01-18"},{"geonameid":"934995","name":"Manzini","asciiname":"Manzini","alternatenames":["Bremersdorp","MTS","Maneini","Manzini","Manêini","man qi ni","Манзини","曼齐尼"],"latitude":"-26.49884","longitude":"31.38004","feature_class":"P","feature_code":"PPLA","country_code":"SZ","cc2":"","admin1_code":"03","admin2_code":"","admin3_code":"","admin4_code":"","population":"110537","elevation":"","dem":"601","timezone":"Africa/Mbabane","modification_date":"2013-04-13"},{"geonameid":"935005","name":"Malkerns","asciiname":"Malkerns","alternatenames":[""],"latitude":"-26.56667","longitude":"31.18333","feature_class":"P","feature_code":"PPL","country_code":"SZ","cc2":"","admin1_code":"03","admin2_code":"","admin3_code":"","admin4_code":"","population":"9724","elevation":"","dem":"684","timezone":"Africa/Mbabane","modification_date":"2013-03-02"},{"geonameid":"935054","name":"Kwaluseni","asciiname":"Kwaluseni","alternatenames":["Kwaluseni"],"latitude":"-26.48333","longitude":"31.33333","feature_class":"P","feature_code":"PPL","country_code":"SZ","cc2":"","admin1_code":"03","admin2_code":"","admin3_code":"","admin4_code":"","population":"3395","elevation":"","dem":"677","timezone":"Africa/Mbabane","modification_date":"2013-03-02"},{"geonameid":"935114","name":"Bhunya","asciiname":"Bhunya","alternatenames":["Bhunya","Bunya"],"latitude":"-26.55","longitude":"31.01667","feature_class":"P","feature_code":"PPL","country_code":"SZ","cc2":"","admin1_code":"03","admin2_code":"","admin3_code":"","admin4_code":"","population":"3046","elevation":"","dem":"956","timezone":"Africa/Mbabane","modification_date":"2013-03-02"}]}