{"region_data":{"adminCode1":"01","lng":"33.86667","geonameId":146615,"toponymName":"Eparchía Ammochóstou","countryId":"146669","fcl":"A","population":37738,"numberOfChildren":98,"countryCode":"CY","name":"Ammochostos","fclName":"country, state, region,...","countryName":"Cyprus","fcodeName":"first-order administrative division","adminName1":"Ammochostos","lat":"35.33333","fcode":"ADM1"},"country_data":{"ISO":"CY","ISO3":"CYP","ISO_Numeric":"196","fips":"CY","country":"Cyprus","capital":"Nicosia","area":"9250","Population":"1102677","Continent":"EU","tld":".cy","CurrencyCode":"EUR","CurrencyName":"Euro","Phone":"357","Postal_Code_Format":"####","Postal_Code_Regex":"^(\\d{4})$","Languages":"el-CY,tr-CY,en","geonameid":"146669","neighbours":"","EquivalentFipsCode":""},"cities":[{"geonameid":"18918","name":"Protaras","asciiname":"Protaras","alternatenames":["Protaras","Протарас"],"latitude":"35.0125","longitude":"34.05833","feature_class":"P","feature_code":"PPL","country_code":"CY","cc2":"","admin1_code":"01","admin2_code":"","admin3_code":"","admin4_code":"","population":"20230","elevation":"","dem":"9","timezone":"Asia/Nicosia","modification_date":"2014-07-16"},{"geonameid":"146027","name":"Tríkomo","asciiname":"Trikomo","alternatenames":["Iskele","Trikomo","Tríkomo","İskele","Τρίκωμο"],"latitude":"35.28628","longitude":"33.89167","feature_class":"P","feature_code":"PPL","country_code":"CY","cc2":"","admin1_code":"01","admin2_code":"","admin3_code":"","admin4_code":"","population":"4490","elevation":"","dem":"30","timezone":"Asia/Nicosia","modification_date":"2015-01-07"},{"geonameid":"146105","name":"Rizokárpaso","asciiname":"Rizokarpaso","alternatenames":["Dipkarpas","Dipkarpaz","Dipkurpaz","Rizokarpaso","Rizokarpason","Rizokarpasso","Rizokárpaso","Ριζοκάρπασο"],"latitude":"35.59719","longitude":"34.37916","feature_class":"P","feature_code":"PPL","country_code":"CY","cc2":"","admin1_code":"01","admin2_code":"","admin3_code":"","admin4_code":"","population":"5215","elevation":"","dem":"133","timezone":"Asia/Nicosia","modification_date":"2014-03-05"},{"geonameid":"146154","name":"Frénaros","asciiname":"Frenaros","alternatenames":["Frenaro","Frenaros","Frennaros","Frénaros","Phrenaros","Φρέναρος"],"latitude":"35.04121","longitude":"33.92242","feature_class":"P","feature_code":"PPL","country_code":"CY","cc2":"","admin1_code":"01","admin2_code":"","admin3_code":"","admin4_code":"","population":"3450","elevation":"","dem":"76","timezone":"Asia/Nicosia","modification_date":"2014-09-30"},{"geonameid":"146209","name":"Paralímni","asciiname":"Paralimni","alternatenames":["Paralim","Paralimni","Paralímni","Παραλίμνι"],"latitude":"35.03945","longitude":"33.98181","feature_class":"P","feature_code":"PPL","country_code":"CY","cc2":"","admin1_code":"01","admin2_code":"","admin3_code":"","admin4_code":"","population":"11836","elevation":"","dem":"81","timezone":"Asia/Nicosia","modification_date":"2014-09-30"},{"geonameid":"146375","name":"Liopétri","asciiname":"Liopetri","alternatenames":["Leopetra","Liopetri","Liopétri","Liyopetri","Λιοπέτρι"],"latitude":"35.00885","longitude":"33.89256","feature_class":"P","feature_code":"PPL","country_code":"CY","cc2":"","admin1_code":"01","admin2_code":"","admin3_code":"","admin4_code":"","population":"4005","elevation":"","dem":"44","timezone":"Asia/Nicosia","modification_date":"2014-09-30"},{"geonameid":"146386","name":"Leonárisso","asciiname":"Leonarisso","alternatenames":["Leonariso","Leonarisso","Leonárisso","Ziamet","Ziyamet","Λεονάρισσο"],"latitude":"35.46892","longitude":"34.13886","feature_class":"P","feature_code":"PPL","country_code":"CY","cc2":"","admin1_code":"01","admin2_code":"","admin3_code":"","admin4_code":"","population":"1593","elevation":"","dem":"137","timezone":"Asia/Nicosia","modification_date":"2014-05-28"},{"geonameid":"146391","name":"Lefkónoiko","asciiname":"Lefkonoiko","alternatenames":["Aksaray","Gecitkale","Geçitkale","Lefkoniko","Lefkonikon","Lefkonoiko","Lefkonuk","Lefkónoiko","Λευκόνοικο"],"latitude":"35.2598","longitude":"33.73189","feature_class":"P","feature_code":"PPL","country_code":"CY","cc2":"","admin1_code":"01","admin2_code":"","admin3_code":"","admin4_code":"","population":"3187","elevation":"","dem":"62","timezone":"Asia/Nicosia","modification_date":"2014-12-03"},{"geonameid":"146617","name":"Famagusta","asciiname":"Famagusta","alternatenames":["Ammochostos","Ammochostus","Ammokhostos","Ammóchostos","Ammókhostos","Amokhostos","Famagosta","Famagouste","Famagusta","Gazi Magosa","Gazimagusa","Gazimağusa","Magosa","Magusa","Mağusa","fa ma gu si ta","famaghwsta","famagusuta","famagwsta","pamaguseuta","pmgwsth","Αμμόχωστος","Амохостос","Фамагуста","פמגוסטה","فاماغوستا","فاماگوستا","ファマグスタ","法马古斯塔","파마구스타"],"latitude":"35.12054","longitude":"33.93894","feature_class":"P","feature_code":"PPLA","country_code":"CY","cc2":"","admin1_code":"01","admin2_code":"","admin3_code":"","admin4_code":"","population":"42526","elevation":"","dem":"14","timezone":"Asia/Nicosia","modification_date":"2014-09-30"},{"geonameid":"146661","name":"Derýneia","asciiname":"Deryneia","alternatenames":["Derinia","Derinkoy","Derinköy","Derinya","Deryneia","Derynia","Derýneia","Dherinia","Δερύνεια"],"latitude":"35.06484","longitude":"33.96083","feature_class":"P","feature_code":"PPL","country_code":"CY","cc2":"","admin1_code":"01","admin2_code":"","admin3_code":"","admin4_code":"","population":"5161","elevation":"","dem":"67","timezone":"Asia/Nicosia","modification_date":"2014-09-30"},{"geonameid":"146748","name":"Ayia Napa","asciiname":"Ayia Napa","alternatenames":["Agia Napa","Agija Napa","Ajja-Napa","Aya Napa","Ayia Napa","Aynapa","QNP","Агия Напа","Айя-Напа","איה נאפה"],"latitude":"34.98213","longitude":"34.00183","feature_class":"P","feature_code":"PPL","country_code":"CY","cc2":"","admin1_code":"01","admin2_code":"","admin3_code":"","admin4_code":"","population":"2798","elevation":"","dem":"4","timezone":"Asia/Nicosia","modification_date":"2014-07-15"},{"geonameid":"146761","name":"Avgórou","asciiname":"Avgorou","alternatenames":["Avgora","Avgoro","Avgorou","Avgoru","Avgórou","Αυγόρου"],"latitude":"35.03615","longitude":"33.83918","feature_class":"P","feature_code":"PPL","country_code":"CY","cc2":"","admin1_code":"01","admin2_code":"","admin3_code":"","admin4_code":"","population":"4177","elevation":"","dem":"41","timezone":"Asia/Nicosia","modification_date":"2014-09-30"},{"geonameid":"146767","name":"Áchna","asciiname":"Achna","alternatenames":["Achna","Ahna","Akhna","Athna","Duzce","Düzce","Áchna","Άχνα"],"latitude":"35.05515","longitude":"33.78388","feature_class":"P","feature_code":"PPL","country_code":"CY","cc2":"","admin1_code":"01","admin2_code":"","admin3_code":"","admin4_code":"","population":"2043","elevation":"","dem":"50","timezone":"Asia/Nicosia","modification_date":"2014-09-30"},{"geonameid":"146842","name":"Acherítou","asciiname":"Acheritou","alternatenames":["Acheritou","Acherítou","Agratur","Aharida","Aharitu","Ahiritu","Akhyritou","Aseritu","Ağratur","Aşeritu","Guvercinlik","Güvercinlik","Kouverjinlik","Αχερίτου"],"latitude":"35.10022","longitude":"33.86155","feature_class":"P","feature_code":"PPL","country_code":"CY","cc2":"","admin1_code":"01","admin2_code":"","admin3_code":"","admin4_code":"","population":"1721","elevation":"","dem":"23","timezone":"Asia/Nicosia","modification_date":"2014-09-30"}]}