{"region_data":{"adminCode1":"01","lng":"72","geonameId":1147745,"toponymName":"Badakhshān","countryId":"1149361","fcl":"A","population":1062937,"numberOfChildren":29,"countryCode":"AF","name":"Badakhshan","fclName":"country, state, region,...","countryName":"Afghanistan","fcodeName":"first-order administrative division","adminName1":"Badakhshan","lat":"36.75","fcode":"ADM1"},"country_data":{"ISO":"AF","ISO3":"AFG","ISO_Numeric":"004","fips":"AF","country":"Afghanistan","capital":"Kabul","area":"647500","Population":"29121286","Continent":"AS","tld":".af","CurrencyCode":"AFN","CurrencyName":"Afghani","Phone":"93","Postal_Code_Format":"","Postal_Code_Regex":"","Languages":"fa-AF,ps,uz-AF,tk","geonameid":"1149361","neighbours":"TM,CN,IR,TJ,PK,UZ","EquivalentFipsCode":""},"cities":[{"geonameid":"1120616","name":"Zaybāk","asciiname":"Zaybak","alternatenames":["Zaybak","Zaybāk","Zebak","Zeybak","Zeybāk","Zibak","Zēbāk","Zībāk","zybak","زیباک"],"latitude":"36.52947","longitude":"71.3441","feature_class":"P","feature_code":"PPLA2","country_code":"AF","cc2":"","admin1_code":"01","admin2_code":"","admin3_code":"","admin4_code":"","population":"0","elevation":"","dem":"2616","timezone":"Asia/Kabul","modification_date":"2013-12-09"},{"geonameid":"1122705","name":"Bāzār-e Tashkān","asciiname":"Bazar-e Tashkan","alternatenames":["Bazar-e Tagan","Bazar-e Tashgan","Bazar-e Tashkan","Bazar-i-Teskan","Bāzār-e Tagān","Bāzār-e Tashgān","Bāzār-e Tashkān","Bāzāṟ-i-Tēs̄kān","Tashkan","Tashkān","Taskan","Tas̄kān","Teshkan","Teshkān","bazar tshkan","tshkan","بازار تشکان","تشکان"],"latitude":"36.88168","longitude":"70.27674","feature_class":"P","feature_code":"PPLA2","country_code":"AF","cc2":"","admin1_code":"01","admin2_code":"","admin3_code":"","admin4_code":"","population":"0","elevation":"","dem":"1285","timezone":"Asia/Kabul","modification_date":"2012-05-05"},{"geonameid":"1125890","name":"Shahrān","asciiname":"Shahran","alternatenames":["Sahran","Sahṟān","Shaharan","Shaharān","Shahran","Shahrān","shhran","شهران"],"latitude":"36.97984","longitude":"70.73928","feature_class":"P","feature_code":"PPLA2","country_code":"AF","cc2":"","admin1_code":"01","admin2_code":"","admin3_code":"","admin4_code":"","population":"0","elevation":"","dem":"2093","timezone":"Asia/Kabul","modification_date":"2012-02-28"},{"geonameid":"1129928","name":"Qal‘ah-ye Kūf","asciiname":"Qal`ah-ye Kuf","alternatenames":["Kala Kuf","Qal'a-i-Kuf","Qal`ah-ye Kuf","Qal`eh-ye Kuf","Qala-i-Kof","Qala-i-Kot","Qal‘ah-ye Kūf","Qal‘eh-ye Kūf","Qal’a-i-Kūf","قلعۀ کوف"],"latitude":"38.04119","longitude":"70.47298","feature_class":"P","feature_code":"PPLA2","country_code":"AF","cc2":"","admin1_code":"01","admin2_code":"","admin3_code":"","admin4_code":"","population":"0","elevation":"","dem":"1383","timezone":"Asia/Kabul","modification_date":"2012-02-28"},{"geonameid":"1131591","name":"Nūsay","asciiname":"Nusay","alternatenames":["Kusai","Nesay Darwaz","Nesay Ḏaṟwāz","Nusai","Nusay","Nūsay","Qaryah-ye Nusay","nwsy","qryh nsy","قريه نسی","نوسی"],"latitude":"38.4435","longitude":"70.80413","feature_class":"P","feature_code":"PPLA2","country_code":"AF","cc2":"","admin1_code":"01","admin2_code":"","admin3_code":"","admin4_code":"","population":"0","elevation":"","dem":"1260","timezone":"Asia/Kabul","modification_date":"2013-09-05"},{"geonameid":"1133657","name":"Māymay","asciiname":"Maymay","alternatenames":["Mah Mayk","Mahmai","Mahmey","Maymay","Maymey","Māh Mayk","Māymay","Māymey","Māymāy","maymy","مایمی"],"latitude":"38.40856","longitude":"71.03839","feature_class":"P","feature_code":"PPLA2","country_code":"AF","cc2":"","admin1_code":"01","admin2_code":"","admin3_code":"","admin4_code":"","population":"0","elevation":"","dem":"1636","timezone":"Asia/Kabul","modification_date":"2012-02-28"},{"geonameid":"1133749","name":"Mashhad","asciiname":"Mashhad","alternatenames":["Mashad","Mashhad","mshhd","مشهد"],"latitude":"36.81665","longitude":"70.10211","feature_class":"P","feature_code":"PPLA2","country_code":"AF","cc2":"","admin1_code":"01","admin2_code":"","admin3_code":"","admin4_code":"","population":"0","elevation":"","dem":"977","timezone":"Asia/Kabul","modification_date":"2012-02-28"},{"geonameid":"1135656","name":"‘Alāqahdārī Kirān wa Munjān","asciiname":"`Alaqahdari Kiran wa Munjan","alternatenames":["Keran va Menjan","Kerana va Manjah","Kerān va Menjān","Kiran wa Munjan","Kirān wa Munjān","Koran va Monjan","Koranomunjan","Korān va Monjān","Koṟānomunjān","`Alaqahdari Kiran wa Munjan","`Alaqehdari-ye Koran va Monjan","علاقه داری کران و منجان","‘Alāqahdārī Kirān wa Munjān","‘Alāqehdārī-ye Korān va Monjān"],"latitude":"36.02866","longitude":"70.77258","feature_class":"P","feature_code":"PPLA2","country_code":"AF","cc2":"","admin1_code":"01","admin2_code":"","admin3_code":"","admin4_code":"","population":"0","elevation":"","dem":"2550","timezone":"Asia/Kabul","modification_date":"2012-05-05"},{"geonameid":"1136354","name":"Deh Khwāhān","asciiname":"Deh Khwahan","alternatenames":["Deh Khahan","Deh Khwahan","Deh Khwāhān","Deh Khāhān","Khvahan","Khvāhān","Khwahan","Khwāhān","Qala Khwahan","dh khahan","dh khwahan","khwahan","خواهان","ده خاهان","ده خواهان","Ḏeh Khāhān"],"latitude":"37.88965","longitude":"70.21875","feature_class":"P","feature_code":"PPLA2","country_code":"AF","cc2":"","admin1_code":"01","admin2_code":"","admin3_code":"","admin4_code":"","population":"0","elevation":"","dem":"1047","timezone":"Asia/Kabul","modification_date":"2012-05-05"},{"geonameid":"1137148","name":"Khandūd","asciiname":"Khandud","alternatenames":["Khandud","Khandut","Khandūd","Khanḏūḏ","khndwd","خندود"],"latitude":"36.95127","longitude":"72.318","feature_class":"P","feature_code":"PPLA2","country_code":"AF","cc2":"","admin1_code":"01","admin2_code":"","admin3_code":"","admin4_code":"","population":"5521","elevation":"","dem":"2807","timezone":"Asia/Kabul","modification_date":"2012-02-28"},{"geonameid":"1139085","name":"Jurm","asciiname":"Jurm","alternatenames":["Jarm","Jorm","Jurm","Jurn","Shahr-e Jorm","jrm","جرم"],"latitude":"36.86477","longitude":"70.83421","feature_class":"P","feature_code":"PPLA2","country_code":"AF","cc2":"","admin1_code":"01","admin2_code":"","admin3_code":"","admin4_code":"","population":"12106","elevation":"","dem":"1564","timezone":"Asia/Kabul","modification_date":"2012-05-05"},{"geonameid":"1140433","name":"Ḩāfiz̧ Moghul","asciiname":"Hafiz Moghul","alternatenames":["Hafez Moghol","Hafez Mughul","Hafiz Moghul","Hāfeẕ Mughul","hafz mghl","حافظ مغل","Ḩāfez̧ Moghol","Ḩāfiz̧ Moghul"],"latitude":"37.05643","longitude":"70.40061","feature_class":"P","feature_code":"PPLA2","country_code":"AF","cc2":"","admin1_code":"01","admin2_code":"","admin3_code":"","admin4_code":"","population":"0","elevation":"","dem":"1700","timezone":"Asia/Kabul","modification_date":"2012-02-28"},{"geonameid":"1141098","name":"Ghurayd Gharamē","asciiname":"Ghurayd Gharame","alternatenames":["Garm","Gharmai","Gharmi","Gharmī","Ghoraydgharame","Ghowrayd Gharami","Ghowrayd Gharamī","Ghoṟayḏghaṟamē","Ghurayd Gharame","Ghurayd Gharamē","Ghurmay","ghrmy","غرمی","غرید غرمې"],"latitude":"36.5222","longitude":"70.79063","feature_class":"P","feature_code":"PPLA2","country_code":"AF","cc2":"","admin1_code":"01","admin2_code":"","admin3_code":"","admin4_code":"","population":"0","elevation":"","dem":"1884","timezone":"Asia/Kabul","modification_date":"2012-02-28"},{"geonameid":"1142170","name":"Fayzabad","asciiname":"Fayzabad","alternatenames":["FBD","Faizabad","Faizābād","Fajzabad","Faydz Abad","Fayzabad","Fayḏẕ Ābāḏ","Fazelabad","Faīẕābād","Feyzabad","Feyẕābād","fyd abad","Файзабад","فیض آباد"],"latitude":"37.11664","longitude":"70.58002","feature_class":"P","feature_code":"PPLA","country_code":"AF","cc2":"","admin1_code":"01","admin2_code":"","admin3_code":"","admin4_code":"","population":"44421","elevation":"","dem":"1210","timezone":"Asia/Kabul","modification_date":"2013-09-21"},{"geonameid":"1144121","name":"Darāyim","asciiname":"Darayim","alternatenames":["Daraim","Darayim","Darāyim","draym","درايم"],"latitude":"36.86667","longitude":"70.38333","feature_class":"P","feature_code":"PPLA2","country_code":"AF","cc2":"","admin1_code":"01","admin2_code":"","admin3_code":"","admin4_code":"","population":"0","elevation":"","dem":"1693","timezone":"Asia/Kabul","modification_date":"2012-02-28"},{"geonameid":"1145607","name":"Chākarān","asciiname":"Chakaran","alternatenames":["Cakaran","Chakaran","Chākarān","Cākaṟān","Khakaran","Khākarān","chakran","چاکران"],"latitude":"36.91112","longitude":"71.0688","feature_class":"P","feature_code":"PPLA2","country_code":"AF","cc2":"","admin1_code":"01","admin2_code":"","admin3_code":"","admin4_code":"","population":"0","elevation":"","dem":"1759","timezone":"Asia/Kabul","modification_date":"2013-11-07"},{"geonameid":"1147489","name":"Bahārak","asciiname":"Baharak","alternatenames":["Bagorak","Baharak","Baharestan","Baharistan","Bahārak","Bahārestān","Bahāristān","Bakharak","Barak","Becharek","Bekharek","bhark","بهارک"],"latitude":"37.00254","longitude":"70.90664","feature_class":"P","feature_code":"PPLA2","country_code":"AF","cc2":"","admin1_code":"01","admin2_code":"","admin3_code":"","admin4_code":"","population":"0","elevation":"","dem":"1552","timezone":"Asia/Kabul","modification_date":"2013-11-07"},{"geonameid":"1148268","name":"Ashkāsham","asciiname":"Ashkasham","alternatenames":[""],"latitude":"36.68333","longitude":"71.53333","feature_class":"P","feature_code":"PPL","country_code":"AF","cc2":"","admin1_code":"01","admin2_code":"","admin3_code":"","admin4_code":"","population":"12120","elevation":"","dem":"3057","timezone":"Asia/Kabul","modification_date":"2006-01-27"},{"geonameid":"1467433","name":"March","asciiname":"March","alternatenames":["Marc","March","Maṟc","Qaryah-ye Murch","mrch","qryh mrch","قريه مرچ","مرچ"],"latitude":"37.52845","longitude":"70.4482","feature_class":"P","feature_code":"PPLA2","country_code":"AF","cc2":"","admin1_code":"01","admin2_code":"","admin3_code":"","admin4_code":"","population":"0","elevation":"","dem":"1607","timezone":"Asia/Kabul","modification_date":"2012-02-29"},{"geonameid":"1467505","name":"Zīrakī","asciiname":"Ziraki","alternatenames":["Ziraki","Zīrakī","Zīṟakī","zyrky","زیرکی"],"latitude":"37.59233","longitude":"70.55814","feature_class":"P","feature_code":"PPLA2","country_code":"AF","cc2":"","admin1_code":"01","admin2_code":"","admin3_code":"","admin4_code":"","population":"0","elevation":"","dem":"2475","timezone":"Asia/Kabul","modification_date":"2013-09-09"},{"geonameid":"1468514","name":"Pas Pul","asciiname":"Pas Pul","alternatenames":["Pas Pol","Pas Pul","ps pl","پس پل"],"latitude":"37.47355","longitude":"70.61617","feature_class":"P","feature_code":"PPLA2","country_code":"AF","cc2":"","admin1_code":"01","admin2_code":"","admin3_code":"","admin4_code":"","population":"0","elevation":"","dem":"2143","timezone":"Asia/Kabul","modification_date":"2013-09-09"}]}