{"region_data":{"countryId":"2623032","adminCode1":"21","countryName":"Denmark","fclName":"country, state, region,...","countryCode":"DK","lng":"10.345","fcodeName":"first-order administrative division","toponymName":"Region Syddanmark","fcl":"A","numberOfChildren":22,"name":"South Denmark","fcode":"ADM1","geonameId":6418542,"lat":"55.37911","adminName1":"South Denmark","population":1200277},"country_data":{"ISO":"DK","ISO3":"DNK","ISO_Numeric":"208","fips":"DA","country":"Denmark","capital":"Copenhagen","area":"43094","Population":"5484000","Continent":"EU","tld":".dk","CurrencyCode":"DKK","CurrencyName":"Krone","Phone":"45","Postal_Code_Format":"####","Postal_Code_Regex":"^(\\d{4})$","Languages":"da-DK,en,fo,de-DK","geonameid":"2623032","neighbours":"DE","EquivalentFipsCode":""},"cities":[{"geonameid":"2610075","name":"Vojens","asciiname":"Vojens","alternatenames":["SKS","Vojens"],"latitude":"55.24639","longitude":"9.30603","feature_class":"P","feature_code":"PPL","country_code":"DK","cc2":"","admin1_code":"21","admin2_code":"510","admin3_code":"","admin4_code":"","population":"8019","elevation":"","dem":"42","timezone":"Europe/Copenhagen","modification_date":"2012-01-17"},{"geonameid":"2610613","name":"Vejle","asciiname":"Vejle","alternatenames":["Vaile","Vailė","Vajle","Vejle","baille","vaile","vu~aire","wa ai lei","waylh","wile","Вайле","Вајле","Вејле","وایله","ไวเล","ვაილე","ヴァイレ","瓦埃勒","바일레"],"latitude":"55.70927","longitude":"9.5357","feature_class":"P","feature_code":"PPLA","country_code":"DK","cc2":"","admin1_code":"21","admin2_code":"630","admin3_code":"","admin4_code":"","population":"51177","elevation":"","dem":"5","timezone":"Europe/Copenhagen","modification_date":"2010-01-29"},{"geonameid":"2610634","name":"Vejen","asciiname":"Vejen","alternatenames":["Vejen"],"latitude":"55.48117","longitude":"9.13795","feature_class":"P","feature_code":"PPLA2","country_code":"DK","cc2":"","admin1_code":"21","admin2_code":"575","admin3_code":"","admin4_code":"","population":"8525","elevation":"","dem":"41","timezone":"Europe/Copenhagen","modification_date":"2014-02-06"},{"geonameid":"2610726","name":"Varde","asciiname":"Varde","alternatenames":["Varde","Варде"],"latitude":"55.62112","longitude":"8.48069","feature_class":"P","feature_code":"PPLA2","country_code":"DK","cc2":"","admin1_code":"21","admin2_code":"573","admin3_code":"","admin4_code":"","population":"12735","elevation":"","dem":"11","timezone":"Europe/Copenhagen","modification_date":"2011-03-01"},{"geonameid":"2611497","name":"Tønder","asciiname":"Tonder","alternatenames":["Tjonner","Tonder","Tondern","Tuner","Tynne","Tønder","toeneleu","to~una","Тённер","トゥナー","퇴네르"],"latitude":"54.93306","longitude":"8.86674","feature_class":"P","feature_code":"PPLA2","country_code":"DK","cc2":"","admin1_code":"21","admin2_code":"550","admin3_code":"","admin4_code":"","population":"7841","elevation":"","dem":"3","timezone":"Europe/Copenhagen","modification_date":"2011-03-01"},{"geonameid":"2612045","name":"Svendborg","asciiname":"Svendborg","alternatenames":["QXV","Svenborg","Svendborg","Svennborge","svenborgi","Свендборг","Свеннборге","სვენბორგი"],"latitude":"55.05982","longitude":"10.60677","feature_class":"P","feature_code":"PPLA2","country_code":"DK","cc2":"","admin1_code":"21","admin2_code":"479","admin3_code":"","admin4_code":"","population":"27553","elevation":"","dem":"14","timezone":"Europe/Copenhagen","modification_date":"2011-03-01"},{"geonameid":"2613102","name":"Sønderborg","asciiname":"Sonderborg","alternatenames":["Munisipalitas Sonderborg","Munisipalitas Sønderborg","SGD","Senderborg","Sionderborgas","Sjonnenborg","Sjonnerborg","Sonderborg","Sonderburg","Synneborre","Sønderborg","senabo","senerborgi","soeneleuboleu","Сендерборг","Сондерборг","Сённенборг","Сённерборг","სენერბორგი","セナボー","쇠네르보르"],"latitude":"54.90926","longitude":"9.80737","feature_class":"P","feature_code":"PPLA2","country_code":"DK","cc2":"","admin1_code":"21","admin2_code":"540","admin3_code":"","admin4_code":"","population":"27033","elevation":"","dem":"17","timezone":"Europe/Copenhagen","modification_date":"2011-03-01"},{"geonameid":"2614611","name":"Rødekro","asciiname":"Rodekro","alternatenames":["Gmina Rodekro","Gmina Rødekro","Rodekro","Rødekro"],"latitude":"55.07015","longitude":"9.31641","feature_class":"P","feature_code":"PPL","country_code":"DK","cc2":"","admin1_code":"21","admin2_code":"580","admin3_code":"","admin4_code":"","population":"5452","elevation":"","dem":"42","timezone":"Europe/Copenhagen","modification_date":"2012-01-17"},{"geonameid":"2614813","name":"Ribe","asciiname":"Ribe","alternatenames":["Ribe","li bo","libe","ribe","rybh","Рибе","ریبه","リーベ","里伯","리베"],"latitude":"55.33051","longitude":"8.76966","feature_class":"P","feature_code":"PPL","country_code":"DK","cc2":"","admin1_code":"21","admin2_code":"561","admin3_code":"","admin4_code":"","population":"7983","elevation":"","dem":"5","timezone":"Europe/Copenhagen","modification_date":"2010-07-21"},{"geonameid":"2615876","name":"Odense","asciiname":"Odense","alternatenames":["Gorad Odehnseh","ODE","Odensa","Odense","Odensė","Odinsve","Ontense","Othania","adnsh","awdnsh","odense","ou deng sai","xo den se","Óðinsvé","Οντένσε","Горад Одэнсэ","Оденсе","Օդենսե","אודנזה","أودنسه","ادنسه","اوڈینس","โอเดนเซ","ოდენსე","オーデンセ","欧登塞","오덴세"],"latitude":"55.39594","longitude":"10.38831","feature_class":"P","feature_code":"PPLA2","country_code":"DK","cc2":"","admin1_code":"21","admin2_code":"461","admin3_code":"","admin4_code":"","population":"145931","elevation":"","dem":"17","timezone":"Europe/Copenhagen","modification_date":"2011-03-01"},{"geonameid":"2616015","name":"Nyborg","asciiname":"Nyborg","alternatenames":["Njuborg","Nyborg","ni bao zi zhi shi","Нюборг","尼堡自治市"],"latitude":"55.31274","longitude":"10.78964","feature_class":"P","feature_code":"PPLA2","country_code":"DK","cc2":"","admin1_code":"21","admin2_code":"450","admin3_code":"","admin4_code":"","population":"15826","elevation":"","dem":"7","timezone":"Europe/Copenhagen","modification_date":"2011-03-01"},{"geonameid":"2616176","name":"Nordborg","asciiname":"Nordborg","alternatenames":["Gmina Nordborg","Nordborg","Nordburg"],"latitude":"55.05732","longitude":"9.7408","feature_class":"P","feature_code":"PPL","country_code":"DK","cc2":"","admin1_code":"21","admin2_code":"540","admin3_code":"","admin4_code":"","population":"7406","elevation":"","dem":"15","timezone":"Europe/Copenhagen","modification_date":"2012-01-17"},{"geonameid":"2616540","name":"Neder Holluf","asciiname":"Neder Holluf","alternatenames":[""],"latitude":"55.36451","longitude":"10.44824","feature_class":"P","feature_code":"PPL","country_code":"DK","cc2":"","admin1_code":"21","admin2_code":"461","admin3_code":"","admin4_code":"","population":"5612","elevation":"","dem":"17","timezone":"Europe/Copenhagen","modification_date":"2011-12-20"},{"geonameid":"2616672","name":"Munkebo","asciiname":"Munkebo","alternatenames":["Munkebo"],"latitude":"55.46184","longitude":"10.55577","feature_class":"P","feature_code":"PPL","country_code":"DK","cc2":"","admin1_code":"21","admin2_code":"440","admin3_code":"","admin4_code":"","population":"5225","elevation":"","dem":"16","timezone":"Europe/Copenhagen","modification_date":"2012-01-17"},{"geonameid":"2616933","name":"Middelfart","asciiname":"Middelfart","alternatenames":["Middel'fart","Миддельфарт"],"latitude":"55.50591","longitude":"9.73054","feature_class":"P","feature_code":"PPLA2","country_code":"DK","cc2":"","admin1_code":"21","admin2_code":"410","admin3_code":"","admin4_code":"","population":"13596","elevation":"","dem":"4","timezone":"Europe/Copenhagen","modification_date":"2011-03-01"},{"geonameid":"2618528","name":"Kolding","asciiname":"Kolding","alternatenames":["Kol'ding","Kolding","Koldinga","Koldingas","Koldingo","ZBT","ke ling","khxleng","kolling","koringu","kwldyng","Колдинг","Кольдинг","کولدینگ","کولڈنگ","คอเลง","კოლინგი","コリング","科靈","콜링"],"latitude":"55.4904","longitude":"9.47216","feature_class":"P","feature_code":"PPLA2","country_code":"DK","cc2":"","admin1_code":"21","admin2_code":"621","admin3_code":"","admin4_code":"","population":"55363","elevation":"","dem":"8","timezone":"Europe/Copenhagen","modification_date":"2011-03-01"},{"geonameid":"2618944","name":"Kerteminde","asciiname":"Kerteminde","alternatenames":["Kierteminde","Kjerteminde"],"latitude":"55.44903","longitude":"10.65769","feature_class":"P","feature_code":"PPLA2","country_code":"DK","cc2":"","admin1_code":"21","admin2_code":"440","admin3_code":"","admin4_code":"","population":"5748","elevation":"","dem":"5","timezone":"Europe/Copenhagen","modification_date":"2011-03-01"},{"geonameid":"2620964","name":"Haderslev","asciiname":"Haderslev","alternatenames":["Hadersleben","Haderslev","Haderslevas","Haderslevo","Khaderslev","haderslevi","Хадерслев","ჰადერსლევი"],"latitude":"55.25377","longitude":"9.48982","feature_class":"P","feature_code":"PPLA2","country_code":"DK","cc2":"","admin1_code":"21","admin2_code":"510","admin3_code":"","admin4_code":"","population":"20825","elevation":"","dem":"14","timezone":"Europe/Copenhagen","modification_date":"2011-03-01"},{"geonameid":"2621193","name":"Grindsted","asciiname":"Grindsted","alternatenames":["Grindsted"],"latitude":"55.754","longitude":"8.91231","feature_class":"P","feature_code":"PPLA2","country_code":"DK","cc2":"","admin1_code":"21","admin2_code":"530","admin3_code":"","admin4_code":"","population":"9414","elevation":"","dem":"41","timezone":"Europe/Copenhagen","modification_date":"2014-03-05"},{"geonameid":"2621951","name":"Fredericia","asciiname":"Fredericia","alternatenames":["Fredericia","Fredericija","Frederisija","ZBJ","furezerishia","peuledelisia","prederisia","Фредерисия","Фредериција","ფრედერისია","フレゼリシア","프레데리시아"],"latitude":"55.56568","longitude":"9.75257","feature_class":"P","feature_code":"PPLA2","country_code":"DK","cc2":"","admin1_code":"21","admin2_code":"607","admin3_code":"","admin4_code":"","population":"36946","elevation":"","dem":"16","timezone":"Europe/Copenhagen","modification_date":"2011-03-01"},{"geonameid":"2622383","name":"Faaborg","asciiname":"Faaborg","alternatenames":["Fabberg","Faborg","Fåborg"],"latitude":"55.0951","longitude":"10.24226","feature_class":"P","feature_code":"PPL","country_code":"DK","cc2":"","admin1_code":"21","admin2_code":"430","admin3_code":"","admin4_code":"","population":"7239","elevation":"","dem":"7","timezone":"Europe/Copenhagen","modification_date":"2014-03-01"},{"geonameid":"2622447","name":"Esbjerg","asciiname":"Esbjerg","alternatenames":["EBJ","Ehsb'erg","Esber","Esberg","Esbjaerg","Esbjerg","Esbjerga","Esbjergas","Esbjærg","ai si bi yue","asbjrg","asbyrg","esbieri","eseubieleu","esubyau","xe sbiyer","Есбер","Есбєрг","Есбјерг","Эсбьерг","אסביירג","اسبجرگ","اسبیرگ","เอสบีเยร์","ესბიერი","エスビャウ","埃斯比约","에스비에르"],"latitude":"55.47028","longitude":"8.45187","feature_class":"P","feature_code":"PPLA2","country_code":"DK","cc2":"","admin1_code":"21","admin2_code":"561","admin3_code":"","admin4_code":"","population":"72205","elevation":"","dem":"17","timezone":"Europe/Copenhagen","modification_date":"2014-02-06"},{"geonameid":"2623570","name":"Bramming","asciiname":"Bramming","alternatenames":["Bramming","Bramminge","Bramminge Stationsby","Gmina Bramming"],"latitude":"55.46946","longitude":"8.70007","feature_class":"P","feature_code":"PPL","country_code":"DK","cc2":"","admin1_code":"21","admin2_code":"561","admin3_code":"","admin4_code":"","population":"6726","elevation":"","dem":"15","timezone":"Europe/Copenhagen","modification_date":"2012-01-17"},{"geonameid":"2624144","name":"Billund","asciiname":"Billund","alternatenames":["BLL","Billund","Gmina Billund"],"latitude":"55.73349","longitude":"9.10785","feature_class":"P","feature_code":"PPL","country_code":"DK","cc2":"","admin1_code":"21","admin2_code":"530","admin3_code":"","admin4_code":"","population":"6160","elevation":"","dem":"58","timezone":"Europe/Copenhagen","modification_date":"2014-03-01"},{"geonameid":"2624502","name":"Assens","asciiname":"Assens","alternatenames":["Assens","Ассенс"],"latitude":"55.27023","longitude":"9.90081","feature_class":"P","feature_code":"PPLA2","country_code":"DK","cc2":"","admin1_code":"21","admin2_code":"420","admin3_code":"","admin4_code":"","population":"6053","elevation":"","dem":"14","timezone":"Europe/Copenhagen","modification_date":"2011-03-01"},{"geonameid":"2625070","name":"Aabenraa","asciiname":"Aabenraa","alternatenames":["Aabenra","Aabenraa","Aabenrå","Abenra","Abenrá","Abrenra","Apenrade","Obenro","XNR","ao ben luo","obenlo","obenro","Åbenrå","Åbrenrå","Обенро","オーベンロー","奥本罗","오벤로"],"latitude":"55.04434","longitude":"9.41741","feature_class":"P","feature_code":"PPLA2","country_code":"DK","cc2":"","admin1_code":"21","admin2_code":"580","admin3_code":"","admin4_code":"","population":"16344","elevation":"","dem":"16","timezone":"Europe/Copenhagen","modification_date":"2010-07-21"}]}