{"region_data":{"adminCode1":"04","lng":"49","geonameId":75411,"toponymName":"Muḩāfaz̧at Ḩaḑramawt","countryId":"69543","fcl":"A","population":1255000,"numberOfChildren":28,"countryCode":"YE","name":"Muḩāfaz̧at Ḩaḑramawt","fclName":"country, state, region,...","countryName":"Yemen","fcodeName":"first-order administrative division","adminName1":"Muḩāfaz̧at Ḩaḑramawt","lat":"16","fcode":"ADM1"},"country_data":{"ISO":"YE","ISO3":"YEM","ISO_Numeric":"887","fips":"YM","country":"Yemen","capital":"Sanaa","area":"527970","Population":"23495361","Continent":"AS","tld":".ye","CurrencyCode":"YER","CurrencyName":"Rial","Phone":"967","Postal_Code_Format":"","Postal_Code_Regex":"","Languages":"ar-YE","geonameid":"69543","neighbours":"SA,OM","EquivalentFipsCode":""},"cities":[{"geonameid":"71282","name":"Sāh","asciiname":"Sah","alternatenames":["Sah","Sāh","Sāḩ","sah","ساه"],"latitude":"15.57722","longitude":"48.85056","feature_class":"P","feature_code":"PPLA2","country_code":"YE","cc2":"","admin1_code":"04","admin2_code":"1909","admin3_code":"","admin4_code":"","population":"0","elevation":"","dem":"827","timezone":"Asia/Aden","modification_date":"2012-01-16"},{"geonameid":"71549","name":"Ar Raydah","asciiname":"Ar Raydah","alternatenames":["Ar Raydah","Raida","Raidat al Abdul-Wadud","Raydat Al `Abd al Wadud","Raydat Ibn `Abd al Wadud","Raydat Ibn ‘Abd al Wadūd","Raydat Āl ‘Abd al Wadūd","alrydt","الريدة"],"latitude":"15.035","longitude":"50.47917","feature_class":"P","feature_code":"PPLA2","country_code":"YE","cc2":"","admin1_code":"04","admin2_code":"1913","admin3_code":"","admin4_code":"","population":"0","elevation":"","dem":"10","timezone":"Asia/Aden","modification_date":"2012-01-16"},{"geonameid":"72647","name":"Manwakh","asciiname":"Manwakh","alternatenames":["Manwakh","Minwakh","mnwkh","منوخ"],"latitude":"16.80778","longitude":"48.10917","feature_class":"P","feature_code":"PPLA2","country_code":"YE","cc2":"","admin1_code":"04","admin2_code":"1904","admin3_code":"","admin4_code":"","population":"0","elevation":"","dem":"824","timezone":"Asia/Aden","modification_date":"2012-01-16"},{"geonameid":"72855","name":"Al Jawl","asciiname":"Al Jawl","alternatenames":["Al Jawl","Masna`ah","Maşna‘ah","aljwl","الجول"],"latitude":"14.45625","longitude":"48.28066","feature_class":"P","feature_code":"PPLA2","country_code":"YE","cc2":"","admin1_code":"04","admin2_code":"1924","admin3_code":"","admin4_code":"","population":"0","elevation":"","dem":"349","timezone":"Asia/Aden","modification_date":"2012-01-16"},{"geonameid":"73685","name":"Kilmia","asciiname":"Kilmia","alternatenames":["Kilmia"],"latitude":"12.18576","longitude":"52.23332","feature_class":"P","feature_code":"PPL","country_code":"YE","cc2":"","admin1_code":"04","admin2_code":"1927","admin3_code":"","admin4_code":"","population":"2013","elevation":"85","dem":"10","timezone":"Asia/Aden","modification_date":"2011-02-04"},{"geonameid":"74499","name":"As Salāsil","asciiname":"As Salasil","alternatenames":["As Salasil","As Salāsil","Husun al-Salasil","Husun as Salasil","alslasl","السلاسل","Ḥuṣūn al-Salāsil","Ḩuşūn as Salāsil"],"latitude":"16.47959","longitude":"48.83153","feature_class":"P","feature_code":"PPLA2","country_code":"YE","cc2":"","admin1_code":"04","admin2_code":"1903","admin3_code":"","admin4_code":"","population":"0","elevation":"","dem":"1004","timezone":"Asia/Aden","modification_date":"2012-01-16"},{"geonameid":"74785","name":"Al ‘Abr","asciiname":"Al `Abr","alternatenames":["Al `Abr","Al ‘Abr","Hisn al `Abr","Husn al Abr","Husnei Abr","العبر","Ḩişn al ‘Abr"],"latitude":"16.13333","longitude":"47.23333","feature_class":"P","feature_code":"PPLA2","country_code":"YE","cc2":"","admin1_code":"04","admin2_code":"1906","admin3_code":"","admin4_code":"","population":"0","elevation":"","dem":"951","timezone":"Asia/Aden","modification_date":"2012-01-16"},{"geonameid":"75427","name":"Hadibu","asciiname":"Hadibu","alternatenames":["Bilad-as-Sulyan","Hadibo","Hadiboh","Hadibu","Hadibu  Sokotra","Hadīboh","Hudaybu","Khadibo","Tamarida","Tamaridah","Tamarīdah","Tamrida","hdybw","Хадибо","حديبو","Ḩadībū","Ḩudaybū"],"latitude":"12.64881","longitude":"54.01895","feature_class":"P","feature_code":"PPLA2","country_code":"YE","cc2":"","admin1_code":"04","admin2_code":"1926","admin3_code":"","admin4_code":"","population":"8545","elevation":"","dem":"13","timezone":"Asia/Aden","modification_date":"2012-11-06"},{"geonameid":"75618","name":"Ghayl Bā Wazīr","asciiname":"Ghayl Ba Wazir","alternatenames":["Ghail Ba Wazir","Ghail Bā Wazīr","Ghayl Ba Wazir","Ghayl Bā Wazīr","Gheil Ba Wazir","Gheil Bā Wazir","ghyl ba wzyr","غيل با وزير"],"latitude":"14.77611","longitude":"49.36611","feature_class":"P","feature_code":"PPLA2","country_code":"YE","cc2":"","admin1_code":"04","admin2_code":"1917","admin3_code":"","admin4_code":"","population":"0","elevation":"","dem":"87","timezone":"Asia/Aden","modification_date":"2012-01-16"},{"geonameid":"76699","name":"Burūm","asciiname":"Burum","alternatenames":["Burum","Burūm","brwm","بروم"],"latitude":"14.36361","longitude":"48.97972","feature_class":"P","feature_code":"PPLA2","country_code":"YE","cc2":"","admin1_code":"04","admin2_code":"1925","admin3_code":"","admin4_code":"","population":"0","elevation":"","dem":"44","timezone":"Asia/Aden","modification_date":"2012-01-16"},{"geonameid":"77803","name":"Al Bilād","asciiname":"Al Bilad","alternatenames":["Al Bilad","Al Bilād","Al-Saum","As Sawm","As Som","alblad","البلاد"],"latitude":"16.13806","longitude":"49.29167","feature_class":"P","feature_code":"PPLA2","country_code":"YE","cc2":"","admin1_code":"04","admin2_code":"1912","admin3_code":"","admin4_code":"","population":"0","elevation":"","dem":"561","timezone":"Asia/Aden","modification_date":"2012-01-16"},{"geonameid":"78448","name":"‘Amd","asciiname":"`Amd","alternatenames":["`Amd","عمد","‘Amd"],"latitude":"15.3","longitude":"47.98333","feature_class":"P","feature_code":"PPLA2","country_code":"YE","cc2":"","admin1_code":"04","admin2_code":"1921","admin3_code":"","admin4_code":"","population":"0","elevation":"","dem":"1270","timezone":"Asia/Aden","modification_date":"2012-01-16"},{"geonameid":"78754","name":"Al Mukallā","asciiname":"Al Mukalla","alternatenames":["Al Mukalla","Al Mukallā","Al'-Mukalla","Al-Mukalla","MKX","Mukalla","almkla","Аль-Мукалла","المكلا"],"latitude":"14.54248","longitude":"49.12424","feature_class":"P","feature_code":"PPLA","country_code":"YE","cc2":"","admin1_code":"04","admin2_code":"1929","admin3_code":"","admin4_code":"","population":"258132","elevation":"","dem":"39","timezone":"Asia/Aden","modification_date":"2015-06-05"},{"geonameid":"79393","name":"Ḩurayḑah","asciiname":"Huraydah","alternatenames":["Al Huraydah","Al Ḩurayḑah","Al-Huraidah","Huraidha","Huraydah","hrydt","حريضة","Ḩurayḑah"],"latitude":"15.59861","longitude":"48.18278","feature_class":"P","feature_code":"PPLA2","country_code":"YE","cc2":"","admin1_code":"04","admin2_code":"1928","admin3_code":"","admin4_code":"","population":"0","elevation":"","dem":"838","timezone":"Asia/Aden","modification_date":"2012-01-16"},{"geonameid":"79478","name":"Al Qaţn","asciiname":"Al Qatn","alternatenames":["Al Hawtah","Al Qatan","Al Qatn","Al Qaţn","Al Ḩawţah","Al-Hautah","Hauta","Qatan","Qaţan","alqtn","القطن"],"latitude":"15.84056","longitude":"48.45556","feature_class":"P","feature_code":"PPLA2","country_code":"YE","cc2":"","admin1_code":"04","admin2_code":"1907","admin3_code":"","admin4_code":"","population":"0","elevation":"","dem":"684","timezone":"Asia/Aden","modification_date":"2012-01-16"},{"geonameid":"79609","name":"Ḩajar al Mushā’ikh","asciiname":"Hajar al Musha'ikh","alternatenames":["Al Hajar","Al Hayr","Al Ḩajar","Al Ḩayr","Al-Hair","Al-Ḥair","Hajar al Musha'ikh","hjr almshaykh","حجر المشائخ","Ḩajar al Mushā’ikh"],"latitude":"16.13333","longitude":"47.83333","feature_class":"P","feature_code":"PPLA2","country_code":"YE","cc2":"","admin1_code":"04","admin2_code":"1905","admin3_code":"","admin4_code":"","population":"0","elevation":"","dem":"1236","timezone":"Asia/Aden","modification_date":"2012-01-16"},{"geonameid":"79845","name":"Al Bāţinah","asciiname":"Al Batinah","alternatenames":["Al Batinah","Al Bāţinah","albatnt","الباطنة"],"latitude":"15.48333","longitude":"48.43333","feature_class":"P","feature_code":"PPLA2","country_code":"YE","cc2":"","admin1_code":"04","admin2_code":"1919","admin3_code":"","admin4_code":"","population":"0","elevation":"","dem":"948","timezone":"Asia/Aden","modification_date":"2012-01-16"},{"geonameid":"80331","name":"Ad Dīs ash Sharqīyah","asciiname":"Ad Dis ash Sharqiyah","alternatenames":["Ad Dis","Ad Dis ash Sharqiyah","Ad Dīs","Ad Dīs ash Sharqīyah","Dis","Dīs","aldys alshrqyt","الديس الشرقية"],"latitude":"14.90806","longitude":"49.94778","feature_class":"P","feature_code":"PPLA2","country_code":"YE","cc2":"","admin1_code":"04","admin2_code":"1914","admin3_code":"","admin4_code":"","population":"0","elevation":"","dem":"74","timezone":"Asia/Aden","modification_date":"2012-01-16"},{"geonameid":"80383","name":"Az̧ Z̧alī‘ah","asciiname":"Az Zali`ah","alternatenames":["Ad Dali`ah","Ad Dalī‘ah","Al-Dali`ah","Al-Dalī‘ah","Az Zali`ah","Az̧ Z̧alī‘ah","Dhula","Dhula'a","Dhula’a","الظليعة"],"latitude":"15.01667","longitude":"48.01667","feature_class":"P","feature_code":"PPLA2","country_code":"YE","cc2":"","admin1_code":"04","admin2_code":"1922","admin3_code":"","admin4_code":"","population":"0","elevation":"","dem":"1398","timezone":"Asia/Aden","modification_date":"2012-01-16"},{"geonameid":"7792745","name":"Al Ḩamdī","asciiname":"Al Hamdi","alternatenames":["Al Hamdi","Al Ḩamdī","alhmdy","الحمدي"],"latitude":"15.94727","longitude":"48.77965","feature_class":"P","feature_code":"PPLX","country_code":"YE","cc2":"","admin1_code":"04","admin2_code":"","admin3_code":"","admin4_code":"","population":"1273","elevation":"","dem":"651","timezone":"Asia/Aden","modification_date":"2012-01-21"},{"geonameid":"7792748","name":"At Taḩālif","asciiname":"At Tahalif","alternatenames":["At Tahalif","At Taḩālif","althalf","التحالف"],"latitude":"15.93786","longitude":"48.78641","feature_class":"P","feature_code":"PPLX","country_code":"YE","cc2":"","admin1_code":"04","admin2_code":"","admin3_code":"","admin4_code":"","population":"1281","elevation":"","dem":"663","timezone":"Asia/Aden","modification_date":"2012-01-21"},{"geonameid":"7792750","name":"Suḩayl Shibām","asciiname":"Suhayl Shibam","alternatenames":["Suhayl Shibam","Suḩayl Shibām","shyl shbam","سحيل شبام"],"latitude":"15.91448","longitude":"48.63864","feature_class":"P","feature_code":"PPLA2","country_code":"YE","cc2":"","admin1_code":"04","admin2_code":"","admin3_code":"","admin4_code":"","population":"645","elevation":"","dem":"680","timezone":"Asia/Aden","modification_date":"2012-01-21"},{"geonameid":"7930439","name":"Rimāt","asciiname":"Rimat","alternatenames":["Rimat","Rimāt","Rumah","Rumāh","rmah","rmat","رماة","رماه"],"latitude":"17.45532","longitude":"50.57789","feature_class":"P","feature_code":"PPLA2","country_code":"YE","cc2":"","admin1_code":"04","admin2_code":"","admin3_code":"","admin4_code":"","population":"0","elevation":"","dem":"697","timezone":"Asia/Aden","modification_date":"2012-01-21"},{"geonameid":"7930440","name":"Rumāh","asciiname":"Rumah","alternatenames":["Rumah","Rumāh","rmah","رماه"],"latitude":"17.45547","longitude":"50.5777","feature_class":"P","feature_code":"PPLA2","country_code":"YE","cc2":"","admin1_code":"04","admin2_code":"","admin3_code":"","admin4_code":"","population":"0","elevation":"","dem":"699","timezone":"Asia/Aden","modification_date":"2011-08-10"},{"geonameid":"7931038","name":"Al Shirūj","asciiname":"Al Shiruj","alternatenames":["Al Shiruj","Al Shirūj","alshrwj","الشروج"],"latitude":"14.68526","longitude":"47.76926","feature_class":"P","feature_code":"PPLA2","country_code":"YE","cc2":"","admin1_code":"04","admin2_code":"","admin3_code":"","admin4_code":"","population":"0","elevation":"","dem":"1011","timezone":"Asia/Aden","modification_date":"2012-02-02"},{"geonameid":"8308729","name":"Al ‘Ulayb","asciiname":"Al `Ulayb","alternatenames":["Al `Ulayb","Al ‘Ulayb","العليب"],"latitude":"15.14747","longitude":"49.07325","feature_class":"P","feature_code":"PPLA2","country_code":"YE","cc2":"","admin1_code":"04","admin2_code":"","admin3_code":"","admin4_code":"","population":"0","elevation":"","dem":"1079","timezone":"Asia/Aden","modification_date":"2012-06-07"}]}