{"region_data":{"adminCode1":"25","lng":"44","geonameId":70222,"toponymName":"Muḩāfaz̧at Ta‘izz","countryId":"69543","fcl":"A","population":2613947,"numberOfChildren":23,"countryCode":"YE","name":"Ta‘izz","fclName":"country, state, region,...","countryName":"Yemen","fcodeName":"first-order administrative division","adminName1":"Ta‘izz","lat":"13.5","fcode":"ADM1"},"country_data":{"ISO":"YE","ISO3":"YEM","ISO_Numeric":"887","fips":"YM","country":"Yemen","capital":"Sanaa","area":"527970","Population":"23495361","Continent":"AS","tld":".ye","CurrencyCode":"YER","CurrencyName":"Rial","Phone":"967","Postal_Code_Format":"","Postal_Code_Regex":"","Languages":"ar-YE","geonameid":"69543","neighbours":"SA,OM","EquivalentFipsCode":""},"cities":[{"geonameid":"72760","name":"Mawza‘","asciiname":"Mawza`","alternatenames":["Mawdha`","Mawdha‘","Mawz`ah","Mawza`","Mawza`ah","Mawza‘","Mawza‘ah","Mawz‘ah","Musa","Muse","Mūsá","موزع"],"latitude":"13.26831","longitude":"43.50993","feature_class":"P","feature_code":"PPLA2","country_code":"YE","cc2":"","admin1_code":"25","admin2_code":"1508","admin3_code":"","admin4_code":"","population":"0","elevation":"","dem":"202","timezone":"Asia/Aden","modification_date":"2012-01-16"},{"geonameid":"72781","name":"Māwiyah","asciiname":"Mawiyah","alternatenames":["Mavia","Mawiah","Mawiya","Mawiyah","Māwiyah","Māwīah","mawyt","ماوية"],"latitude":"13.58295","longitude":"44.34768","feature_class":"P","feature_code":"PPLA2","country_code":"YE","cc2":"","admin1_code":"25","admin2_code":"1501","admin3_code":"","admin4_code":"","population":"0","elevation":"","dem":"1315","timezone":"Asia/Aden","modification_date":"2012-01-16"},{"geonameid":"74938","name":"Ḩayfān","asciiname":"Hayfan","alternatenames":["Hayfan","Hefan","Hifan","Hīfān","hyfan","حيفان","Ḩayfān"],"latitude":"13.31778","longitude":"44.28011","feature_class":"P","feature_code":"PPLA2","country_code":"YE","cc2":"","admin1_code":"25","admin2_code":"1517","admin3_code":"","admin4_code":"","population":"0","elevation":"","dem":"1588","timezone":"Asia/Aden","modification_date":"2012-01-16"},{"geonameid":"76089","name":"Dhubāb","asciiname":"Dhubab","alternatenames":["Dhubab","Dhubāb","Dubab","Dubāb","Kafr Dubah","Kafr Dubáh","dhbab","ذباب"],"latitude":"12.94305","longitude":"43.41025","feature_class":"P","feature_code":"PPLA2","country_code":"YE","cc2":"","admin1_code":"25","admin2_code":"1507","admin3_code":"","admin4_code":"","population":"0","elevation":"","dem":"5","timezone":"Asia/Aden","modification_date":"2012-01-16"},{"geonameid":"76482","name":"Dār an Naşr","asciiname":"Dar an Nasr","alternatenames":["Dar an Nasr","Dār an Nasr","Dār an Naşr","dar alnsr","دار النصر"],"latitude":"13.55821","longitude":"44.01635","feature_class":"P","feature_code":"PPLA2","country_code":"YE","cc2":"","admin1_code":"25","admin2_code":"1511","admin3_code":"","admin4_code":"","population":"0","elevation":"","dem":"1809","timezone":"Asia/Aden","modification_date":"2012-01-16"},{"geonameid":"77646","name":"At Turbah","asciiname":"At Turbah","alternatenames":["At Turbah","altrbt","التربة"],"latitude":"13.2127","longitude":"44.12415","feature_class":"P","feature_code":"PPLA2","country_code":"YE","cc2":"","admin1_code":"25","admin2_code":"1515","admin3_code":"","admin4_code":"","population":"0","elevation":"","dem":"1877","timezone":"Asia/Aden","modification_date":"2012-01-16"},{"geonameid":"78776","name":"Al Misrākh","asciiname":"Al Misrakh","alternatenames":["Al Misrah","Al Misrakh","Al Misrākh","Al Misrākḩ","Al Misrāḩ","almsrakh","المسراخ"],"latitude":"13.46059","longitude":"44.02043","feature_class":"P","feature_code":"PPLA2","country_code":"YE","cc2":"","admin1_code":"25","admin2_code":"1512","admin3_code":"","admin4_code":"","population":"0","elevation":"","dem":"1354","timezone":"Asia/Aden","modification_date":"2012-01-16"},{"geonameid":"80336","name":"Ad Dimnah","asciiname":"Ad Dimnah","alternatenames":["Ad Dimnah","aldmnt","الدمنة"],"latitude":"13.45398","longitude":"44.18168","feature_class":"P","feature_code":"PPLA2","country_code":"YE","cc2":"","admin1_code":"25","admin2_code":"1513","admin3_code":"","admin4_code":"","population":"0","elevation":"","dem":"1236","timezone":"Asia/Aden","modification_date":"2012-01-16"},{"geonameid":"406072","name":"Al Nashmah","asciiname":"Al Nashmah","alternatenames":["Al Nashmah","Najd an Nashamah","alnshmt","njd alnshmt","النشمة","نجد النشمة"],"latitude":"13.39028","longitude":"43.96833","feature_class":"P","feature_code":"PPLA2","country_code":"YE","cc2":"","admin1_code":"25","admin2_code":"1521","admin3_code":"","admin4_code":"","population":"0","elevation":"","dem":"1320","timezone":"Asia/Aden","modification_date":"2012-01-19"},{"geonameid":"407690","name":"Ar Rubū‘","asciiname":"Ar Rubu`","alternatenames":["Ar Rubu`","Ar Rubū‘","Dar Yahud","Dār Yahūd","Rubu` Bani Sha`b","Rubū‘ Banī Sha‘b","الربوع"],"latitude":"13.78024","longitude":"43.86901","feature_class":"P","feature_code":"PPLA2","country_code":"YE","cc2":"","admin1_code":"25","admin2_code":"1503","admin3_code":"","admin4_code":"","population":"0","elevation":"","dem":"1358","timezone":"Asia/Aden","modification_date":"2012-01-19"},{"geonameid":"407716","name":"Maqbanah","asciiname":"Maqbanah","alternatenames":["Maqbanah","mqbnt","مقبنة"],"latitude":"13.66394","longitude":"43.6873","feature_class":"P","feature_code":"PPLA2","country_code":"YE","cc2":"","admin1_code":"25","admin2_code":"1505","admin3_code":"","admin4_code":"","population":"0","elevation":"","dem":"994","timezone":"Asia/Aden","modification_date":"2012-01-19"},{"geonameid":"7354697","name":"Al ‘Ayn","asciiname":"Al `Ayn","alternatenames":["Al `Ayn","Al ‘Ayn","العين"],"latitude":"13.33005","longitude":"44.09208","feature_class":"P","feature_code":"PPLA2","country_code":"YE","cc2":"","admin1_code":"25","admin2_code":"1522","admin3_code":"","admin4_code":"","population":"0","elevation":"","dem":"1467","timezone":"Asia/Aden","modification_date":"2012-01-21"},{"geonameid":"7367232","name":"Ḩawrah","asciiname":"Hawrah","alternatenames":["Az Zuhar Hawrah","Az̧ Z̧uhār Ḩawrah","Hawrah","hwrt","حورة","Ḩawrah"],"latitude":"13.35751","longitude":"44.1458","feature_class":"P","feature_code":"PPLA2","country_code":"YE","cc2":"","admin1_code":"25","admin2_code":"1523","admin3_code":"","admin4_code":"","population":"0","elevation":"","dem":"1780","timezone":"Asia/Aden","modification_date":"2012-01-21"},{"geonameid":"8357701","name":"Aş Şalw","asciiname":"As Salw","alternatenames":["As Salw","Aş Şalw","alslw","الصلو"],"latitude":"13.32887","longitude":"44.21708","feature_class":"P","feature_code":"PPLA2","country_code":"YE","cc2":"","admin1_code":"25","admin2_code":"","admin3_code":"","admin4_code":"","population":"0","elevation":"","dem":"2304","timezone":"Asia/Aden","modification_date":"2012-08-05"},{"geonameid":"70225","name":"Ta‘izz","asciiname":"Ta`izz","alternatenames":["Ta'izz","Ta`izz","Taiz","Taizz","Ta‘izz","Таиз","تعز"],"latitude":"13.57952","longitude":"44.02091","feature_class":"P","feature_code":"PPLA","country_code":"YE","cc2":"","admin1_code":"25","admin2_code":"1520","admin3_code":"","admin4_code":"","population":"615222","elevation":"1400","dem":"1316","timezone":"Asia/Aden","modification_date":"2012-01-16"}]}