{"region_data":{"adminCode1":"14","lng":"45.32534","geonameId":72966,"toponymName":"Muḩāfaz̧at Ma’rib","countryId":"69543","fcl":"A","population":288000,"numberOfChildren":14,"countryCode":"YE","name":"Ma’rib","fclName":"country, state, region,...","countryName":"Yemen","fcodeName":"first-order administrative division","adminName1":"Ma’rib","lat":"15.4591","fcode":"ADM1"},"country_data":{"ISO":"YE","ISO3":"YEM","ISO_Numeric":"887","fips":"YM","country":"Yemen","capital":"Sanaa","area":"527970","Population":"23495361","Continent":"AS","tld":".ye","CurrencyCode":"YER","CurrencyName":"Rial","Phone":"967","Postal_Code_Format":"","Postal_Code_Regex":"","Languages":"ar-YE","geonameid":"69543","neighbours":"SA,OM","EquivalentFipsCode":""},"cities":[{"geonameid":"72968","name":"Ma'rib","asciiname":"Ma'rib","alternatenames":["Magreb","Mar`rib","Marib","Мариб"],"latitude":"15.46253","longitude":"45.32581","feature_class":"P","feature_code":"PPLA","country_code":"YE","cc2":"","admin1_code":"14","admin2_code":"2612","admin3_code":"","admin4_code":"","population":"16794","elevation":"","dem":"1095","timezone":"Asia/Aden","modification_date":"2013-06-30"},{"geonameid":"75133","name":"Ḩarīb","asciiname":"Harib","alternatenames":["Darb Al `Ali","Darb al `Alt","Darb al ‘Alt","Darb Āl ‘Alī","Harib","hryb","حريب","Ḩarīb"],"latitude":"14.93156","longitude":"45.50356","feature_class":"P","feature_code":"PPLA2","country_code":"YE","cc2":"","admin1_code":"14","admin2_code":"2609","admin3_code":"","admin4_code":"","population":"0","elevation":"","dem":"1161","timezone":"Asia/Aden","modification_date":"2012-01-16"},{"geonameid":"78019","name":"Asdās","asciiname":"Asdas","alternatenames":["Asdas","Asdās","asdas","أسداس"],"latitude":"15.76601","longitude":"45.08151","feature_class":"P","feature_code":"PPLA2","country_code":"YE","cc2":"","admin1_code":"14","admin2_code":"2602","admin3_code":"","admin4_code":"","population":"0","elevation":"","dem":"1102","timezone":"Asia/Aden","modification_date":"2014-06-04"},{"geonameid":"7341410","name":"Madghil","asciiname":"Madghil","alternatenames":["Madghil","Madghil al Jid`an","Madghil al Jid‘ān","mdghl","مدغل","مدغل الجدعان"],"latitude":"15.59858","longitude":"45.04013","feature_class":"P","feature_code":"PPLA2","country_code":"YE","cc2":"","admin1_code":"14","admin2_code":"2603","admin3_code":"","admin4_code":"","population":"0","elevation":"","dem":"1197","timezone":"Asia/Aden","modification_date":"2015-02-07"},{"geonameid":"7341563","name":"Al Ḩarjah","asciiname":"Al Harjah","alternatenames":["Al Harajah","Al Harjah","Al Ḩarajah","Al Ḩarjah","alhrjt","الحرجة"],"latitude":"15.48869","longitude":"44.66573","feature_class":"P","feature_code":"PPLA2","country_code":"YE","cc2":"","admin1_code":"14","admin2_code":"2604","admin3_code":"","admin4_code":"","population":"0","elevation":"","dem":"1708","timezone":"Asia/Aden","modification_date":"2015-06-08"},{"geonameid":"7364022","name":"Raḩabah al Kawlah","asciiname":"Rahabah al Kawlah","alternatenames":["Al Kawlah Rahabah","Al Kawlah Raḩabah","Rahabah","Rahabah al Kawlah","Raḩabah","Raḩabah al Kawlah","rhbt","rhbt alkwlt","رحبة","رحبة الكولة"],"latitude":"14.89574","longitude":"44.98918","feature_class":"P","feature_code":"PPLA2","country_code":"YE","cc2":"","admin1_code":"14","admin2_code":"2608","admin3_code":"","admin4_code":"","population":"0","elevation":"","dem":"1483","timezone":"Asia/Aden","modification_date":"2012-01-21"},{"geonameid":"7364546","name":"Al ‘Amūd","asciiname":"Al `Amud","alternatenames":["Al `Amud","Al ‘Amūd","العمود"],"latitude":"14.72103","longitude":"45.20676","feature_class":"P","feature_code":"PPLA2","country_code":"YE","cc2":"","admin1_code":"14","admin2_code":"2610","admin3_code":"","admin4_code":"","population":"0","elevation":"","dem":"1661","timezone":"Asia/Aden","modification_date":"2012-01-21"},{"geonameid":"7931042","name":"Al Aqţa‘","asciiname":"Al Aqta`","alternatenames":["Al Aqta`","Al Aqţa‘","الأقطع"],"latitude":"14.66217","longitude":"45.35123","feature_class":"P","feature_code":"PPLA2","country_code":"YE","cc2":"","admin1_code":"14","admin2_code":"","admin3_code":"","admin4_code":"","population":"0","elevation":"","dem":"2066","timezone":"Asia/Aden","modification_date":"2014-06-06"},{"geonameid":"8356686","name":"Al Ḩuşūn","asciiname":"Al Husun","alternatenames":["Al Husun","Al Markaz Al Jalal","Al Markaz Āl Jalāl","Al Ḩuşūn","alhswn","almrkz al jlal","الحصون","المركز ال جلال"],"latitude":"15.4739","longitude":"45.36691","feature_class":"P","feature_code":"PPLA2","country_code":"YE","cc2":"","admin1_code":"14","admin2_code":"","admin3_code":"","admin4_code":"","population":"0","elevation":"","dem":"1076","timezone":"Asia/Aden","modification_date":"2012-08-05"}]}