{"region_data":{"adminCode1":"14","lng":"-80.08333","geonameId":3654451,"toponymName":"Provincia de Manabí","countryId":"3658394","fcl":"A","population":0,"numberOfChildren":14,"countryCode":"EC","name":"Provincia de Manabí","fclName":"country, state, region,...","countryName":"Ecuador","fcodeName":"first-order administrative division","adminName1":"Manabí","lat":"-0.66667","fcode":"ADM1"},"country_data":{"ISO":"EC","ISO3":"ECU","ISO_Numeric":"218","fips":"EC","country":"Ecuador","capital":"Quito","area":"283560","Population":"14790608","Continent":"SA","tld":".ec","CurrencyCode":"USD","CurrencyName":"Dollar","Phone":"593","Postal_Code_Format":"@####@","Postal_Code_Regex":"^([a-zA-Z]\\d{4}[a-zA-Z])$","Languages":"es-EC","geonameid":"3658394","neighbours":"PE,CO","EquivalentFipsCode":""},"cities":[{"geonameid":"3650554","name":"Tosagua","asciiname":"Tosagua","alternatenames":["Tosagua"],"latitude":"-0.78679","longitude":"-80.23473","feature_class":"P","feature_code":"PPL","country_code":"EC","cc2":"","admin1_code":"14","admin2_code":"","admin3_code":"","admin4_code":"","population":"14680","elevation":"","dem":"15","timezone":"America/Guayaquil","modification_date":"2013-01-11"},{"geonameid":"3650960","name":"Sucre","asciiname":"Sucre","alternatenames":["Sucre"],"latitude":"-1.27974","longitude":"-80.41885","feature_class":"P","feature_code":"PPL","country_code":"EC","cc2":"","admin1_code":"14","admin2_code":"","admin3_code":"","admin4_code":"","population":"15286","elevation":"","dem":"121","timezone":"America/Guayaquil","modification_date":"2013-01-11"},{"geonameid":"3651495","name":"Santa Ana","asciiname":"Santa Ana","alternatenames":[""],"latitude":"-1.20726","longitude":"-80.37132","feature_class":"P","feature_code":"PPL","country_code":"EC","cc2":"","admin1_code":"14","admin2_code":"","admin3_code":"","admin4_code":"","population":"12833","elevation":"","dem":"61","timezone":"America/Guayaquil","modification_date":"2013-01-11"},{"geonameid":"3652315","name":"Rocafuerte","asciiname":"Rocafuerte","alternatenames":["Rocafuerte"],"latitude":"-0.9236","longitude":"-80.44946","feature_class":"P","feature_code":"PPL","country_code":"EC","cc2":"","admin1_code":"14","admin2_code":"","admin3_code":"","admin4_code":"","population":"10274","elevation":"","dem":"25","timezone":"America/Guayaquil","modification_date":"2013-01-11"},{"geonameid":"3652941","name":"Portoviejo","asciiname":"Portoviejo","alternatenames":["Gorad Partauekha","PVO","Portov'ekho","Portoviejo","Portovjechas","bo tuo wei ye huo","pwrtw wyyjw","Горад Партаўеха","Портовьехо","پورتو ویئجو","波托維耶霍"],"latitude":"-1.05458","longitude":"-80.45445","feature_class":"P","feature_code":"PPLA","country_code":"EC","cc2":"","admin1_code":"14","admin2_code":"","admin3_code":"","admin4_code":"","population":"170326","elevation":"","dem":"44","timezone":"America/Guayaquil","modification_date":"2013-08-06"},{"geonameid":"3653307","name":"Pedernales","asciiname":"Pedernales","alternatenames":[""],"latitude":"0.07167","longitude":"-80.0525","feature_class":"P","feature_code":"PPL","country_code":"EC","cc2":"","admin1_code":"14","admin2_code":"","admin3_code":"","admin4_code":"","population":"5983","elevation":"","dem":"32","timezone":"America/Guayaquil","modification_date":"2013-01-11"},{"geonameid":"3653609","name":"Paján","asciiname":"Pajan","alternatenames":["Pajan","Paján"],"latitude":"-1.55238","longitude":"-80.42958","feature_class":"P","feature_code":"PPL","country_code":"EC","cc2":"","admin1_code":"14","admin2_code":"","admin3_code":"","admin4_code":"","population":"9183","elevation":"","dem":"125","timezone":"America/Guayaquil","modification_date":"2013-01-11"},{"geonameid":"3654055","name":"Montecristi","asciiname":"Montecristi","alternatenames":["Montecristi"],"latitude":"-1.04576","longitude":"-80.65889","feature_class":"P","feature_code":"PPL","country_code":"EC","cc2":"","admin1_code":"14","admin2_code":"","admin3_code":"","admin4_code":"","population":"18351","elevation":"","dem":"135","timezone":"America/Guayaquil","modification_date":"2013-01-11"},{"geonameid":"3654410","name":"Manta","asciiname":"Manta","alternatenames":["MEC","Manta","Manta Ecuador","Puerto de Manta","man ta","Манта","曼塔"],"latitude":"-0.96212","longitude":"-80.71271","feature_class":"P","feature_code":"PPL","country_code":"EC","cc2":"","admin1_code":"14","admin2_code":"","admin3_code":"","admin4_code":"","population":"183166","elevation":"","dem":"23","timezone":"America/Guayaquil","modification_date":"2013-01-11"},{"geonameid":"3655385","name":"Junín","asciiname":"Junin","alternatenames":[""],"latitude":"-0.92777","longitude":"-80.20583","feature_class":"P","feature_code":"PPL","country_code":"EC","cc2":"","admin1_code":"14","admin2_code":"","admin3_code":"","admin4_code":"","population":"9128","elevation":"","dem":"49","timezone":"America/Guayaquil","modification_date":"2013-01-11"},{"geonameid":"3655446","name":"Jipijapa","asciiname":"Jipijapa","alternatenames":["JIP","Jipijapa"],"latitude":"-1.34872","longitude":"-80.57875","feature_class":"P","feature_code":"PPL","country_code":"EC","cc2":"","admin1_code":"14","admin2_code":"","admin3_code":"","admin4_code":"","population":"35901","elevation":"","dem":"287","timezone":"America/Guayaquil","modification_date":"2013-01-11"},{"geonameid":"3659139","name":"Chone","asciiname":"Chone","alternatenames":["Chone"],"latitude":"-0.69819","longitude":"-80.09361","feature_class":"P","feature_code":"PPL","country_code":"EC","cc2":"","admin1_code":"14","admin2_code":"","admin3_code":"","admin4_code":"","population":"44751","elevation":"","dem":"16","timezone":"America/Guayaquil","modification_date":"2013-01-11"},{"geonameid":"3659926","name":"Calceta","asciiname":"Calceta","alternatenames":["Bolivar","Bolívar","Calceta"],"latitude":"-0.84582","longitude":"-80.16389","feature_class":"P","feature_code":"PPL","country_code":"EC","cc2":"","admin1_code":"14","admin2_code":"","admin3_code":"","admin4_code":"","population":"17286","elevation":"","dem":"23","timezone":"America/Guayaquil","modification_date":"2013-01-11"},{"geonameid":"3660401","name":"Bahía de Caráquez","asciiname":"Bahia de Caraquez","alternatenames":["Bahia","Bahia de Caraques","Bahia de Caraquez","Bahia de Caráques","Bahía","Bahía de Caráquez","Caracas","Sucre"],"latitude":"-0.59792","longitude":"-80.42367","feature_class":"P","feature_code":"PPL","country_code":"EC","cc2":"","admin1_code":"14","admin2_code":"","admin3_code":"","admin4_code":"","population":"37056","elevation":"","dem":"8","timezone":"America/Guayaquil","modification_date":"2013-01-11"}]}