{"region_data":{"adminCode1":"11","lng":"-78.32371","geonameId":3655635,"toponymName":"Provincia de Imbabura","countryId":"3658394","fcl":"A","population":398244,"numberOfChildren":6,"countryCode":"EC","name":"Provincia de Imbabura","fclName":"country, state, region,...","countryName":"Ecuador","fcodeName":"first-order administrative division","adminName1":"Imbabura","lat":"0.37631","fcode":"ADM1"},"country_data":{"ISO":"EC","ISO3":"ECU","ISO_Numeric":"218","fips":"EC","country":"Ecuador","capital":"Quito","area":"283560","Population":"14790608","Continent":"SA","tld":".ec","CurrencyCode":"USD","CurrencyName":"Dollar","Phone":"593","Postal_Code_Format":"@####@","Postal_Code_Regex":"^([a-zA-Z]\\d{4}[a-zA-Z])$","Languages":"es-EC","geonameid":"3658394","neighbours":"PE,CO","EquivalentFipsCode":""},"cities":[{"geonameid":"3653146","name":"Pimampiro","asciiname":"Pimampiro","alternatenames":["Pimampiro","Pimanpiro"],"latitude":"0.39116","longitude":"-77.94068","feature_class":"P","feature_code":"PPL","country_code":"EC","cc2":"","admin1_code":"11","admin2_code":"","admin3_code":"","admin4_code":"","population":"7408","elevation":"","dem":"2149","timezone":"America/Guayaquil","modification_date":"2013-01-11"},{"geonameid":"3653693","name":"Otavalo","asciiname":"Otavalo","alternatenames":["Otavalas","Otavalo","Otovalo","Utawalu","awtabalw","Отавало","اوتابالو"],"latitude":"0.23457","longitude":"-78.26248","feature_class":"P","feature_code":"PPL","country_code":"EC","cc2":"","admin1_code":"11","admin2_code":"3653692","admin3_code":"","admin4_code":"","population":"32330","elevation":"","dem":"2532","timezone":"America/Guayaquil","modification_date":"2015-03-27"},{"geonameid":"3655673","name":"Ibarra","asciiname":"Ibarra","alternatenames":["Ibarra","Ибарра"],"latitude":"0.35171","longitude":"-78.12233","feature_class":"P","feature_code":"PPLA","country_code":"EC","cc2":"","admin1_code":"11","admin2_code":"","admin3_code":"","admin4_code":"","population":"132977","elevation":"","dem":"2208","timezone":"America/Guayaquil","modification_date":"2013-06-27"},{"geonameid":"3658781","name":"Cotacachi","asciiname":"Cotacachi","alternatenames":["Cotacachi"],"latitude":"0.30107","longitude":"-78.26428","feature_class":"P","feature_code":"PPL","country_code":"EC","cc2":"","admin1_code":"11","admin2_code":"","admin3_code":"","admin4_code":"","population":"8238","elevation":"","dem":"2442","timezone":"America/Guayaquil","modification_date":"2013-03-05"},{"geonameid":"3660478","name":"Atuntaqui","asciiname":"Atuntaqui","alternatenames":[""],"latitude":"0.33247","longitude":"-78.21371","feature_class":"P","feature_code":"PPL","country_code":"EC","cc2":"","admin1_code":"11","admin2_code":"","admin3_code":"","admin4_code":"","population":"17456","elevation":"","dem":"2413","timezone":"America/Guayaquil","modification_date":"2013-03-05"}]}