{"region_data":{"adminCode1":"03","lng":"120.79762","geonameId":7521305,"toponymName":"Central Luzon","countryId":"1694008","fcl":"A","population":10137737,"numberOfChildren":11,"countryCode":"PH","name":"Central Luzon","fclName":"country, state, region,...","countryName":"Philippines","fcodeName":"first-order administrative division","adminName1":"Central Luzon","lat":"15.30714","fcode":"ADM1"},"country_data":{"ISO":"PH","ISO3":"PHL","ISO_Numeric":"608","fips":"RP","country":"Philippines","capital":"Manila","area":"300000","Population":"99900177","Continent":"AS","tld":".ph","CurrencyCode":"PHP","CurrencyName":"Peso","Phone":"63","Postal_Code_Format":"####","Postal_Code_Regex":"^(\\d{4})$","Languages":"tl,en-PH,fil","geonameid":"1694008","neighbours":"","EquivalentFipsCode":""},"cities":[{"geonameid":"1682653","name":"Tayabo","asciiname":"Tayabo","alternatenames":["Rosaldo","Tayabo"],"latitude":"15.8345","longitude":"121.0309","feature_class":"P","feature_code":"PPL","country_code":"PH","cc2":"","admin1_code":"03","admin2_code":"47","admin3_code":"","admin4_code":"","population":"4406","elevation":"","dem":"157","timezone":"Asia/Manila","modification_date":"2012-08-04"},{"geonameid":"1682787","name":"Tartaro","asciiname":"Tartaro","alternatenames":["Taltaro","Tartaro"],"latitude":"15.16667","longitude":"121.01667","feature_class":"P","feature_code":"PPL","country_code":"PH","cc2":"","admin1_code":"03","admin2_code":"13","admin3_code":"","admin4_code":"","population":"5231","elevation":"","dem":"36","timezone":"Asia/Manila","modification_date":"2012-01-17"},{"geonameid":"1682812","name":"Tarlac City","asciiname":"Tarlac City","alternatenames":["Tarlac","Tarlac City"],"latitude":"15.48017","longitude":"120.59794","feature_class":"P","feature_code":"PPL","country_code":"PH","cc2":"","admin1_code":"03","admin2_code":"63","admin3_code":"","admin4_code":"","population":"183930","elevation":"","dem":"44","timezone":"Asia/Manila","modification_date":"2013-01-10"},{"geonameid":"1682826","name":"Tariji","asciiname":"Tariji","alternatenames":["Tariji"],"latitude":"15.52112","longitude":"120.61442","feature_class":"P","feature_code":"PPL","country_code":"PH","cc2":"","admin1_code":"03","admin2_code":"63","admin3_code":"","admin4_code":"","population":"2332","elevation":"","dem":"42","timezone":"Asia/Manila","modification_date":"2013-03-05"},{"geonameid":"1683718","name":"Talugtug","asciiname":"Talugtug","alternatenames":["San Isidro","Talogtog","Talugtog","Talugtogbalite","Talugtug","Talugtug-bali"],"latitude":"15.7778","longitude":"120.8111","feature_class":"P","feature_code":"PPL","country_code":"PH","cc2":"","admin1_code":"03","admin2_code":"47","admin3_code":"","admin4_code":"","population":"6307","elevation":"","dem":"91","timezone":"Asia/Manila","modification_date":"2012-01-17"},{"geonameid":"1683733","name":"Taltal","asciiname":"Taltal","alternatenames":["Taltal"],"latitude":"15.5878","longitude":"119.9455","feature_class":"P","feature_code":"PPL","country_code":"PH","cc2":"","admin1_code":"03","admin2_code":"64","admin3_code":"","admin4_code":"","population":"5370","elevation":"","dem":"20","timezone":"Asia/Manila","modification_date":"2012-01-17"},{"geonameid":"1683931","name":"Tal I Mun Doc","asciiname":"Tal I Mun Doc","alternatenames":["Tal I Mun Doc"],"latitude":"15.2121","longitude":"120.6849","feature_class":"P","feature_code":"PPL","country_code":"PH","cc2":"","admin1_code":"03","admin2_code":"50","admin3_code":"","admin4_code":"","population":"3855","elevation":"","dem":"36","timezone":"Asia/Manila","modification_date":"2012-01-17"},{"geonameid":"1684016","name":"Talavera","asciiname":"Talavera","alternatenames":["Talavera","Талавера"],"latitude":"15.5883","longitude":"120.9192","feature_class":"P","feature_code":"PPLA3","country_code":"PH","cc2":"","admin1_code":"03","admin2_code":"47","admin3_code":"1684019","admin4_code":"","population":"64610","elevation":"","dem":"46","timezone":"Asia/Manila","modification_date":"2011-07-31"},{"geonameid":"1684062","name":"Talang","asciiname":"Talang","alternatenames":["Talang"],"latitude":"15.02488","longitude":"120.83782","feature_class":"P","feature_code":"PPL","country_code":"PH","cc2":"","admin1_code":"03","admin2_code":"50","admin3_code":"","admin4_code":"","population":"2497","elevation":"","dem":"11","timezone":"Asia/Manila","modification_date":"2013-02-08"},{"geonameid":"1684122","name":"Talaga","asciiname":"Talaga","alternatenames":["Talaga"],"latitude":"15.38403","longitude":"120.58933","feature_class":"P","feature_code":"PPL","country_code":"PH","cc2":"","admin1_code":"03","admin2_code":"63","admin3_code":"","admin4_code":"","population":"4655","elevation":"","dem":"62","timezone":"Asia/Manila","modification_date":"2013-01-10"},{"geonameid":"1684842","name":"Tabuating","asciiname":"Tabuating","alternatenames":["Tabuating"],"latitude":"15.3921","longitude":"120.94084","feature_class":"P","feature_code":"PPL","country_code":"PH","cc2":"","admin1_code":"03","admin2_code":"47","admin3_code":"","admin4_code":"","population":"4120","elevation":"","dem":"28","timezone":"Asia/Manila","modification_date":"2012-12-05"},{"geonameid":"1684892","name":"Tabon","asciiname":"Tabon","alternatenames":["Tabon"],"latitude":"15.27098","longitude":"120.91273","feature_class":"P","feature_code":"PPL","country_code":"PH","cc2":"","admin1_code":"03","admin2_code":"47","admin3_code":"","admin4_code":"","population":"2537","elevation":"","dem":"18","timezone":"Asia/Manila","modification_date":"2012-12-05"},{"geonameid":"1685366","name":"Sulucan","asciiname":"Sulucan","alternatenames":["Sulucan"],"latitude":"14.79448","longitude":"120.92594","feature_class":"P","feature_code":"PPL","country_code":"PH","cc2":"","admin1_code":"03","admin2_code":"13","admin3_code":"","admin4_code":"","population":"5703","elevation":"","dem":"8","timezone":"Asia/Manila","modification_date":"2013-05-07"},{"geonameid":"1685434","name":"Sula","asciiname":"Sula","alternatenames":["Sula"],"latitude":"15.45725","longitude":"120.39553","feature_class":"P","feature_code":"PPL","country_code":"PH","cc2":"","admin1_code":"03","admin2_code":"63","admin3_code":"","admin4_code":"","population":"3431","elevation":"","dem":"115","timezone":"Asia/Manila","modification_date":"2012-01-17"},{"geonameid":"1685549","name":"Suklayin","asciiname":"Suklayin","alternatenames":["Suclayin","Suklayin"],"latitude":"15.7574","longitude":"121.5503","feature_class":"P","feature_code":"PPL","country_code":"PH","cc2":"","admin1_code":"03","admin2_code":"G8","admin3_code":"","admin4_code":"","population":"5734","elevation":"","dem":"12","timezone":"Asia/Manila","modification_date":"2012-01-17"},{"geonameid":"1685577","name":"Subic","asciiname":"Subic","alternatenames":["Subic"],"latitude":"14.87999","longitude":"120.23433","feature_class":"P","feature_code":"PPLA3","country_code":"PH","cc2":"","admin1_code":"03","admin2_code":"64","admin3_code":"1685580","admin4_code":"","population":"67664","elevation":"","dem":"10","timezone":"Asia/Manila","modification_date":"2011-07-31"},{"geonameid":"1685867","name":"Soledad","asciiname":"Soledad","alternatenames":["Soledad"],"latitude":"15.42838","longitude":"120.98355","feature_class":"P","feature_code":"PPL","country_code":"PH","cc2":"","admin1_code":"03","admin2_code":"47","admin3_code":"","admin4_code":"","population":"4728","elevation":"","dem":"36","timezone":"Asia/Manila","modification_date":"2012-12-05"},{"geonameid":"1686191","name":"Sinilian First","asciiname":"Sinilian First","alternatenames":["Sinilian","Sinilian First","Sinilian Primero"],"latitude":"15.69327","longitude":"120.45936","feature_class":"P","feature_code":"PPL","country_code":"PH","cc2":"","admin1_code":"03","admin2_code":"63","admin3_code":"","admin4_code":"","population":"5040","elevation":"","dem":"43","timezone":"Asia/Manila","modification_date":"2013-01-10"},{"geonameid":"1686319","name":"Sinait","asciiname":"Sinait","alternatenames":["Sinait"],"latitude":"15.5367","longitude":"120.5851","feature_class":"P","feature_code":"PPL","country_code":"PH","cc2":"","admin1_code":"03","admin2_code":"63","admin3_code":"","admin4_code":"","population":"2268","elevation":"","dem":"41","timezone":"Asia/Manila","modification_date":"2012-08-04"},{"geonameid":"1686678","name":"Siclong","asciiname":"Siclong","alternatenames":["Siclong"],"latitude":"15.5808","longitude":"121.2239","feature_class":"P","feature_code":"PPL","country_code":"PH","cc2":"","admin1_code":"03","admin2_code":"47","admin3_code":"","admin4_code":"","population":"2700","elevation":"","dem":"102","timezone":"Asia/Manila","modification_date":"2012-01-17"},{"geonameid":"1686735","name":"Sibul","asciiname":"Sibul","alternatenames":["Sibul"],"latitude":"15.8","longitude":"121","feature_class":"P","feature_code":"PPL","country_code":"PH","cc2":"","admin1_code":"03","admin2_code":"47","admin3_code":"","admin4_code":"","population":"2368","elevation":"","dem":"114","timezone":"Asia/Manila","modification_date":"2012-01-17"},{"geonameid":"1686933","name":"Sexmoan","asciiname":"Sexmoan","alternatenames":["Sasmoan","Sasmuan","Sexmoan"],"latitude":"14.9438","longitude":"120.6229","feature_class":"P","feature_code":"PPLA3","country_code":"PH","cc2":"","admin1_code":"03","admin2_code":"50","admin3_code":"1686934","admin4_code":"","population":"21124","elevation":"","dem":"4","timezone":"Asia/Manila","modification_date":"2011-07-31"},{"geonameid":"1687058","name":"Saysain","asciiname":"Saysain","alternatenames":["Saysain"],"latitude":"14.56111","longitude":"120.3925","feature_class":"P","feature_code":"PPL","country_code":"PH","cc2":"","admin1_code":"03","admin2_code":"07","admin3_code":"","admin4_code":"","population":"2683","elevation":"","dem":"8","timezone":"Asia/Manila","modification_date":"2012-01-17"},{"geonameid":"1687206","name":"Sapol","asciiname":"Sapol","alternatenames":["Sapol","Sapul"],"latitude":"13.365","longitude":"121.1893","feature_class":"P","feature_code":"PPL","country_code":"PH","cc2":"","admin1_code":"03","admin2_code":"13","admin3_code":"","admin4_code":"","population":"2840","elevation":"","dem":"13","timezone":"Asia/Manila","modification_date":"2012-01-17"},{"geonameid":"1687291","name":"Sapang Buho","asciiname":"Sapang Buho","alternatenames":["Sapang Bato","Sapang Buho"],"latitude":"15.59038","longitude":"121.12454","feature_class":"P","feature_code":"PPL","country_code":"PH","cc2":"","admin1_code":"03","admin2_code":"47","admin3_code":"","admin4_code":"","population":"3339","elevation":"","dem":"75","timezone":"Asia/Manila","modification_date":"2013-02-08"},{"geonameid":"1687302","name":"Sapang","asciiname":"Sapang","alternatenames":["Sapang"],"latitude":"15.7032","longitude":"120.5245","feature_class":"P","feature_code":"PPL","country_code":"PH","cc2":"","admin1_code":"03","admin2_code":"63","admin3_code":"","admin4_code":"","population":"11373","elevation":"","dem":"21","timezone":"Asia/Manila","modification_date":"2012-01-17"},{"geonameid":"1687409","name":"San Vicente","asciiname":"San Vicente","alternatenames":["Caluis","Cobra","San Vicente"],"latitude":"15.2921","longitude":"120.65498","feature_class":"P","feature_code":"PPL","country_code":"PH","cc2":"","admin1_code":"03","admin2_code":"63","admin3_code":"","admin4_code":"","population":"16116","elevation":"","dem":"43","timezone":"Asia/Manila","modification_date":"2013-01-10"},{"geonameid":"1687446","name":"San Vincente","asciiname":"San Vincente","alternatenames":["San Vicente","San Vincente"],"latitude":"13.4068","longitude":"121.175","feature_class":"P","feature_code":"PPL","country_code":"PH","cc2":"","admin1_code":"03","admin2_code":"13","admin3_code":"","admin4_code":"","population":"2718","elevation":"","dem":"8","timezone":"Asia/Manila","modification_date":"2012-01-17"},{"geonameid":"1687522","name":"Santo Tomas","asciiname":"Santo Tomas","alternatenames":["Santo Tomas"],"latitude":"15.74977","longitude":"120.96241","feature_class":"P","feature_code":"PPL","country_code":"PH","cc2":"","admin1_code":"03","admin2_code":"47","admin3_code":"","admin4_code":"","population":"5138","elevation":"","dem":"88","timezone":"Asia/Manila","modification_date":"2013-03-05"},{"geonameid":"1687564","name":"Santo Rosario","asciiname":"Santo Rosario","alternatenames":["Santo Rosario"],"latitude":"15.6447","longitude":"120.8612","feature_class":"P","feature_code":"PPL","country_code":"PH","cc2":"","admin1_code":"03","admin2_code":"47","admin3_code":"","admin4_code":"","population":"6234","elevation":"","dem":"49","timezone":"Asia/Manila","modification_date":"2012-01-17"},{"geonameid":"1687623","name":"Santo Niño","asciiname":"Santo Nino","alternatenames":["Santo Nino","Santo Niño"],"latitude":"15.33433","longitude":"120.62619","feature_class":"P","feature_code":"PPL","country_code":"PH","cc2":"","admin1_code":"03","admin2_code":"63","admin3_code":"","admin4_code":"","population":"2966","elevation":"","dem":"46","timezone":"Asia/Manila","modification_date":"2013-01-10"},{"geonameid":"1687687","name":"Santol","asciiname":"Santol","alternatenames":[""],"latitude":"15.16222","longitude":"120.5675","feature_class":"P","feature_code":"PPL","country_code":"PH","cc2":"","admin1_code":"03","admin2_code":"A1","admin3_code":"","admin4_code":"","population":"298976","elevation":"","dem":"126","timezone":"Asia/Manila","modification_date":"2013-03-12"},{"geonameid":"1687721","name":"Santo Domingo","asciiname":"Santo Domingo","alternatenames":["Santo Domingo"],"latitude":"15.5873","longitude":"120.877","feature_class":"P","feature_code":"PPLA3","country_code":"PH","cc2":"","admin1_code":"03","admin2_code":"47","admin3_code":"1687748","admin4_code":"","population":"0","elevation":"","dem":"41","timezone":"Asia/Manila","modification_date":"2011-07-31"},{"geonameid":"1687752","name":"Santo Cristo","asciiname":"Santo Cristo","alternatenames":["Santo Cristo"],"latitude":"15.33836","longitude":"120.59333","feature_class":"P","feature_code":"PPL","country_code":"PH","cc2":"","admin1_code":"03","admin2_code":"63","admin3_code":"","admin4_code":"","population":"4326","elevation":"","dem":"52","timezone":"Asia/Manila","modification_date":"2012-01-17"},{"geonameid":"1687812","name":"Santiago","asciiname":"Santiago","alternatenames":["Santiago"],"latitude":"14.90371","longitude":"120.51134","feature_class":"P","feature_code":"PPL","country_code":"PH","cc2":"","admin1_code":"03","admin2_code":"50","admin3_code":"","admin4_code":"","population":"5971","elevation":"","dem":"18","timezone":"Asia/Manila","modification_date":"2012-12-05"},{"geonameid":"1687855","name":"Santa Teresa First","asciiname":"Santa Teresa First","alternatenames":["Santa Teresa","Santa Teresa First","Santa Teresa Primera","Santa Teresita First"],"latitude":"14.9265","longitude":"120.55791","feature_class":"P","feature_code":"PPL","country_code":"PH","cc2":"","admin1_code":"03","admin2_code":"50","admin3_code":"","admin4_code":"","population":"4881","elevation":"","dem":"11","timezone":"Asia/Manila","modification_date":"2012-12-05"},{"geonameid":"1687888","name":"Santa Rosa","asciiname":"Santa Rosa","alternatenames":["Santa Rosa"],"latitude":"15.4238","longitude":"120.9378","feature_class":"P","feature_code":"PPLA3","country_code":"PH","cc2":"","admin1_code":"03","admin2_code":"47","admin3_code":"1687914","admin4_code":"","population":"11683","elevation":"","dem":"31","timezone":"Asia/Manila","modification_date":"2011-07-31"},{"geonameid":"1687929","name":"Santa Rita","asciiname":"Santa Rita","alternatenames":["Santa Rita"],"latitude":"15.61923","longitude":"120.86962","feature_class":"P","feature_code":"PPL","country_code":"PH","cc2":"","admin1_code":"03","admin2_code":"47","admin3_code":"","admin4_code":"","population":"3211","elevation":"","dem":"47","timezone":"Asia/Manila","modification_date":"2013-03-05"},{"geonameid":"1687976","name":"Santa Monica","asciiname":"Santa Monica","alternatenames":["San Monica","Santa Monica"],"latitude":"15.35771","longitude":"120.72006","feature_class":"P","feature_code":"PPL","country_code":"PH","cc2":"","admin1_code":"03","admin2_code":"63","admin3_code":"","admin4_code":"","population":"5475","elevation":"","dem":"20","timezone":"Asia/Manila","modification_date":"2013-01-10"},{"geonameid":"1688029","name":"Santa Maria","asciiname":"Santa Maria","alternatenames":["Santa Maria"],"latitude":"15.64365","longitude":"120.42635","feature_class":"P","feature_code":"PPL","country_code":"PH","cc2":"","admin1_code":"03","admin2_code":"63","admin3_code":"","admin4_code":"","population":"2420","elevation":"","dem":"39","timezone":"Asia/Manila","modification_date":"2013-01-10"},{"geonameid":"1688088","name":"Santa Lucia","asciiname":"Santa Lucia","alternatenames":["Old Santa Lucia","Santa Lucia"],"latitude":"15.48184","longitude":"120.77456","feature_class":"P","feature_code":"PPL","country_code":"PH","cc2":"","admin1_code":"03","admin2_code":"47","admin3_code":"","admin4_code":"","population":"4090","elevation":"","dem":"23","timezone":"Asia/Manila","modification_date":"2012-12-05"},{"geonameid":"1688118","name":"Santa Juliana","asciiname":"Santa Juliana","alternatenames":["Santa Juliana"],"latitude":"15.32826","longitude":"120.42863","feature_class":"P","feature_code":"PPL","country_code":"PH","cc2":"","admin1_code":"03","admin2_code":"63","admin3_code":"","admin4_code":"","population":"2962","elevation":"","dem":"161","timezone":"Asia/Manila","modification_date":"2012-01-17"},{"geonameid":"1688136","name":"Santa Ines West","asciiname":"Santa Ines West","alternatenames":["Santa Ines","Santa Ines West"],"latitude":"15.55694","longitude":"120.46448","feature_class":"P","feature_code":"PPL","country_code":"PH","cc2":"","admin1_code":"03","admin2_code":"63","admin3_code":"","admin4_code":"","population":"5821","elevation":"","dem":"98","timezone":"Asia/Manila","modification_date":"2013-01-10"},{"geonameid":"1688145","name":"Santa Ignacia","asciiname":"Santa Ignacia","alternatenames":["Santa Ignacia","Stalgnacia"],"latitude":"15.6169","longitude":"120.4358","feature_class":"P","feature_code":"PPLA3","country_code":"PH","cc2":"","admin1_code":"03","admin2_code":"63","admin3_code":"1688146","admin4_code":"","population":"11477","elevation":"","dem":"44","timezone":"Asia/Manila","modification_date":"2011-07-31"},{"geonameid":"1688162","name":"Santa Fe","asciiname":"Santa Fe","alternatenames":["Santa Fe"],"latitude":"15.0103","longitude":"120.2102","feature_class":"P","feature_code":"PPL","country_code":"PH","cc2":"","admin1_code":"03","admin2_code":"64","admin3_code":"","admin4_code":"","population":"2231","elevation":"","dem":"80","timezone":"Asia/Manila","modification_date":"2012-01-17"},{"geonameid":"1688232","name":"Santa Cruz","asciiname":"Santa Cruz","alternatenames":["Sant Cruz","Santa Cruz","Santa-Krus","Санта-Крус"],"latitude":"15.7654","longitude":"119.9092","feature_class":"P","feature_code":"PPL","country_code":"PH","cc2":"","admin1_code":"03","admin2_code":"64","admin3_code":"","admin4_code":"","population":"26429","elevation":"","dem":"9","timezone":"Asia/Manila","modification_date":"2012-01-17"},{"geonameid":"1688376","name":"Santa Barbara","asciiname":"Santa Barbara","alternatenames":["Santa Barbara"],"latitude":"15.38494","longitude":"120.79611","feature_class":"P","feature_code":"PPL","country_code":"PH","cc2":"","admin1_code":"03","admin2_code":"47","admin3_code":"","admin4_code":"","population":"6525","elevation":"","dem":"20","timezone":"Asia/Manila","modification_date":"2012-12-05"},{"geonameid":"1688398","name":"Santa Ana","asciiname":"Santa Ana","alternatenames":["San Joaquin","Santa Ana","Santa-Ana","Санта-Ана"],"latitude":"15.0955","longitude":"120.767","feature_class":"P","feature_code":"PPLA3","country_code":"PH","cc2":"","admin1_code":"03","admin2_code":"50","admin3_code":"1688418","admin4_code":"","population":"47158","elevation":"","dem":"13","timezone":"Asia/Manila","modification_date":"2011-07-31"},{"geonameid":"1688425","name":"San Simon","asciiname":"San Simon","alternatenames":["San Simon"],"latitude":"14.9996","longitude":"120.7808","feature_class":"P","feature_code":"PPLA3","country_code":"PH","cc2":"","admin1_code":"03","admin2_code":"50","admin3_code":"1688427","admin4_code":"","population":"29049","elevation":"","dem":"11","timezone":"Asia/Manila","modification_date":"2011-07-31"},{"geonameid":"1688456","name":"San Roque Dau First","asciiname":"San Roque Dau First","alternatenames":["San Roque","San Roque Dau","San Roque Dau First","San Roque Dau Primero"],"latitude":"14.97711","longitude":"120.57688","feature_class":"P","feature_code":"PPL","country_code":"PH","cc2":"","admin1_code":"03","admin2_code":"50","admin3_code":"","admin4_code":"","population":"9621","elevation":"","dem":"15","timezone":"Asia/Manila","modification_date":"2012-12-05"},{"geonameid":"1688480","name":"San Roque","asciiname":"San Roque","alternatenames":["San Roque"],"latitude":"15.26146","longitude":"120.65183","feature_class":"P","feature_code":"PPL","country_code":"PH","cc2":"","admin1_code":"03","admin2_code":"50","admin3_code":"","admin4_code":"","population":"2195","elevation":"","dem":"43","timezone":"Asia/Manila","modification_date":"2012-01-17"},{"geonameid":"1688590","name":"San Ricardo","asciiname":"San Ricardo","alternatenames":["San Ricardo"],"latitude":"15.5959","longitude":"120.9727","feature_class":"P","feature_code":"PPL","country_code":"PH","cc2":"","admin1_code":"03","admin2_code":"47","admin3_code":"","admin4_code":"","population":"2501","elevation":"","dem":"52","timezone":"Asia/Manila","modification_date":"2012-01-17"},{"geonameid":"1688642","name":"San Rafael","asciiname":"San Rafael","alternatenames":["San Rafael"],"latitude":"14.94833","longitude":"120.96222","feature_class":"P","feature_code":"PPLA3","country_code":"PH","cc2":"","admin1_code":"03","admin2_code":"13","admin3_code":"1688684","admin4_code":"","population":"0","elevation":"","dem":"28","timezone":"Asia/Manila","modification_date":"2011-07-31"},{"geonameid":"1688786","name":"San Patricio","asciiname":"San Patricio","alternatenames":["San Patricio"],"latitude":"15.09775","longitude":"120.72876","feature_class":"P","feature_code":"PPL","country_code":"PH","cc2":"","admin1_code":"03","admin2_code":"50","admin3_code":"","admin4_code":"","population":"3647","elevation":"","dem":"12","timezone":"Asia/Manila","modification_date":"2013-01-10"},{"geonameid":"1688868","name":"San Nicolas","asciiname":"San Nicolas","alternatenames":["San Nicolas"],"latitude":"15.5841","longitude":"120.6765","feature_class":"P","feature_code":"PPL","country_code":"PH","cc2":"","admin1_code":"03","admin2_code":"63","admin3_code":"","admin4_code":"","population":"9526","elevation":"","dem":"26","timezone":"Asia/Manila","modification_date":"2012-01-17"},{"geonameid":"1688912","name":"San Narciso","asciiname":"San Narciso","alternatenames":["San Narcisco","San Narciso"],"latitude":"15.0143","longitude":"120.0803","feature_class":"P","feature_code":"PPLA3","country_code":"PH","cc2":"","admin1_code":"03","admin2_code":"64","admin3_code":"1688914","admin4_code":"","population":"15636","elevation":"","dem":"16","timezone":"Asia/Manila","modification_date":"2011-07-31"},{"geonameid":"1688949","name":"San Miguel","asciiname":"San Miguel","alternatenames":["San Miguel"],"latitude":"15.44397","longitude":"120.59923","feature_class":"P","feature_code":"PPL","country_code":"PH","cc2":"","admin1_code":"03","admin2_code":"63","admin3_code":"","admin4_code":"","population":"18582","elevation":"","dem":"56","timezone":"Asia/Manila","modification_date":"2013-01-10"},{"geonameid":"1689054","name":"San Mateo","asciiname":"San Mateo","alternatenames":["San Mateo"],"latitude":"15.20008","longitude":"120.7946","feature_class":"P","feature_code":"PPL","country_code":"PH","cc2":"","admin1_code":"03","admin2_code":"50","admin3_code":"","admin4_code":"","population":"4984","elevation":"","dem":"16","timezone":"Asia/Manila","modification_date":"2013-02-08"},{"geonameid":"1689084","name":"San Mariano","asciiname":"San Mariano","alternatenames":["Mariano","San Mariano"],"latitude":"15.32083","longitude":"120.87609","feature_class":"P","feature_code":"PPL","country_code":"PH","cc2":"","admin1_code":"03","admin2_code":"47","admin3_code":"","admin4_code":"","population":"5686","elevation":"","dem":"24","timezone":"Asia/Manila","modification_date":"2012-12-05"},{"geonameid":"1689099","name":"San Marcelino","asciiname":"San Marcelino","alternatenames":["San Marcelino"],"latitude":"14.97418","longitude":"120.15733","feature_class":"P","feature_code":"PPL","country_code":"PH","cc2":"","admin1_code":"03","admin2_code":"64","admin3_code":"","admin4_code":"","population":"18721","elevation":"","dem":"45","timezone":"Asia/Manila","modification_date":"2012-01-17"},{"geonameid":"1689108","name":"San Manuel","asciiname":"San Manuel","alternatenames":[""],"latitude":"15.79917","longitude":"120.60861","feature_class":"P","feature_code":"PPLA3","country_code":"PH","cc2":"","admin1_code":"03","admin2_code":"63","admin3_code":"1689115","admin4_code":"","population":"0","elevation":"","dem":"27","timezone":"Asia/Manila","modification_date":"2011-07-31"},{"geonameid":"1689127","name":"San Luis","asciiname":"San Luis","alternatenames":["San Luis"],"latitude":"15.7208","longitude":"121.5205","feature_class":"P","feature_code":"PPLA3","country_code":"PH","cc2":"","admin1_code":"03","admin2_code":"G8","admin3_code":"1689147","admin4_code":"","population":"0","elevation":"","dem":"25","timezone":"Asia/Manila","modification_date":"2011-07-31"},{"geonameid":"1689160","name":"San Lorenzo","asciiname":"San Lorenzo","alternatenames":["San Lorenzo"],"latitude":"15.4862","longitude":"119.9622","feature_class":"P","feature_code":"PPL","country_code":"PH","cc2":"","admin1_code":"03","admin2_code":"64","admin3_code":"","admin4_code":"","population":"2498","elevation":"","dem":"16","timezone":"Asia/Manila","modification_date":"2012-01-17"},{"geonameid":"1689171","name":"San Leonardo","asciiname":"San Leonardo","alternatenames":["San Leonardo"],"latitude":"15.363","longitude":"120.9639","feature_class":"P","feature_code":"PPLA3","country_code":"PH","cc2":"","admin1_code":"03","admin2_code":"47","admin3_code":"1689172","admin4_code":"","population":"34743","elevation":"","dem":"32","timezone":"Asia/Manila","modification_date":"2011-07-31"},{"geonameid":"1689220","name":"San Juan de Mata","asciiname":"San Juan de Mata","alternatenames":["San Juan de Maja","San Juan de Mata"],"latitude":"15.5352","longitude":"120.5302","feature_class":"P","feature_code":"PPL","country_code":"PH","cc2":"","admin1_code":"03","admin2_code":"63","admin3_code":"","admin4_code":"","population":"3131","elevation":"","dem":"77","timezone":"Asia/Manila","modification_date":"2013-03-05"},{"geonameid":"1689268","name":"San Juan","asciiname":"San Juan","alternatenames":["San Juan"],"latitude":"15.2897","longitude":"120.0648","feature_class":"P","feature_code":"PPL","country_code":"PH","cc2":"","admin1_code":"03","admin2_code":"64","admin3_code":"","admin4_code":"","population":"5034","elevation":"","dem":"26","timezone":"Asia/Manila","modification_date":"2012-01-17"},{"geonameid":"1689383","name":"Malino","asciiname":"Malino","alternatenames":["Malino","San Jose Malino"],"latitude":"15.12695","longitude":"120.67431","feature_class":"P","feature_code":"PPL","country_code":"PH","cc2":"","admin1_code":"03","admin2_code":"50","admin3_code":"","admin4_code":"","population":"4979","elevation":"","dem":"36","timezone":"Asia/Manila","modification_date":"2013-01-10"},{"geonameid":"1689395","name":"San Jose del Monte","asciiname":"San Jose del Monte","alternatenames":["Lungsod ng San Jose del Monte","San Jose Del Monte","San Jose del Monte","San Jose del Monte City","San Jose del Monte Lakanbalen","San José Del Monte","San José del Monte","San-Khose-del'-Monte","sanhosedelmonte","Сан-Хосе-дель-Монте","산호세델몬테"],"latitude":"14.81389","longitude":"121.04528","feature_class":"P","feature_code":"PPLA3","country_code":"PH","cc2":"","admin1_code":"03","admin2_code":"13","admin3_code":"1689396","admin4_code":"","population":"357828","elevation":"","dem":"56","timezone":"Asia/Manila","modification_date":"2011-07-31"},{"geonameid":"1689433","name":"Tabacao","asciiname":"Tabacao","alternatenames":["San Jose","Tabacao","Tabaco"],"latitude":"15.64973","longitude":"120.94066","feature_class":"P","feature_code":"PPL","country_code":"PH","cc2":"","admin1_code":"03","admin2_code":"47","admin3_code":"","admin4_code":"","population":"3465","elevation":"","dem":"59","timezone":"Asia/Manila","modification_date":"2013-03-05"},{"geonameid":"1689448","name":"San Jose","asciiname":"San Jose","alternatenames":["San Jose"],"latitude":"15.0333","longitude":"120.7833","feature_class":"P","feature_code":"PPL","country_code":"PH","cc2":"","admin1_code":"03","admin2_code":"50","admin3_code":"","admin4_code":"","population":"7461","elevation":"","dem":"13","timezone":"Asia/Manila","modification_date":"2012-01-17"},{"geonameid":"1689605","name":"San Jacinto","asciiname":"San Jacinto","alternatenames":["San Jacinto"],"latitude":"15.54496","longitude":"120.66959","feature_class":"P","feature_code":"PPL","country_code":"PH","cc2":"","admin1_code":"03","admin2_code":"63","admin3_code":"","admin4_code":"","population":"2771","elevation":"","dem":"33","timezone":"Asia/Manila","modification_date":"2013-03-05"},{"geonameid":"1689623","name":"Laug","asciiname":"Laug","alternatenames":["Laug","San Isidro","San Isidro Laug"],"latitude":"15.04659","longitude":"120.75149","feature_class":"P","feature_code":"PPL","country_code":"PH","cc2":"","admin1_code":"03","admin2_code":"50","admin3_code":"","admin4_code":"","population":"3157","elevation":"","dem":"8","timezone":"Asia/Manila","modification_date":"2013-02-08"},{"geonameid":"1689655","name":"San Isidro","asciiname":"San Isidro","alternatenames":["San Isidro"],"latitude":"15.23507","longitude":"120.64134","feature_class":"P","feature_code":"PPL","country_code":"PH","cc2":"","admin1_code":"03","admin2_code":"50","admin3_code":"","admin4_code":"","population":"4061","elevation":"","dem":"51","timezone":"Asia/Manila","modification_date":"2013-01-10"},{"geonameid":"1689832","name":"San Ildefonso","asciiname":"San Ildefonso","alternatenames":["San Ildefonso"],"latitude":"15.0809","longitude":"120.941","feature_class":"P","feature_code":"PPLA3","country_code":"PH","cc2":"","admin1_code":"03","admin2_code":"13","admin3_code":"1689835","admin4_code":"","population":"65669","elevation":"","dem":"22","timezone":"Asia/Manila","modification_date":"2011-07-31"},{"geonameid":"1689969","name":"San Francisco","asciiname":"San Francisco","alternatenames":["San Francisco"],"latitude":"15.6289","longitude":"120.43637","feature_class":"P","feature_code":"PPL","country_code":"PH","cc2":"","admin1_code":"03","admin2_code":"63","admin3_code":"","admin4_code":"","population":"2180","elevation":"","dem":"34","timezone":"Asia/Manila","modification_date":"2013-01-10"},{"geonameid":"1690039","name":"San Fernando","asciiname":"San Fernando","alternatenames":["Dakbayan sa San Fernando","Lungsod ng San Fernando","San Fernando","San Fernando City","San Fernando Lakanbalen","Santo Rosario","Siyudad na San Fernando","Urbs Sancti Ferdinandi","sanferunando","sanpeleunando","sheng fei er nan duo","Сан Фернандо","サンフェルナンド","圣费尔南多","산페르난도"],"latitude":"15.0286","longitude":"120.6898","feature_class":"P","feature_code":"PPLA3","country_code":"PH","cc2":"","admin1_code":"03","admin2_code":"50","admin3_code":"1690065","admin4_code":"","population":"251248","elevation":"","dem":"6","timezone":"Asia/Manila","modification_date":"2011-07-31"},{"geonameid":"1690082","name":"San Felipe","asciiname":"San Felipe","alternatenames":["San Felipe"],"latitude":"15.82608","longitude":"120.59755","feature_class":"P","feature_code":"PPL","country_code":"PH","cc2":"","admin1_code":"03","admin2_code":"63","admin3_code":"","admin4_code":"","population":"2570","elevation":"","dem":"30","timezone":"Asia/Manila","modification_date":"2012-08-04"},{"geonameid":"1690085","name":"San Felipe Old","asciiname":"San Felipe Old","alternatenames":["San Felipe","San Felipe Old"],"latitude":"15.5014","longitude":"120.9078","feature_class":"P","feature_code":"PPL","country_code":"PH","cc2":"","admin1_code":"03","admin2_code":"47","admin3_code":"","admin4_code":"","population":"3707","elevation":"","dem":"32","timezone":"Asia/Manila","modification_date":"2013-03-05"},{"geonameid":"1690086","name":"Poblacion, San Felipe","asciiname":"Poblacion, San Felipe","alternatenames":[""],"latitude":"15.06222","longitude":"120.07","feature_class":"P","feature_code":"PPL","country_code":"PH","cc2":"","admin1_code":"03","admin2_code":"64","admin3_code":"","admin4_code":"","population":"14981","elevation":"","dem":"14","timezone":"Asia/Manila","modification_date":"2010-08-14"},{"geonameid":"1690095","name":"San Fabian","asciiname":"San Fabian","alternatenames":["San Fabian"],"latitude":"15.59629","longitude":"120.90663","feature_class":"P","feature_code":"PPL","country_code":"PH","cc2":"","admin1_code":"03","admin2_code":"47","admin3_code":"","admin4_code":"","population":"2335","elevation":"","dem":"47","timezone":"Asia/Manila","modification_date":"2013-03-05"},{"geonameid":"1690183","name":"San Cristobal","asciiname":"San Cristobal","alternatenames":["San Cristobal"],"latitude":"15.55382","longitude":"120.76703","feature_class":"P","feature_code":"PPL","country_code":"PH","cc2":"","admin1_code":"03","admin2_code":"47","admin3_code":"","admin4_code":"","population":"3201","elevation":"","dem":"26","timezone":"Asia/Manila","modification_date":"2013-03-05"},{"geonameid":"1690191","name":"San Clemente","asciiname":"San Clemente","alternatenames":["San Clemente"],"latitude":"15.7124","longitude":"120.359","feature_class":"P","feature_code":"PPLA3","country_code":"PH","cc2":"","admin1_code":"03","admin2_code":"63","admin3_code":"1690192","admin4_code":"","population":"3019","elevation":"","dem":"25","timezone":"Asia/Manila","modification_date":"2011-07-31"},{"geonameid":"1690200","name":"San Casimiro","asciiname":"San Casimiro","alternatenames":[""],"latitude":"15.55306","longitude":"120.78083","feature_class":"P","feature_code":"PPL","country_code":"PH","cc2":"","admin1_code":"03","admin2_code":"47","admin3_code":"","admin4_code":"","population":"2833","elevation":"","dem":"28","timezone":"Asia/Manila","modification_date":"2010-08-14"},{"geonameid":"1690209","name":"San Carlos","asciiname":"San Carlos","alternatenames":["San Carlos"],"latitude":"15.5448","longitude":"120.8931","feature_class":"P","feature_code":"PPL","country_code":"PH","cc2":"","admin1_code":"03","admin2_code":"47","admin3_code":"","admin4_code":"","population":"2536","elevation":"","dem":"37","timezone":"Asia/Manila","modification_date":"2012-01-17"},{"geonameid":"1690245","name":"San Benito","asciiname":"San Benito","alternatenames":["San Benito"],"latitude":"14.85155","longitude":"120.42693","feature_class":"P","feature_code":"PPL","country_code":"PH","cc2":"","admin1_code":"03","admin2_code":"07","admin3_code":"","admin4_code":"","population":"2549","elevation":"","dem":"20","timezone":"Asia/Manila","modification_date":"2013-01-10"},{"geonameid":"1690257","name":"San Basilio","asciiname":"San Basilio","alternatenames":["San Basilio"],"latitude":"15.03341","longitude":"120.58427","feature_class":"P","feature_code":"PPL","country_code":"PH","cc2":"","admin1_code":"03","admin2_code":"50","admin3_code":"","admin4_code":"","population":"8125","elevation":"","dem":"39","timezone":"Asia/Manila","modification_date":"2013-01-10"},{"geonameid":"1690313","name":"San Antonio","asciiname":"San Antonio","alternatenames":["San Antonio"],"latitude":"15.3062","longitude":"120.856","feature_class":"P","feature_code":"PPLA3","country_code":"PH","cc2":"","admin1_code":"03","admin2_code":"47","admin3_code":"1690404","admin4_code":"","population":"26247","elevation":"","dem":"22","timezone":"Asia/Manila","modification_date":"2011-08-23"},{"geonameid":"1690409","name":"San Anton","asciiname":"San Anton","alternatenames":["San Anton"],"latitude":"15.3478","longitude":"120.91991","feature_class":"P","feature_code":"PPL","country_code":"PH","cc2":"","admin1_code":"03","admin2_code":"47","admin3_code":"","admin4_code":"","population":"4911","elevation":"","dem":"26","timezone":"Asia/Manila","modification_date":"2012-12-05"},{"geonameid":"1690428","name":"San Andres","asciiname":"San Andres","alternatenames":["San Andres"],"latitude":"15.71928","longitude":"120.77752","feature_class":"P","feature_code":"PPL","country_code":"PH","cc2":"","admin1_code":"03","admin2_code":"47","admin3_code":"","admin4_code":"","population":"3329","elevation":"","dem":"53","timezone":"Asia/Manila","modification_date":"2013-03-05"},{"geonameid":"1690459","name":"San Alejandro","asciiname":"San Alejandro","alternatenames":["San Alejandro"],"latitude":"15.56098","longitude":"120.84896","feature_class":"P","feature_code":"PPL","country_code":"PH","cc2":"","admin1_code":"03","admin2_code":"47","admin3_code":"","admin4_code":"","population":"3064","elevation":"","dem":"33","timezone":"Asia/Manila","modification_date":"2013-03-05"},{"geonameid":"1690493","name":"San Agustin","asciiname":"San Agustin","alternatenames":["San Agustin"],"latitude":"14.9903","longitude":"120.606","feature_class":"P","feature_code":"PPL","country_code":"PH","cc2":"","admin1_code":"03","admin2_code":"50","admin3_code":"","admin4_code":"","population":"3289","elevation":"","dem":"10","timezone":"Asia/Manila","modification_date":"2012-01-17"},{"geonameid":"1690578","name":"Sampaloc","asciiname":"Sampaloc","alternatenames":["Sampaloc"],"latitude":"15.81667","longitude":"120.86667","feature_class":"P","feature_code":"PPL","country_code":"PH","cc2":"","admin1_code":"03","admin2_code":"47","admin3_code":"","admin4_code":"","population":"2206","elevation":"","dem":"102","timezone":"Asia/Manila","modification_date":"2012-01-17"},{"geonameid":"1690664","name":"Samal","asciiname":"Samal","alternatenames":["Samal","Самал"],"latitude":"14.76778","longitude":"120.54306","feature_class":"P","feature_code":"PPLA3","country_code":"PH","cc2":"","admin1_code":"03","admin2_code":"07","admin3_code":"1690667","admin4_code":"","population":"29729","elevation":"","dem":"8","timezone":"Asia/Manila","modification_date":"2011-07-31"},{"geonameid":"1690687","name":"Salvacion I","asciiname":"Salvacion I","alternatenames":["Salvacion","Salvacion I","Salvacion Primera"],"latitude":"15.8396","longitude":"120.9159","feature_class":"P","feature_code":"PPL","country_code":"PH","cc2":"","admin1_code":"03","admin2_code":"47","admin3_code":"","admin4_code":"","population":"3721","elevation":"","dem":"113","timezone":"Asia/Manila","modification_date":"2012-01-17"},{"geonameid":"1690909","name":"Salcedo","asciiname":"Salcedo","alternatenames":["Salcedo"],"latitude":"15.85722","longitude":"120.6","feature_class":"P","feature_code":"PPL","country_code":"PH","cc2":"","admin1_code":"03","admin2_code":"63","admin3_code":"","admin4_code":"","population":"2182","elevation":"","dem":"27","timezone":"Asia/Manila","modification_date":"2012-02-01"},{"geonameid":"1690920","name":"Salaza","asciiname":"Salaza","alternatenames":["Salasa","Salaza"],"latitude":"15.4541","longitude":"119.9553","feature_class":"P","feature_code":"PPL","country_code":"PH","cc2":"","admin1_code":"03","admin2_code":"64","admin3_code":"","admin4_code":"","population":"4599","elevation":"","dem":"19","timezone":"Asia/Manila","modification_date":"2012-01-17"},{"geonameid":"1690955","name":"Salapungan","asciiname":"Salapungan","alternatenames":["Salapungan"],"latitude":"15.1339","longitude":"120.92794","feature_class":"P","feature_code":"PPL","country_code":"PH","cc2":"","admin1_code":"03","admin2_code":"50","admin3_code":"","admin4_code":"","population":"5928","elevation":"","dem":"15","timezone":"Asia/Manila","modification_date":"2013-02-08"},{"geonameid":"1691173","name":"Sagana","asciiname":"Sagana","alternatenames":["Sagana","Susana"],"latitude":"15.5689","longitude":"121.1522","feature_class":"P","feature_code":"PPL","country_code":"PH","cc2":"","admin1_code":"03","admin2_code":"47","admin3_code":"","admin4_code":"","population":"2496","elevation":"","dem":"68","timezone":"Asia/Manila","modification_date":"2013-02-08"},{"geonameid":"1691341","name":"Sabang","asciiname":"Sabang","alternatenames":["Sabang"],"latitude":"14.6951","longitude":"120.2507","feature_class":"P","feature_code":"PPL","country_code":"PH","cc2":"","admin1_code":"03","admin2_code":"07","admin3_code":"","admin4_code":"","population":"5144","elevation":"","dem":"13","timezone":"Asia/Manila","modification_date":"2012-01-17"},{"geonameid":"1691606","name":"Rizal","asciiname":"Rizal","alternatenames":["Nazaret","Rizal","Rizel","Ризал"],"latitude":"15.7118","longitude":"121.1061","feature_class":"P","feature_code":"PPLA3","country_code":"PH","cc2":"","admin1_code":"03","admin2_code":"47","admin3_code":"1691682","admin4_code":"","population":"26201","elevation":"","dem":"91","timezone":"Asia/Manila","modification_date":"2011-07-31"},{"geonameid":"1691904","name":"Ramos","asciiname":"Ramos","alternatenames":["Bani","Ramos"],"latitude":"15.6653","longitude":"120.6406","feature_class":"P","feature_code":"PPLA3","country_code":"PH","cc2":"","admin1_code":"03","admin2_code":"63","admin3_code":"1691906","admin4_code":"","population":"15066","elevation":"","dem":"26","timezone":"Asia/Manila","modification_date":"2011-07-31"},{"geonameid":"1691929","name":"Rajal Norte","asciiname":"Rajal Norte","alternatenames":["Rajal","Rajal Norte"],"latitude":"15.44485","longitude":"120.86256","feature_class":"P","feature_code":"PPL","country_code":"PH","cc2":"","admin1_code":"03","admin2_code":"47","admin3_code":"","admin4_code":"","population":"10281","elevation":"","dem":"27","timezone":"Asia/Manila","modification_date":"2012-12-05"},{"geonameid":"1692199","name":"Quezon","asciiname":"Quezon","alternatenames":["Keson-Siti","Quezon","Кесон-Сити"],"latitude":"15.5512","longitude":"120.8147","feature_class":"P","feature_code":"PPLA3","country_code":"PH","cc2":"","admin1_code":"03","admin2_code":"47","admin3_code":"1692218","admin4_code":"","population":"18451","elevation":"","dem":"29","timezone":"Asia/Manila","modification_date":"2011-07-31"},{"geonameid":"1692291","name":"Putlod","asciiname":"Putlod","alternatenames":["Putlod","Putlog","Putloo"],"latitude":"15.3706","longitude":"120.8675","feature_class":"P","feature_code":"PPL","country_code":"PH","cc2":"","admin1_code":"03","admin2_code":"47","admin3_code":"","admin4_code":"","population":"3481","elevation":"","dem":"27","timezone":"Asia/Manila","modification_date":"2012-01-17"},{"geonameid":"1692373","name":"Porais","asciiname":"Porais","alternatenames":["Porais","Purais"],"latitude":"15.7551","longitude":"121.0427","feature_class":"P","feature_code":"PPL","country_code":"PH","cc2":"","admin1_code":"03","admin2_code":"47","admin3_code":"","admin4_code":"","population":"3075","elevation":"","dem":"117","timezone":"Asia/Manila","modification_date":"2012-08-04"},{"geonameid":"1692376","name":"Purac","asciiname":"Purac","alternatenames":["Porac","Porach","Purac","Порач"],"latitude":"15.252","longitude":"120.0169","feature_class":"P","feature_code":"PPL","country_code":"PH","cc2":"","admin1_code":"03","admin2_code":"64","admin3_code":"","admin4_code":"","population":"2305","elevation":"","dem":"14","timezone":"Asia/Manila","modification_date":"2012-01-17"},{"geonameid":"1692377","name":"Pura","asciiname":"Pura","alternatenames":["Pura"],"latitude":"15.6248","longitude":"120.648","feature_class":"P","feature_code":"PPLA3","country_code":"PH","cc2":"","admin1_code":"03","admin2_code":"63","admin3_code":"1692378","admin4_code":"","population":"6928","elevation":"","dem":"29","timezone":"Asia/Manila","modification_date":"2011-07-31"},{"geonameid":"1692475","name":"Puncan","asciiname":"Puncan","alternatenames":["Puncan"],"latitude":"15.9071","longitude":"120.9907","feature_class":"P","feature_code":"PPL","country_code":"PH","cc2":"","admin1_code":"03","admin2_code":"47","admin3_code":"","admin4_code":"","population":"4047","elevation":"","dem":"294","timezone":"Asia/Manila","modification_date":"2012-01-17"},{"geonameid":"1692491","name":"Pulung Santol","asciiname":"Pulung Santol","alternatenames":["Balunsantol","Pulong Santol","Pulung Santol"],"latitude":"15.04574","longitude":"120.56188","feature_class":"P","feature_code":"PPL","country_code":"PH","cc2":"","admin1_code":"03","admin2_code":"50","admin3_code":"","admin4_code":"","population":"5591","elevation":"","dem":"60","timezone":"Asia/Manila","modification_date":"2013-01-10"},{"geonameid":"1692493","name":"Pulungmasle","asciiname":"Pulungmasle","alternatenames":["Pulungmasle"],"latitude":"15.0004","longitude":"120.55774","feature_class":"P","feature_code":"PPL","country_code":"PH","cc2":"","admin1_code":"03","admin2_code":"50","admin3_code":"","admin4_code":"","population":"9277","elevation":"","dem":"25","timezone":"Asia/Manila","modification_date":"2013-01-10"},{"geonameid":"1692522","name":"Pulong Sampalok","asciiname":"Pulong Sampalok","alternatenames":["Pulong Sampaloc","Pulong Sampalok","Pulong Sampoloc"],"latitude":"14.9611","longitude":"121.0609","feature_class":"P","feature_code":"PPL","country_code":"PH","cc2":"","admin1_code":"03","admin2_code":"13","admin3_code":"","admin4_code":"","population":"2335","elevation":"","dem":"59","timezone":"Asia/Manila","modification_date":"2013-02-08"},{"geonameid":"1692529","name":"Pulong Gubat","asciiname":"Pulong Gubat","alternatenames":["Pulong Gubat","Pulongubat"],"latitude":"14.85938","longitude":"120.90599","feature_class":"P","feature_code":"PPL","country_code":"PH","cc2":"","admin1_code":"03","admin2_code":"13","admin3_code":"","admin4_code":"","population":"4697","elevation":"","dem":"12","timezone":"Asia/Manila","modification_date":"2013-05-07"},{"geonameid":"1692549","name":"Pulo","asciiname":"Pulo","alternatenames":["Pulo"],"latitude":"15.246","longitude":"120.9285","feature_class":"P","feature_code":"PPL","country_code":"PH","cc2":"","admin1_code":"03","admin2_code":"47","admin3_code":"","admin4_code":"","population":"10776","elevation":"","dem":"17","timezone":"Asia/Manila","modification_date":"2012-01-17"},{"geonameid":"1692565","name":"Pulilan","asciiname":"Pulilan","alternatenames":["Pulilan"],"latitude":"14.90167","longitude":"120.84917","feature_class":"P","feature_code":"PPLA3","country_code":"PH","cc2":"","admin1_code":"03","admin2_code":"13","admin3_code":"1692566","admin4_code":"","population":"77186","elevation":"","dem":"16","timezone":"Asia/Manila","modification_date":"2011-07-31"},{"geonameid":"1692800","name":"Prado Siongco","asciiname":"Prado Siongco","alternatenames":["Prado","Prado Siongco"],"latitude":"14.879","longitude":"120.51292","feature_class":"P","feature_code":"PPL","country_code":"PH","cc2":"","admin1_code":"03","admin2_code":"50","admin3_code":"","admin4_code":"","population":"3590","elevation":"","dem":"16","timezone":"Asia/Manila","modification_date":"2012-12-05"},{"geonameid":"1692914","name":"Porac","asciiname":"Porac","alternatenames":["Porac","Porach","Порач"],"latitude":"15.0711","longitude":"120.5423","feature_class":"P","feature_code":"PPLA3","country_code":"PH","cc2":"","admin1_code":"03","admin2_code":"50","admin3_code":"1692915","admin4_code":"","population":"21660","elevation":"","dem":"73","timezone":"Asia/Manila","modification_date":"2011-07-31"},{"geonameid":"1693238","name":"Plaridel","asciiname":"Plaridel","alternatenames":["Plaridel"],"latitude":"15.65853","longitude":"121.02009","feature_class":"P","feature_code":"PPL","country_code":"PH","cc2":"","admin1_code":"03","admin2_code":"47","admin3_code":"","admin4_code":"","population":"2842","elevation":"","dem":"72","timezone":"Asia/Manila","modification_date":"2013-02-08"},{"geonameid":"1693401","name":"Pio","asciiname":"Pio","alternatenames":["Pio"],"latitude":"15.04741","longitude":"120.51891","feature_class":"P","feature_code":"PPL","country_code":"PH","cc2":"","admin1_code":"03","admin2_code":"50","admin3_code":"","admin4_code":"","population":"24345","elevation":"","dem":"67","timezone":"Asia/Manila","modification_date":"2013-01-10"},{"geonameid":"1693603","name":"Pinambaran","asciiname":"Pinambaran","alternatenames":["Pinambaran"],"latitude":"15.20233","longitude":"120.97797","feature_class":"P","feature_code":"PPL","country_code":"PH","cc2":"","admin1_code":"03","admin2_code":"13","admin3_code":"","admin4_code":"","population":"3378","elevation":"","dem":"24","timezone":"Asia/Manila","modification_date":"2013-02-08"},{"geonameid":"1693641","name":"Piñahan","asciiname":"Pinahan","alternatenames":["Pinahan","Pinelands","Piñahan"],"latitude":"15.6266","longitude":"121.0621","feature_class":"P","feature_code":"PPL","country_code":"PH","cc2":"","admin1_code":"03","admin2_code":"47","admin3_code":"","admin4_code":"","population":"3005","elevation":"","dem":"68","timezone":"Asia/Manila","modification_date":"2012-01-17"},{"geonameid":"1693839","name":"Pilar","asciiname":"Pilar","alternatenames":["Pilar"],"latitude":"14.66","longitude":"120.56528","feature_class":"P","feature_code":"PPLA3","country_code":"PH","cc2":"","admin1_code":"03","admin2_code":"07","admin3_code":"1693852","admin4_code":"","population":"17831","elevation":"","dem":"10","timezone":"Asia/Manila","modification_date":"2011-07-31"},{"geonameid":"1693981","name":"Pias","asciiname":"Pias","alternatenames":["Pias"],"latitude":"15.34525","longitude":"121.07473","feature_class":"P","feature_code":"PPL","country_code":"PH","cc2":"","admin1_code":"03","admin2_code":"47","admin3_code":"","admin4_code":"","population":"3788","elevation":"","dem":"54","timezone":"Asia/Manila","modification_date":"2012-01-17"},{"geonameid":"1694075","name":"Peñaranda","asciiname":"Penaranda","alternatenames":["Pen'jaranda","Penaranda","Peñaranda","Пеньяранда"],"latitude":"15.35116","longitude":"121.00393","feature_class":"P","feature_code":"PPLA3","country_code":"PH","cc2":"","admin1_code":"03","admin2_code":"47","admin3_code":"1694076","admin4_code":"","population":"27465","elevation":"","dem":"41","timezone":"Asia/Manila","modification_date":"2011-07-31"},{"geonameid":"1694286","name":"Pau","asciiname":"Pau","alternatenames":["Pau"],"latitude":"15.0279","longitude":"120.7243","feature_class":"P","feature_code":"PPL","country_code":"PH","cc2":"","admin1_code":"03","admin2_code":"50","admin3_code":"","admin4_code":"","population":"2428","elevation":"","dem":"7","timezone":"Asia/Manila","modification_date":"2012-08-04"},{"geonameid":"1694660","name":"Parista","asciiname":"Parista","alternatenames":["Parista"],"latitude":"15.8536","longitude":"120.9282","feature_class":"P","feature_code":"PPL","country_code":"PH","cc2":"","admin1_code":"03","admin2_code":"47","admin3_code":"","admin4_code":"","population":"3515","elevation":"","dem":"137","timezone":"Asia/Manila","modification_date":"2012-01-17"},{"geonameid":"1694767","name":"Parang","asciiname":"Parang","alternatenames":["Parang"],"latitude":"14.6331","longitude":"120.4493","feature_class":"P","feature_code":"PPL","country_code":"PH","cc2":"","admin1_code":"03","admin2_code":"07","admin3_code":"","admin4_code":"","population":"2728","elevation":"","dem":"175","timezone":"Asia/Manila","modification_date":"2012-01-17"},{"geonameid":"1694826","name":"Papaya","asciiname":"Papaya","alternatenames":["General Tinio","Papaya"],"latitude":"15.32016","longitude":"120.83574","feature_class":"P","feature_code":"PPL","country_code":"PH","cc2":"","admin1_code":"03","admin2_code":"47","admin3_code":"","admin4_code":"","population":"38640","elevation":"","dem":"17","timezone":"Asia/Manila","modification_date":"2012-12-05"},{"geonameid":"1694861","name":"Paombong","asciiname":"Paombong","alternatenames":["Paombong","Paonbong"],"latitude":"14.83111","longitude":"120.78917","feature_class":"P","feature_code":"PPLA3","country_code":"PH","cc2":"","admin1_code":"03","admin2_code":"13","admin3_code":"1694862","admin4_code":"","population":"41384","elevation":"","dem":"7","timezone":"Asia/Manila","modification_date":"2011-07-31"},{"geonameid":"1694914","name":"Pantubig","asciiname":"Pantubig","alternatenames":["Pantubig","Puting Tubig"],"latitude":"14.96806","longitude":"120.95472","feature_class":"P","feature_code":"PPL","country_code":"PH","cc2":"","admin1_code":"03","admin2_code":"13","admin3_code":"","admin4_code":"","population":"39285","elevation":"","dem":"24","timezone":"Asia/Manila","modification_date":"2012-01-17"},{"geonameid":"1694988","name":"Pantabangan","asciiname":"Pantabangan","alternatenames":["Panabangan","Pantabangan"],"latitude":"15.8113","longitude":"121.1443","feature_class":"P","feature_code":"PPLA3","country_code":"PH","cc2":"","admin1_code":"03","admin2_code":"47","admin3_code":"1694989","admin4_code":"","population":"5956","elevation":"","dem":"278","timezone":"Asia/Manila","modification_date":"2011-07-31"},{"geonameid":"1695053","name":"Panlinlang","asciiname":"Panlinlang","alternatenames":["Panlinlang"],"latitude":"15.18333","longitude":"120.7","feature_class":"P","feature_code":"PPL","country_code":"PH","cc2":"","admin1_code":"03","admin2_code":"50","admin3_code":"","admin4_code":"","population":"2539","elevation":"","dem":"29","timezone":"Asia/Manila","modification_date":"2012-02-01"},{"geonameid":"1695097","name":"Paniqui","asciiname":"Paniqui","alternatenames":["Paniqui"],"latitude":"15.6689","longitude":"120.5806","feature_class":"P","feature_code":"PPLA3","country_code":"PH","cc2":"","admin1_code":"03","admin2_code":"63","admin3_code":"1695103","admin4_code":"","population":"48261","elevation":"","dem":"25","timezone":"Asia/Manila","modification_date":"2011-07-31"},{"geonameid":"1695455","name":"Pando","asciiname":"Pando","alternatenames":["Pando"],"latitude":"15.39395","longitude":"120.68473","feature_class":"P","feature_code":"PPL","country_code":"PH","cc2":"","admin1_code":"03","admin2_code":"63","admin3_code":"","admin4_code":"","population":"2560","elevation":"","dem":"28","timezone":"Asia/Manila","modification_date":"2012-01-17"},{"geonameid":"1695462","name":"Pandi","asciiname":"Pandi","alternatenames":["Panda","Pandi","Панда"],"latitude":"14.865","longitude":"120.95722","feature_class":"P","feature_code":"PPLA3","country_code":"PH","cc2":"","admin1_code":"03","admin2_code":"13","admin3_code":"1695463","admin4_code":"","population":"34927","elevation":"","dem":"41","timezone":"Asia/Manila","modification_date":"2011-07-31"},{"geonameid":"1695583","name":"Pandacaqui","asciiname":"Pandacaqui","alternatenames":["Pandacaqui","Pandakaki"],"latitude":"15.1719","longitude":"120.65457","feature_class":"P","feature_code":"PPL","country_code":"PH","cc2":"","admin1_code":"03","admin2_code":"50","admin3_code":"","admin4_code":"","population":"28603","elevation":"","dem":"51","timezone":"Asia/Manila","modification_date":"2013-01-10"},{"geonameid":"1695598","name":"Pance","asciiname":"Pance","alternatenames":["Pance"],"latitude":"15.6885","longitude":"120.6201","feature_class":"P","feature_code":"PPL","country_code":"PH","cc2":"","admin1_code":"03","admin2_code":"63","admin3_code":"","admin4_code":"","population":"4070","elevation":"","dem":"25","timezone":"Asia/Manila","modification_date":"2012-01-17"},{"geonameid":"1695702","name":"Panan","asciiname":"Panan","alternatenames":["Panan"],"latitude":"15.2134","longitude":"120.0272","feature_class":"P","feature_code":"PPL","country_code":"PH","cc2":"","admin1_code":"03","admin2_code":"64","admin3_code":"","admin4_code":"","population":"2294","elevation":"","dem":"14","timezone":"Asia/Manila","modification_date":"2012-01-17"},{"geonameid":"1695808","name":"Panabingan","asciiname":"Panabingan","alternatenames":["Panabingan"],"latitude":"15.37732","longitude":"120.76492","feature_class":"P","feature_code":"PPL","country_code":"PH","cc2":"","admin1_code":"03","admin2_code":"47","admin3_code":"","admin4_code":"","population":"2683","elevation":"","dem":"21","timezone":"Asia/Manila","modification_date":"2012-12-05"},{"geonameid":"1695909","name":"Pamatawan","asciiname":"Pamatawan","alternatenames":["Pamatawan"],"latitude":"14.92779","longitude":"120.21363","feature_class":"P","feature_code":"PPL","country_code":"PH","cc2":"","admin1_code":"03","admin2_code":"64","admin3_code":"","admin4_code":"","population":"2849","elevation":"","dem":"52","timezone":"Asia/Manila","modification_date":"2012-01-17"},{"geonameid":"1695956","name":"Palusapis","asciiname":"Palusapis","alternatenames":["Palusapig","Palusapis"],"latitude":"15.68324","longitude":"120.86267","feature_class":"P","feature_code":"PPL","country_code":"PH","cc2":"","admin1_code":"03","admin2_code":"47","admin3_code":"","admin4_code":"","population":"2443","elevation":"","dem":"53","timezone":"Asia/Manila","modification_date":"2013-03-05"},{"geonameid":"1696165","name":"Palayan City","asciiname":"Palayan City","alternatenames":["Palayan","Palayan City"],"latitude":"15.5415","longitude":"121.0848","feature_class":"P","feature_code":"PPL","country_code":"PH","cc2":"","admin1_code":"03","admin2_code":"47","admin3_code":"","admin4_code":"","population":"23742","elevation":"","dem":"73","timezone":"Asia/Manila","modification_date":"2012-08-04"},{"geonameid":"1696188","name":"Palauig","asciiname":"Palauig","alternatenames":["Palauig"],"latitude":"15.435","longitude":"119.9045","feature_class":"P","feature_code":"PPL","country_code":"PH","cc2":"","admin1_code":"03","admin2_code":"64","admin3_code":"","admin4_code":"","population":"2944","elevation":"","dem":"13","timezone":"Asia/Manila","modification_date":"2012-01-17"},{"geonameid":"1696431","name":"Paitan Norte","asciiname":"Paitan Norte","alternatenames":["Paitan","Paitan Norte"],"latitude":"15.83333","longitude":"120.74086","feature_class":"P","feature_code":"PPL","country_code":"PH","cc2":"","admin1_code":"03","admin2_code":"47","admin3_code":"","admin4_code":"","population":"2586","elevation":"","dem":"79","timezone":"Asia/Manila","modification_date":"2012-08-04"},{"geonameid":"1696767","name":"Padapada","asciiname":"Padapada","alternatenames":["Padapada"],"latitude":"15.5517","longitude":"120.5163","feature_class":"P","feature_code":"PPL","country_code":"PH","cc2":"","admin1_code":"03","admin2_code":"63","admin3_code":"","admin4_code":"","population":"3016","elevation":"","dem":"71","timezone":"Asia/Manila","modification_date":"2012-01-17"},{"geonameid":"1696808","name":"Paco Roman","asciiname":"Paco Roman","alternatenames":["Paco Roman","Pacoroman"],"latitude":"15.6597","longitude":"121.0877","feature_class":"P","feature_code":"PPL","country_code":"PH","cc2":"","admin1_code":"03","admin2_code":"47","admin3_code":"","admin4_code":"","population":"2770","elevation":"","dem":"77","timezone":"Asia/Manila","modification_date":"2013-02-08"},{"geonameid":"1697023","name":"Orion","asciiname":"Orion","alternatenames":["Orion","Орион"],"latitude":"14.62056","longitude":"120.58167","feature_class":"P","feature_code":"PPLA3","country_code":"PH","cc2":"","admin1_code":"03","admin2_code":"07","admin3_code":"1697024","admin4_code":"","population":"46991","elevation":"","dem":"9","timezone":"Asia/Manila","modification_date":"2011-07-31"},{"geonameid":"1697046","name":"Orani","asciiname":"Orani","alternatenames":["Orani"],"latitude":"14.8006","longitude":"120.5371","feature_class":"P","feature_code":"PPLA3","country_code":"PH","cc2":"","admin1_code":"03","admin2_code":"07","admin3_code":"1697047","admin4_code":"","population":"44877","elevation":"","dem":"9","timezone":"Asia/Manila","modification_date":"2011-07-31"},{"geonameid":"1697175","name":"Olongapo","asciiname":"Olongapo","alternatenames":["Bandaraya Olongapo","Ciudad ti Olongapo","Dakbayan sa Olongapo","Lungsod ng Olongapo","Olongapo","Olongapo City","Olongapo Lakanbalen","Olóngapo","Siyudad na Olongapo","Siyudad na Olóngapo","Syodad nin Olongapo","ao long a bo","ollong-gapo","奥隆阿波","올롱가포"],"latitude":"14.82917","longitude":"120.28278","feature_class":"P","feature_code":"PPL","country_code":"PH","cc2":"","admin1_code":"03","admin2_code":"","admin3_code":"","admin4_code":"","population":"221178","elevation":"","dem":"11","timezone":"Asia/Manila","modification_date":"2013-08-18"},{"geonameid":"1697376","name":"Obando","asciiname":"Obando","alternatenames":["Obando"],"latitude":"14.7098","longitude":"120.9362","feature_class":"P","feature_code":"PPLA3","country_code":"PH","cc2":"","admin1_code":"03","admin2_code":"13","admin3_code":"1697377","admin4_code":"","population":"59929","elevation":"","dem":"6","timezone":"Asia/Manila","modification_date":"2011-07-31"},{"geonameid":"1697497","name":"Norzagaray","asciiname":"Norzagaray","alternatenames":["Norzagaray","Norzugaray"],"latitude":"14.9109","longitude":"121.0493","feature_class":"P","feature_code":"PPL","country_code":"PH","cc2":"","admin1_code":"03","admin2_code":"13","admin3_code":"","admin4_code":"","population":"79508","elevation":"","dem":"49","timezone":"Asia/Manila","modification_date":"2012-01-17"},{"geonameid":"1697622","name":"Niugan","asciiname":"Niugan","alternatenames":["Niogan","Niugan"],"latitude":"14.94607","longitude":"120.9672","feature_class":"P","feature_code":"PPL","country_code":"PH","cc2":"","admin1_code":"03","admin2_code":"13","admin3_code":"","admin4_code":"","population":"4014","elevation":"","dem":"28","timezone":"Asia/Manila","modification_date":"2012-07-04"},{"geonameid":"1697696","name":"Nieves","asciiname":"Nieves","alternatenames":["Nieves"],"latitude":"15.32842","longitude":"120.94892","feature_class":"P","feature_code":"PPL","country_code":"PH","cc2":"","admin1_code":"03","admin2_code":"47","admin3_code":"","admin4_code":"","population":"8617","elevation":"","dem":"27","timezone":"Asia/Manila","modification_date":"2012-12-05"},{"geonameid":"1698323","name":"Nancamarinan","asciiname":"Nancamarinan","alternatenames":["Nancamarian","Nancamarinan"],"latitude":"15.6752","longitude":"120.5364","feature_class":"P","feature_code":"PPL","country_code":"PH","cc2":"","admin1_code":"03","admin2_code":"63","admin3_code":"","admin4_code":"","population":"3565","elevation":"","dem":"22","timezone":"Asia/Manila","modification_date":"2013-03-05"},{"geonameid":"1698357","name":"Nampicuan","asciiname":"Nampicuan","alternatenames":["Nampicuan"],"latitude":"15.7314","longitude":"120.625","feature_class":"P","feature_code":"PPLA3","country_code":"PH","cc2":"","admin1_code":"03","admin2_code":"47","admin3_code":"1698358","admin4_code":"","population":"6058","elevation":"","dem":"22","timezone":"Asia/Manila","modification_date":"2011-07-31"},{"geonameid":"1698391","name":"Nambalan","asciiname":"Nambalan","alternatenames":["Nambalan"],"latitude":"15.59911","longitude":"120.46031","feature_class":"P","feature_code":"PPL","country_code":"PH","cc2":"","admin1_code":"03","admin2_code":"63","admin3_code":"","admin4_code":"","population":"2265","elevation":"","dem":"49","timezone":"Asia/Manila","modification_date":"2013-01-10"},{"geonameid":"1698695","name":"Nagpandayan","asciiname":"Nagpandayan","alternatenames":["Nagpandayan"],"latitude":"15.60138","longitude":"120.76893","feature_class":"P","feature_code":"PPL","country_code":"PH","cc2":"","admin1_code":"03","admin2_code":"47","admin3_code":"","admin4_code":"","population":"3140","elevation":"","dem":"31","timezone":"Asia/Manila","modification_date":"2013-03-05"},{"geonameid":"1699059","name":"Murcia","asciiname":"Murcia","alternatenames":["Murcia"],"latitude":"15.40425","longitude":"120.60903","feature_class":"P","feature_code":"PPL","country_code":"PH","cc2":"","admin1_code":"03","admin2_code":"63","admin3_code":"","admin4_code":"","population":"5138","elevation":"","dem":"53","timezone":"Asia/Manila","modification_date":"2012-01-17"},{"geonameid":"1699088","name":"Muñoz","asciiname":"Munoz","alternatenames":[""],"latitude":"15.71611","longitude":"120.90306","feature_class":"P","feature_code":"PPLA3","country_code":"PH","cc2":"","admin1_code":"03","admin2_code":"47","admin3_code":"1699090","admin4_code":"","population":"37141","elevation":"","dem":"70","timezone":"Asia/Manila","modification_date":"2011-07-31"},{"geonameid":"1699204","name":"Morong","asciiname":"Morong","alternatenames":["Moron","Morong","Моронг"],"latitude":"14.67889","longitude":"120.26611","feature_class":"P","feature_code":"PPLA3","country_code":"PH","cc2":"","admin1_code":"03","admin2_code":"07","admin3_code":"1699207","admin4_code":"","population":"16117","elevation":"","dem":"10","timezone":"Asia/Manila","modification_date":"2011-07-31"},{"geonameid":"1699222","name":"Moriones","asciiname":"Moriones","alternatenames":["Mariones","Moriones"],"latitude":"15.46116","longitude":"120.46579","feature_class":"P","feature_code":"PPL","country_code":"PH","cc2":"","admin1_code":"03","admin2_code":"63","admin3_code":"","admin4_code":"","population":"2916","elevation":"","dem":"94","timezone":"Asia/Manila","modification_date":"2013-02-08"},{"geonameid":"1699345","name":"Moncada","asciiname":"Moncada","alternatenames":["Mancada","Moncada"],"latitude":"15.7354","longitude":"120.574","feature_class":"P","feature_code":"PPLA3","country_code":"PH","cc2":"","admin1_code":"03","admin2_code":"63","admin3_code":"1699346","admin4_code":"","population":"0","elevation":"","dem":"22","timezone":"Asia/Manila","modification_date":"2011-07-31"},{"geonameid":"1699656","name":"Minalin","asciiname":"Minalin","alternatenames":["Minalin"],"latitude":"14.9676","longitude":"120.6828","feature_class":"P","feature_code":"PPLA3","country_code":"PH","cc2":"","admin1_code":"03","admin2_code":"50","admin3_code":"1699657","admin4_code":"","population":"13527","elevation":"","dem":"7","timezone":"Asia/Manila","modification_date":"2011-07-31"},{"geonameid":"1699802","name":"Meycauayan","asciiname":"Meycauayan","alternatenames":["Meycauayan","Meycawayan"],"latitude":"14.73694","longitude":"120.96083","feature_class":"P","feature_code":"PPLA3","country_code":"PH","cc2":"","admin1_code":"03","admin2_code":"13","admin3_code":"1699803","admin4_code":"","population":"184839","elevation":"","dem":"10","timezone":"Asia/Manila","modification_date":"2011-07-31"},{"geonameid":"1699805","name":"Mexico","asciiname":"Mexico","alternatenames":["Mexico"],"latitude":"15.0646","longitude":"120.7198","feature_class":"P","feature_code":"PPLA3","country_code":"PH","cc2":"","admin1_code":"03","admin2_code":"50","admin3_code":"1699806","admin4_code":"","population":"43694","elevation":"","dem":"12","timezone":"Asia/Manila","modification_date":"2011-07-31"},{"geonameid":"1700068","name":"Mayantoc","asciiname":"Mayantoc","alternatenames":["Mayantoc"],"latitude":"15.6199","longitude":"120.377","feature_class":"P","feature_code":"PPLA3","country_code":"PH","cc2":"","admin1_code":"03","admin2_code":"63","admin3_code":"1700070","admin4_code":"","population":"6250","elevation":"","dem":"56","timezone":"Asia/Manila","modification_date":"2011-07-31"},{"geonameid":"1700197","name":"Maturanoc","asciiname":"Maturanoc","alternatenames":["Maturanoc"],"latitude":"15.6571","longitude":"120.7921","feature_class":"P","feature_code":"PPL","country_code":"PH","cc2":"","admin1_code":"03","admin2_code":"47","admin3_code":"","admin4_code":"","population":"4912","elevation":"","dem":"40","timezone":"Asia/Manila","modification_date":"2012-01-17"},{"geonameid":"1700379","name":"Matayumtayum","asciiname":"Matayumtayum","alternatenames":["Matayumtayum"],"latitude":"15.5166","longitude":"120.7098","feature_class":"P","feature_code":"PPL","country_code":"PH","cc2":"","admin1_code":"03","admin2_code":"63","admin3_code":"","admin4_code":"","population":"2730","elevation":"","dem":"25","timezone":"Asia/Manila","modification_date":"2012-01-17"},{"geonameid":"1700665","name":"Masinloc","asciiname":"Masinloc","alternatenames":["Masinloc"],"latitude":"15.5363","longitude":"119.9502","feature_class":"P","feature_code":"PPLA3","country_code":"PH","cc2":"","admin1_code":"03","admin2_code":"64","admin3_code":"1700667","admin4_code":"","population":"28041","elevation":"","dem":"13","timezone":"Asia/Manila","modification_date":"2011-07-31"},{"geonameid":"1700753","name":"Masantol","asciiname":"Masantol","alternatenames":["Masantol"],"latitude":"14.896","longitude":"120.7092","feature_class":"P","feature_code":"PPLA3","country_code":"PH","cc2":"","admin1_code":"03","admin2_code":"50","admin3_code":"1700754","admin4_code":"","population":"41278","elevation":"","dem":"5","timezone":"Asia/Manila","modification_date":"2011-07-31"},{"geonameid":"1700774","name":"Masalipit","asciiname":"Masalipit","alternatenames":["Mansalipit","Masalipit"],"latitude":"15.1481","longitude":"121.0373","feature_class":"P","feature_code":"PPL","country_code":"PH","cc2":"","admin1_code":"03","admin2_code":"13","admin3_code":"","admin4_code":"","population":"2532","elevation":"","dem":"42","timezone":"Asia/Manila","modification_date":"2012-01-17"},{"geonameid":"1700868","name":"Mariveles","asciiname":"Mariveles","alternatenames":["Mariveles"],"latitude":"14.43385","longitude":"120.48569","feature_class":"P","feature_code":"PPLA3","country_code":"PH","cc2":"","admin1_code":"03","admin2_code":"07","admin3_code":"1700869","admin4_code":"","population":"84567","elevation":"","dem":"9","timezone":"Asia/Manila","modification_date":"2014-11-25"},{"geonameid":"1700917","name":"Marilao","asciiname":"Marilao","alternatenames":["Marilao","Марилао"],"latitude":"14.75778","longitude":"120.94833","feature_class":"P","feature_code":"PPLA3","country_code":"PH","cc2":"","admin1_code":"03","admin2_code":"13","admin3_code":"1700919","admin4_code":"","population":"83276","elevation":"","dem":"9","timezone":"Asia/Manila","modification_date":"2011-07-31"},{"geonameid":"1700994","name":"Maria Aurora","asciiname":"Maria Aurora","alternatenames":["Maria Aurora","San Jose"],"latitude":"15.7967","longitude":"121.4737","feature_class":"P","feature_code":"PPLA3","country_code":"PH","cc2":"","admin1_code":"03","admin2_code":"G8","admin3_code":"1700995","admin4_code":"","population":"6807","elevation":"","dem":"37","timezone":"Asia/Manila","modification_date":"2011-07-31"},{"geonameid":"1701056","name":"Marawa","asciiname":"Marawa","alternatenames":["Marawa"],"latitude":"15.41727","longitude":"120.83819","feature_class":"P","feature_code":"PPL","country_code":"PH","cc2":"","admin1_code":"03","admin2_code":"47","admin3_code":"","admin4_code":"","population":"3812","elevation":"","dem":"24","timezone":"Asia/Manila","modification_date":"2012-12-05"},{"geonameid":"1701200","name":"Maquiapo","asciiname":"Maquiapo","alternatenames":["Maquiapo"],"latitude":"14.98561","longitude":"120.55855","feature_class":"P","feature_code":"PPL","country_code":"PH","cc2":"","admin1_code":"03","admin2_code":"50","admin3_code":"","admin4_code":"","population":"2307","elevation":"","dem":"22","timezone":"Asia/Manila","modification_date":"2012-12-05"},{"geonameid":"1701281","name":"Mapaniqui","asciiname":"Mapaniqui","alternatenames":["Mapaniqui"],"latitude":"15.10696","longitude":"120.92287","feature_class":"P","feature_code":"PPL","country_code":"PH","cc2":"","admin1_code":"03","admin2_code":"50","admin3_code":"","admin4_code":"","population":"4200","elevation":"","dem":"13","timezone":"Asia/Manila","modification_date":"2013-02-08"},{"geonameid":"1701313","name":"Mapalad","asciiname":"Mapalad","alternatenames":["Mapalad"],"latitude":"15.45133","longitude":"121.08384","feature_class":"P","feature_code":"PPL","country_code":"PH","cc2":"","admin1_code":"03","admin2_code":"47","admin3_code":"","admin4_code":"","population":"3353","elevation":"","dem":"91","timezone":"Asia/Manila","modification_date":"2013-02-08"},{"geonameid":"1701314","name":"Mapalacsiao","asciiname":"Mapalacsiao","alternatenames":["Mapalacsiao","Mapaloxia"],"latitude":"15.42831","longitude":"120.65252","feature_class":"P","feature_code":"PPL","country_code":"PH","cc2":"","admin1_code":"03","admin2_code":"63","admin3_code":"","admin4_code":"","population":"5419","elevation":"","dem":"40","timezone":"Asia/Manila","modification_date":"2013-01-10"},{"geonameid":"1701692","name":"Manibaug Pasig","asciiname":"Manibaug Pasig","alternatenames":["Manibaug","Manibaug Pasig"],"latitude":"15.09621","longitude":"120.56445","feature_class":"P","feature_code":"PPL","country_code":"PH","cc2":"","admin1_code":"03","admin2_code":"50","admin3_code":"","admin4_code":"","population":"24618","elevation":"","dem":"91","timezone":"Asia/Manila","modification_date":"2013-01-10"},{"geonameid":"1701899","name":"Mangga","asciiname":"Mangga","alternatenames":["Manga","Mangga"],"latitude":"15.25041","longitude":"120.90876","feature_class":"P","feature_code":"PPL","country_code":"PH","cc2":"","admin1_code":"03","admin2_code":"47","admin3_code":"","admin4_code":"","population":"2247","elevation":"","dem":"14","timezone":"Asia/Manila","modification_date":"2012-12-05"},{"geonameid":"1701938","name":"Mandili","asciiname":"Mandili","alternatenames":["Mandili"],"latitude":"15.17912","longitude":"120.87726","feature_class":"P","feature_code":"PPL","country_code":"PH","cc2":"","admin1_code":"03","admin2_code":"50","admin3_code":"","admin4_code":"","population":"4532","elevation":"","dem":"10","timezone":"Asia/Manila","modification_date":"2013-02-08"},{"geonameid":"1702051","name":"Manatal","asciiname":"Manatal","alternatenames":["Manatal"],"latitude":"14.87688","longitude":"120.91639","feature_class":"P","feature_code":"PPL","country_code":"PH","cc2":"","admin1_code":"03","admin2_code":"13","admin3_code":"","admin4_code":"","population":"2290","elevation":"","dem":"12","timezone":"Asia/Manila","modification_date":"2012-07-04"},{"geonameid":"1702165","name":"Manogpi","asciiname":"Manogpi","alternatenames":["Managpi","Manogpi"],"latitude":"13.3108","longitude":"121.204","feature_class":"P","feature_code":"PPL","country_code":"PH","cc2":"","admin1_code":"03","admin2_code":"13","admin3_code":"","admin4_code":"","population":"2683","elevation":"","dem":"15","timezone":"Asia/Manila","modification_date":"2012-01-17"},{"geonameid":"1702183","name":"Manacsac","asciiname":"Manacsac","alternatenames":["Manacsac"],"latitude":"15.5952","longitude":"120.7911","feature_class":"P","feature_code":"PPL","country_code":"PH","cc2":"","admin1_code":"03","admin2_code":"47","admin3_code":"","admin4_code":"","population":"2313","elevation":"","dem":"37","timezone":"Asia/Manila","modification_date":"2012-01-17"},{"geonameid":"1702215","name":"Mamonit","asciiname":"Mamonit","alternatenames":["Mamonit","Mamunit"],"latitude":"15.58719","longitude":"120.39644","feature_class":"P","feature_code":"PPL","country_code":"PH","cc2":"","admin1_code":"03","admin2_code":"63","admin3_code":"","admin4_code":"","population":"2178","elevation":"","dem":"88","timezone":"Asia/Manila","modification_date":"2013-01-10"},{"geonameid":"1702298","name":"Mambog","asciiname":"Mambog","alternatenames":["Mambag-Buen","Mambog"],"latitude":"15.3137","longitude":"120.0304","feature_class":"P","feature_code":"PPL","country_code":"PH","cc2":"","admin1_code":"03","admin2_code":"64","admin3_code":"","admin4_code":"","population":"3726","elevation":"","dem":"17","timezone":"Asia/Manila","modification_date":"2012-01-17"},{"geonameid":"1702431","name":"Malusac","asciiname":"Malusac","alternatenames":["Malusac","Malusak"],"latitude":"14.85842","longitude":"120.6212","feature_class":"P","feature_code":"PPL","country_code":"PH","cc2":"","admin1_code":"03","admin2_code":"50","admin3_code":"","admin4_code":"","population":"2162","elevation":"","dem":"7","timezone":"Asia/Manila","modification_date":"2012-12-05"},{"geonameid":"1702459","name":"Maluid","asciiname":"Maluid","alternatenames":["Maluid"],"latitude":"15.5493","longitude":"120.6528","feature_class":"P","feature_code":"PPL","country_code":"PH","cc2":"","admin1_code":"03","admin2_code":"63","admin3_code":"","admin4_code":"","population":"2726","elevation":"","dem":"34","timezone":"Asia/Manila","modification_date":"2012-01-17"},{"geonameid":"1702539","name":"Maloma","asciiname":"Maloma","alternatenames":["Maloma"],"latitude":"15.1135","longitude":"120.0639","feature_class":"P","feature_code":"PPL","country_code":"PH","cc2":"","admin1_code":"03","admin2_code":"64","admin3_code":"","admin4_code":"","population":"4430","elevation":"","dem":"14","timezone":"Asia/Manila","modification_date":"2012-01-17"},{"geonameid":"1702540","name":"Malolos","asciiname":"Malolos","alternatenames":["Dakbayan sa Malolos","Lungsod ng Malolos","Malalos","Malolas","Malolos","Malolos City","Malolos Lakanbalen","Syudad nin Malolos","mallolloseu","Малолос","말롤로스"],"latitude":"14.8443","longitude":"120.81039","feature_class":"P","feature_code":"PPLA2","country_code":"PH","cc2":"","admin1_code":"03","admin2_code":"13","admin3_code":"","admin4_code":"","population":"198748","elevation":"","dem":"9","timezone":"Asia/Manila","modification_date":"2012-07-04"},{"geonameid":"1702796","name":"Maligaya","asciiname":"Maligaya","alternatenames":["Maligaya"],"latitude":"15.6747","longitude":"120.8887","feature_class":"P","feature_code":"PPL","country_code":"PH","cc2":"","admin1_code":"03","admin2_code":"47","admin3_code":"","admin4_code":"","population":"4275","elevation":"","dem":"60","timezone":"Asia/Manila","modification_date":"2012-07-04"},{"geonameid":"1703289","name":"Malacampa","asciiname":"Malacampa","alternatenames":["Malacampa"],"latitude":"15.64335","longitude":"120.41109","feature_class":"P","feature_code":"PPL","country_code":"PH","cc2":"","admin1_code":"03","admin2_code":"63","admin3_code":"","admin4_code":"","population":"4537","elevation":"","dem":"35","timezone":"Asia/Manila","modification_date":"2013-01-10"},{"geonameid":"1703319","name":"Malabon","asciiname":"Malabon","alternatenames":["Malabon"],"latitude":"15.6361","longitude":"119.9379","feature_class":"P","feature_code":"PPL","country_code":"PH","cc2":"","admin1_code":"03","admin2_code":"64","admin3_code":"","admin4_code":"","population":"2640","elevation":"","dem":"9","timezone":"Asia/Manila","modification_date":"2012-01-17"},{"geonameid":"1703702","name":"Maguinao","asciiname":"Maguinao","alternatenames":["Maguinao"],"latitude":"15.02231","longitude":"120.93409","feature_class":"P","feature_code":"PPL","country_code":"PH","cc2":"","admin1_code":"03","admin2_code":"13","admin3_code":"","admin4_code":"","population":"2978","elevation":"","dem":"23","timezone":"Asia/Manila","modification_date":"2013-02-08"},{"geonameid":"1703733","name":"Magtangol","asciiname":"Magtangol","alternatenames":["Magtanggol","Magtangol"],"latitude":"15.758","longitude":"120.9156","feature_class":"P","feature_code":"PPL","country_code":"PH","cc2":"","admin1_code":"03","admin2_code":"47","admin3_code":"","admin4_code":"","population":"2204","elevation":"","dem":"78","timezone":"Asia/Manila","modification_date":"2012-07-04"},{"geonameid":"1704067","name":"Magalang","asciiname":"Magalang","alternatenames":["Magalan","Magalang"],"latitude":"15.2151","longitude":"120.6596","feature_class":"P","feature_code":"PPLA3","country_code":"PH","cc2":"","admin1_code":"03","admin2_code":"50","admin3_code":"1704068","admin4_code":"","population":"68988","elevation":"","dem":"46","timezone":"Asia/Manila","modification_date":"2011-07-31"},{"geonameid":"1704321","name":"Macatbong","asciiname":"Macatbong","alternatenames":["Macatbong","Macatbung"],"latitude":"15.5048","longitude":"121.0791","feature_class":"P","feature_code":"PPL","country_code":"PH","cc2":"","admin1_code":"03","admin2_code":"47","admin3_code":"","admin4_code":"","population":"2727","elevation":"","dem":"69","timezone":"Asia/Manila","modification_date":"2012-06-05"},{"geonameid":"1704335","name":"Macarse","asciiname":"Macarse","alternatenames":["Macarse"],"latitude":"15.42495","longitude":"120.77476","feature_class":"P","feature_code":"PPL","country_code":"PH","cc2":"","admin1_code":"03","admin2_code":"47","admin3_code":"","admin4_code":"","population":"2311","elevation":"","dem":"24","timezone":"Asia/Manila","modification_date":"2012-12-05"},{"geonameid":"1704357","name":"Macapsing","asciiname":"Macapsing","alternatenames":["Macapsing"],"latitude":"15.6783","longitude":"121.1319","feature_class":"P","feature_code":"PPL","country_code":"PH","cc2":"","admin1_code":"03","admin2_code":"47","admin3_code":"","admin4_code":"","population":"2282","elevation":"","dem":"78","timezone":"Asia/Manila","modification_date":"2012-01-17"},{"geonameid":"1704449","name":"Macabebe","asciiname":"Macabebe","alternatenames":["Macabebe"],"latitude":"14.9089","longitude":"120.7155","feature_class":"P","feature_code":"PPLA3","country_code":"PH","cc2":"","admin1_code":"03","admin2_code":"50","admin3_code":"1704450","admin4_code":"","population":"0","elevation":"","dem":"8","timezone":"Asia/Manila","modification_date":"2011-07-31"},{"geonameid":"1704552","name":"Mabini","asciiname":"Mabini","alternatenames":[""],"latitude":"15.6","longitude":"120.98333","feature_class":"P","feature_code":"PPL","country_code":"PH","cc2":"","admin1_code":"03","admin2_code":"47","admin3_code":"","admin4_code":"","population":"7810","elevation":"","dem":"48","timezone":"Asia/Manila","modification_date":"2010-08-14"},{"geonameid":"1704611","name":"Mabilog","asciiname":"Mabilog","alternatenames":["Mabilog"],"latitude":"15.39485","longitude":"120.66573","feature_class":"P","feature_code":"PPL","country_code":"PH","cc2":"","admin1_code":"03","admin2_code":"63","admin3_code":"","admin4_code":"","population":"2581","elevation":"","dem":"37","timezone":"Asia/Manila","modification_date":"2012-01-17"},{"geonameid":"1704623","name":"Mabilang","asciiname":"Mabilang","alternatenames":["Mabilang"],"latitude":"15.67511","longitude":"120.48835","feature_class":"P","feature_code":"PPL","country_code":"PH","cc2":"","admin1_code":"03","admin2_code":"63","admin3_code":"","admin4_code":"","population":"2229","elevation":"","dem":"27","timezone":"Asia/Manila","modification_date":"2013-01-10"},{"geonameid":"1704638","name":"Mabayo","asciiname":"Mabayo","alternatenames":["Mabage","Mabayo","Maybayo"],"latitude":"14.7318","longitude":"120.2781","feature_class":"P","feature_code":"PPL","country_code":"PH","cc2":"","admin1_code":"03","admin2_code":"07","admin3_code":"","admin4_code":"","population":"2843","elevation":"","dem":"10","timezone":"Asia/Manila","modification_date":"2012-01-17"},{"geonameid":"1704703","name":"Mabalacat City","asciiname":"Mabalacat City","alternatenames":["CRK","Mabalacat"],"latitude":"15.22303","longitude":"120.57117","feature_class":"P","feature_code":"PPLA3","country_code":"PH","cc2":"","admin1_code":"03","admin2_code":"50","admin3_code":"1704704","admin4_code":"","population":"188050","elevation":"","dem":"109","timezone":"Asia/Manila","modification_date":"2014-11-16"},{"geonameid":"1704725","name":"Mababanaba","asciiname":"Mababanaba","alternatenames":["Mababanaba"],"latitude":"15.49715","longitude":"120.46053","feature_class":"P","feature_code":"PPL","country_code":"PH","cc2":"","admin1_code":"03","admin2_code":"63","admin3_code":"","admin4_code":"","population":"3733","elevation":"","dem":"158","timezone":"Asia/Manila","modification_date":"2012-01-17"},{"geonameid":"1704770","name":"Maasim","asciiname":"Maasim","alternatenames":["Maasim","Maasin"],"latitude":"14.99551","longitude":"121.03082","feature_class":"P","feature_code":"PPL","country_code":"PH","cc2":"","admin1_code":"03","admin2_code":"13","admin3_code":"","admin4_code":"","population":"3577","elevation":"","dem":"67","timezone":"Asia/Manila","modification_date":"2013-02-08"},{"geonameid":"1704994","name":"Lupao","asciiname":"Lupao","alternatenames":["Lupao"],"latitude":"15.8793","longitude":"120.8983","feature_class":"P","feature_code":"PPLA3","country_code":"PH","cc2":"","admin1_code":"03","admin2_code":"47","admin3_code":"1704995","admin4_code":"","population":"11000","elevation":"","dem":"146","timezone":"Asia/Manila","modification_date":"2011-07-31"},{"geonameid":"1705376","name":"Lucapon","asciiname":"Lucapon","alternatenames":["Lacapon","Locapon","Lucapon"],"latitude":"15.6998","longitude":"119.932","feature_class":"P","feature_code":"PPL","country_code":"PH","cc2":"","admin1_code":"03","admin2_code":"64","admin3_code":"","admin4_code":"","population":"5767","elevation":"","dem":"9","timezone":"Asia/Manila","modification_date":"2012-01-17"},{"geonameid":"1705440","name":"Lubao","asciiname":"Lubao","alternatenames":["Lubao"],"latitude":"14.9405","longitude":"120.6011","feature_class":"P","feature_code":"PPLA3","country_code":"PH","cc2":"","admin1_code":"03","admin2_code":"50","admin3_code":"1705441","admin4_code":"","population":"55645","elevation":"","dem":"11","timezone":"Asia/Manila","modification_date":"2011-07-31"},{"geonameid":"1705503","name":"Lourdes","asciiname":"Lourdes","alternatenames":["Lourdes"],"latitude":"15.0193","longitude":"120.8511","feature_class":"P","feature_code":"PPL","country_code":"PH","cc2":"","admin1_code":"03","admin2_code":"50","admin3_code":"","admin4_code":"","population":"2370","elevation":"","dem":"15","timezone":"Asia/Manila","modification_date":"2012-01-17"},{"geonameid":"1705750","name":"Lomboy","asciiname":"Lomboy","alternatenames":["Lomboy"],"latitude":"15.49255","longitude":"120.71723","feature_class":"P","feature_code":"PPL","country_code":"PH","cc2":"","admin1_code":"03","admin2_code":"63","admin3_code":"","admin4_code":"","population":"3282","elevation":"","dem":"25","timezone":"Asia/Manila","modification_date":"2012-01-17"},{"geonameid":"1705771","name":"Loma de Gato","asciiname":"Loma de Gato","alternatenames":["Loma de Gato"],"latitude":"14.78869","longitude":"120.99889","feature_class":"P","feature_code":"PPL","country_code":"PH","cc2":"","admin1_code":"03","admin2_code":"13","admin3_code":"","admin4_code":"","population":"21990","elevation":"","dem":"47","timezone":"Asia/Manila","modification_date":"2012-07-04"},{"geonameid":"1705922","name":"Llanera","asciiname":"Llanera","alternatenames":["Llanera"],"latitude":"15.6635","longitude":"121.0182","feature_class":"P","feature_code":"PPLA3","country_code":"PH","cc2":"","admin1_code":"03","admin2_code":"47","admin3_code":"1705923","admin4_code":"","population":"5121","elevation":"","dem":"70","timezone":"Asia/Manila","modification_date":"2011-07-31"},{"geonameid":"1706044","name":"Lipay","asciiname":"Lipay","alternatenames":["Lipay"],"latitude":"15.4561","longitude":"119.9208","feature_class":"P","feature_code":"PPL","country_code":"PH","cc2":"","admin1_code":"03","admin2_code":"64","admin3_code":"","admin4_code":"","population":"2717","elevation":"","dem":"12","timezone":"Asia/Manila","modification_date":"2012-01-17"},{"geonameid":"1706093","name":"Liozon","asciiname":"Liozon","alternatenames":["Lioson","Liozon"],"latitude":"15.3993","longitude":"119.933","feature_class":"P","feature_code":"PPL","country_code":"PH","cc2":"","admin1_code":"03","admin2_code":"64","admin3_code":"","admin4_code":"","population":"3245","elevation":"","dem":"11","timezone":"Asia/Manila","modification_date":"2012-01-17"},{"geonameid":"1706361","name":"Limay","asciiname":"Limay","alternatenames":["Limay"],"latitude":"14.56194","longitude":"120.59833","feature_class":"P","feature_code":"PPLA3","country_code":"PH","cc2":"","admin1_code":"03","admin2_code":"07","admin3_code":"1706362","admin4_code":"","population":"52824","elevation":"","dem":"7","timezone":"Asia/Manila","modification_date":"2011-07-31"},{"geonameid":"1706467","name":"Ligaya","asciiname":"Ligaya","alternatenames":["Ligaya"],"latitude":"15.5091","longitude":"121.2872","feature_class":"P","feature_code":"PPL","country_code":"PH","cc2":"","admin1_code":"03","admin2_code":"47","admin3_code":"","admin4_code":"","population":"5299","elevation":"","dem":"113","timezone":"Asia/Manila","modification_date":"2012-01-17"},{"geonameid":"1706526","name":"Liciada","asciiname":"Liciada","alternatenames":["Lachada","Liciada","Lisiada"],"latitude":"14.91484","longitude":"120.93182","feature_class":"P","feature_code":"PPL","country_code":"PH","cc2":"","admin1_code":"03","admin2_code":"13","admin3_code":"","admin4_code":"","population":"3982","elevation":"","dem":"27","timezone":"Asia/Manila","modification_date":"2012-07-04"},{"geonameid":"1706532","name":"Licab","asciiname":"Licab","alternatenames":["Licab"],"latitude":"15.5439","longitude":"120.7634","feature_class":"P","feature_code":"PPLA3","country_code":"PH","cc2":"","admin1_code":"03","admin2_code":"47","admin3_code":"1706533","admin4_code":"","population":"6783","elevation":"","dem":"28","timezone":"Asia/Manila","modification_date":"2011-07-31"},{"geonameid":"1706852","name":"Lennec","asciiname":"Lennec","alternatenames":["Lenec","Lennec"],"latitude":"15.6835","longitude":"120.7338","feature_class":"P","feature_code":"PPL","country_code":"PH","cc2":"","admin1_code":"03","admin2_code":"47","admin3_code":"","admin4_code":"","population":"3142","elevation":"","dem":"37","timezone":"Asia/Manila","modification_date":"2012-01-17"},{"geonameid":"1707003","name":"Lawang Kupang","asciiname":"Lawang Kupang","alternatenames":["Lauang Cupang","Lawan Kupana","Lawang Kupang"],"latitude":"15.34807","longitude":"120.85752","feature_class":"P","feature_code":"PPL","country_code":"PH","cc2":"","admin1_code":"03","admin2_code":"47","admin3_code":"","admin4_code":"","population":"2616","elevation":"","dem":"22","timezone":"Asia/Manila","modification_date":"2012-12-05"},{"geonameid":"1707049","name":"Laur","asciiname":"Laur","alternatenames":["Laur","San Estaban"],"latitude":"15.5865","longitude":"121.1834","feature_class":"P","feature_code":"PPLA3","country_code":"PH","cc2":"","admin1_code":"03","admin2_code":"47","admin3_code":"1707050","admin4_code":"","population":"19206","elevation":"","dem":"73","timezone":"Asia/Manila","modification_date":"2011-07-31"},{"geonameid":"1707324","name":"La Paz","asciiname":"La Paz","alternatenames":["La Paz","La-Pas","Ла-Пас"],"latitude":"15.44125","longitude":"120.72863","feature_class":"P","feature_code":"PPLA3","country_code":"PH","cc2":"","admin1_code":"03","admin2_code":"63","admin3_code":"1707346","admin4_code":"","population":"25801","elevation":"","dem":"22","timezone":"Asia/Manila","modification_date":"2011-07-31"},{"geonameid":"1707659","name":"Lanat","asciiname":"Lanat","alternatenames":["Lanat"],"latitude":"15.79189","longitude":"120.60461","feature_class":"P","feature_code":"PPL","country_code":"PH","cc2":"","admin1_code":"03","admin2_code":"63","admin3_code":"","admin4_code":"","population":"2178","elevation":"","dem":"29","timezone":"Asia/Manila","modification_date":"2012-08-04"},{"geonameid":"1707826","name":"Lambakin","asciiname":"Lambakin","alternatenames":["Lambakin"],"latitude":"15.37171","longitude":"120.8607","feature_class":"P","feature_code":"PPL","country_code":"PH","cc2":"","admin1_code":"03","admin2_code":"47","admin3_code":"","admin4_code":"","population":"2995","elevation":"","dem":"24","timezone":"Asia/Manila","modification_date":"2012-12-05"},{"geonameid":"1710389","name":"Jaen","asciiname":"Jaen","alternatenames":["Jaen","Khaehn","Хаэн"],"latitude":"15.3275","longitude":"120.9192","feature_class":"P","feature_code":"PPLA3","country_code":"PH","cc2":"","admin1_code":"03","admin2_code":"47","admin3_code":"1710390","admin4_code":"","population":"39700","elevation":"","dem":"25","timezone":"Asia/Manila","modification_date":"2011-07-31"},{"geonameid":"1711436","name":"Iba","asciiname":"Iba","alternatenames":["Iba"],"latitude":"15.45392","longitude":"120.41048","feature_class":"P","feature_code":"PPL","country_code":"PH","cc2":"","admin1_code":"03","admin2_code":"63","admin3_code":"","admin4_code":"","population":"4574","elevation":"","dem":"109","timezone":"Asia/Manila","modification_date":"2013-02-08"},{"geonameid":"1711829","name":"Hermosa","asciiname":"Hermosa","alternatenames":["Ehrmosa","Hermosa","Эрмоса"],"latitude":"14.8314","longitude":"120.5081","feature_class":"P","feature_code":"PPLA3","country_code":"PH","cc2":"","admin1_code":"03","admin2_code":"07","admin3_code":"1711830","admin4_code":"","population":"33714","elevation":"","dem":"12","timezone":"Asia/Manila","modification_date":"2011-07-31"},{"geonameid":"1711982","name":"Hagonoy","asciiname":"Hagonoy","alternatenames":["Hagonoy","Hagony","Hagunoy"],"latitude":"14.83413","longitude":"120.73271","feature_class":"P","feature_code":"PPL","country_code":"PH","cc2":"","admin1_code":"03","admin2_code":"13","admin3_code":"","admin4_code":"","population":"123531","elevation":"","dem":"6","timezone":"Asia/Manila","modification_date":"2012-12-05"},{"geonameid":"1712027","name":"Dolores","asciiname":"Dolores","alternatenames":["Dolores","Hacienda Dolores"],"latitude":"15.09498","longitude":"120.52889","feature_class":"P","feature_code":"PPL","country_code":"PH","cc2":"","admin1_code":"03","admin2_code":"50","admin3_code":"","admin4_code":"","population":"4522","elevation":"","dem":"134","timezone":"Asia/Manila","modification_date":"2013-01-10"},{"geonameid":"1712051","name":"Guyong","asciiname":"Guyong","alternatenames":["Guyong"],"latitude":"14.8361","longitude":"120.97844","feature_class":"P","feature_code":"PPL","country_code":"PH","cc2":"","admin1_code":"03","admin2_code":"13","admin3_code":"","admin4_code":"","population":"155391","elevation":"","dem":"42","timezone":"Asia/Manila","modification_date":"2014-02-07"},{"geonameid":"1712072","name":"Gutad","asciiname":"Gutad","alternatenames":["Gutad"],"latitude":"14.9274","longitude":"120.4894","feature_class":"P","feature_code":"PPL","country_code":"PH","cc2":"","admin1_code":"03","admin2_code":"50","admin3_code":"","admin4_code":"","population":"2623","elevation":"","dem":"23","timezone":"Asia/Manila","modification_date":"2012-01-17"},{"geonameid":"1712227","name":"Guisguis","asciiname":"Guisguis","alternatenames":["Guisguis"],"latitude":"15.7928","longitude":"119.9766","feature_class":"P","feature_code":"PPL","country_code":"PH","cc2":"","admin1_code":"03","admin2_code":"64","admin3_code":"","admin4_code":"","population":"3128","elevation":"","dem":"19","timezone":"Asia/Manila","modification_date":"2012-01-17"},{"geonameid":"1712488","name":"Guimba","asciiname":"Guimba","alternatenames":["Guimba"],"latitude":"15.6605","longitude":"120.7683","feature_class":"P","feature_code":"PPLA3","country_code":"PH","cc2":"","admin1_code":"03","admin2_code":"47","admin3_code":"1712491","admin4_code":"","population":"32306","elevation":"","dem":"38","timezone":"Asia/Manila","modification_date":"2011-07-31"},{"geonameid":"1712531","name":"Guiguinto","asciiname":"Guiguinto","alternatenames":["Guiguinto"],"latitude":"14.83333","longitude":"120.88333","feature_class":"P","feature_code":"PPLA3","country_code":"PH","cc2":"","admin1_code":"03","admin2_code":"13","admin3_code":"1712532","admin4_code":"","population":"76613","elevation":"","dem":"10","timezone":"Asia/Manila","modification_date":"2011-07-31"},{"geonameid":"1712576","name":"Gueset","asciiname":"Gueset","alternatenames":["Gueset"],"latitude":"15.95","longitude":"120.63333","feature_class":"P","feature_code":"PPL","country_code":"PH","cc2":"","admin1_code":"03","admin2_code":"47","admin3_code":"","admin4_code":"","population":"2067","elevation":"","dem":"36","timezone":"Asia/Manila","modification_date":"2012-02-01"},{"geonameid":"1712627","name":"Guagua","asciiname":"Guagua","alternatenames":["Guagua"],"latitude":"14.9653","longitude":"120.6325","feature_class":"P","feature_code":"PPLA3","country_code":"PH","cc2":"","admin1_code":"03","admin2_code":"50","admin3_code":"1712628","admin4_code":"","population":"9519","elevation":"","dem":"8","timezone":"Asia/Manila","modification_date":"2011-07-31"},{"geonameid":"1713004","name":"Gerona","asciiname":"Gerona","alternatenames":["Gerona","Zherona","Жерона"],"latitude":"15.6065","longitude":"120.5978","feature_class":"P","feature_code":"PPLA3","country_code":"PH","cc2":"","admin1_code":"03","admin2_code":"63","admin3_code":"1713005","admin4_code":"","population":"40914","elevation":"","dem":"32","timezone":"Asia/Manila","modification_date":"2011-07-31"},{"geonameid":"1713018","name":"General Tinio","asciiname":"General Tinio","alternatenames":["General Tinio","Papaya"],"latitude":"15.35075","longitude":"121.04773","feature_class":"P","feature_code":"PPLA3","country_code":"PH","cc2":"","admin1_code":"03","admin2_code":"47","admin3_code":"1713019","admin4_code":"","population":"32875","elevation":"","dem":"55","timezone":"Asia/Manila","modification_date":"2011-07-31"},{"geonameid":"1713027","name":"General Mamerto Natividad","asciiname":"General Mamerto Natividad","alternatenames":["General Mamerto Natividad","General Natividad","Natividad"],"latitude":"15.6025","longitude":"121.0515","feature_class":"P","feature_code":"PPL","country_code":"PH","cc2":"","admin1_code":"03","admin2_code":"47","admin3_code":"","admin4_code":"","population":"18393","elevation":"","dem":"60","timezone":"Asia/Manila","modification_date":"2013-02-08"},{"geonameid":"1713033","name":"General Luna","asciiname":"General Luna","alternatenames":["General Luna"],"latitude":"15.7306","longitude":"121.1791","feature_class":"P","feature_code":"PPL","country_code":"PH","cc2":"","admin1_code":"03","admin2_code":"47","admin3_code":"","admin4_code":"","population":"2774","elevation":"","dem":"185","timezone":"Asia/Manila","modification_date":"2012-01-17"},{"geonameid":"1713226","name":"Gapan","asciiname":"Gapan","alternatenames":["Capan","Gapan"],"latitude":"15.3072","longitude":"120.9464","feature_class":"P","feature_code":"PPLA3","country_code":"PH","cc2":"","admin1_code":"03","admin2_code":"47","admin3_code":"1713227","admin4_code":"","population":"79064","elevation":"","dem":"24","timezone":"Asia/Manila","modification_date":"2011-08-23"},{"geonameid":"1713498","name":"Gabaldon","asciiname":"Gabaldon","alternatenames":["Gabaldon"],"latitude":"15.4522","longitude":"121.3387","feature_class":"P","feature_code":"PPLA3","country_code":"PH","cc2":"","admin1_code":"03","admin2_code":"47","admin3_code":"1713499","admin4_code":"","population":"7259","elevation":"","dem":"137","timezone":"Asia/Manila","modification_date":"2011-07-31"},{"geonameid":"1713601","name":"Floridablanca","asciiname":"Floridablanca","alternatenames":["Floridablanca"],"latitude":"14.9775","longitude":"120.5285","feature_class":"P","feature_code":"PPLA3","country_code":"PH","cc2":"","admin1_code":"03","admin2_code":"50","admin3_code":"1713602","admin4_code":"","population":"0","elevation":"","dem":"25","timezone":"Asia/Manila","modification_date":"2011-07-31"},{"geonameid":"1713714","name":"Estrella","asciiname":"Estrella","alternatenames":["Estrella"],"latitude":"15.75","longitude":"121.03333","feature_class":"P","feature_code":"PPL","country_code":"PH","cc2":"","admin1_code":"03","admin2_code":"47","admin3_code":"","admin4_code":"","population":"4463","elevation":"","dem":"101","timezone":"Asia/Manila","modification_date":"2012-02-01"},{"geonameid":"1713719","name":"Estipona","asciiname":"Estipona","alternatenames":["Estipona"],"latitude":"15.5902","longitude":"120.6377","feature_class":"P","feature_code":"PPL","country_code":"PH","cc2":"","admin1_code":"03","admin2_code":"63","admin3_code":"","admin4_code":"","population":"4351","elevation":"","dem":"30","timezone":"Asia/Manila","modification_date":"2012-01-17"},{"geonameid":"1713745","name":"Estacion","asciiname":"Estacion","alternatenames":[""],"latitude":"15.69944","longitude":"120.60833","feature_class":"P","feature_code":"PPL","country_code":"PH","cc2":"","admin1_code":"03","admin2_code":"63","admin3_code":"","admin4_code":"","population":"4478","elevation":"","dem":"23","timezone":"Asia/Manila","modification_date":"2010-08-14"},