{"region_data":{"adminCode1":"41","lng":"119.81465","geonameId":7521296,"toponymName":"Mimaropa","countryId":"1694008","fcl":"A","population":2559791,"numberOfChildren":6,"countryCode":"PH","name":"Mimaropa","fclName":"country, state, region,...","countryName":"Philippines","fcodeName":"first-order administrative division","adminName1":"Mimaropa","lat":"10.4312","fcode":"ADM1"},"country_data":{"ISO":"PH","ISO3":"PHL","ISO_Numeric":"608","fips":"RP","country":"Philippines","capital":"Manila","area":"300000","Population":"99900177","Continent":"AS","tld":".ph","CurrencyCode":"PHP","CurrencyName":"Peso","Phone":"63","Postal_Code_Format":"####","Postal_Code_Regex":"^(\\d{4})$","Languages":"tl,en-PH,fil","geonameid":"1694008","neighbours":"","EquivalentFipsCode":""},"cities":[{"geonameid":"1682606","name":"Taytay","asciiname":"Taytay","alternatenames":["Taytay"],"latitude":"10.81788","longitude":"119.49851","feature_class":"P","feature_code":"PPLA3","country_code":"PH","cc2":"","admin1_code":"41","admin2_code":"49","admin3_code":"1682616","admin4_code":"","population":"7717","elevation":"","dem":"22","timezone":"Asia/Manila","modification_date":"2014-09-20"},{"geonameid":"1682649","name":"Tayaman","asciiname":"Tayaman","alternatenames":["Tayaman"],"latitude":"13.2295","longitude":"120.5726","feature_class":"P","feature_code":"PPL","country_code":"PH","cc2":"","admin1_code":"41","admin2_code":"40","admin3_code":"","admin4_code":"","population":"5050","elevation":"","dem":"9","timezone":"Asia/Manila","modification_date":"2012-01-17"},{"geonameid":"1682775","name":"Tarusan","asciiname":"Tarusan","alternatenames":["Tarusan"],"latitude":"8.65461","longitude":"117.5104","feature_class":"P","feature_code":"PPL","country_code":"PH","cc2":"","admin1_code":"41","admin2_code":"49","admin3_code":"","admin4_code":"","population":"3107","elevation":"","dem":"23","timezone":"Asia/Manila","modification_date":"2012-02-01"},{"geonameid":"1683231","name":"Tangal","asciiname":"Tangal","alternatenames":["Tangal","Tangol"],"latitude":"13.84536","longitude":"120.10082","feature_class":"P","feature_code":"PPL","country_code":"PH","cc2":"","admin1_code":"41","admin2_code":"40","admin3_code":"","admin4_code":"","population":"3337","elevation":"","dem":"12","timezone":"Asia/Manila","modification_date":"2012-01-17"},{"geonameid":"1683418","name":"Tampayan","asciiname":"Tampayan","alternatenames":["Tampayan"],"latitude":"12.49411","longitude":"122.53309","feature_class":"P","feature_code":"PPL","country_code":"PH","cc2":"","admin1_code":"41","admin2_code":"54","admin3_code":"","admin4_code":"","population":"2839","elevation":"","dem":"47","timezone":"Asia/Manila","modification_date":"2014-11-16"},{"geonameid":"1683541","name":"Tambong","asciiname":"Tambong","alternatenames":["Tambong"],"latitude":"12.96391","longitude":"121.48462","feature_class":"P","feature_code":"PPL","country_code":"PH","cc2":"","admin1_code":"41","admin2_code":"41","admin3_code":"","admin4_code":"","population":"2510","elevation":"","dem":"12","timezone":"Asia/Manila","modification_date":"2012-01-17"},{"geonameid":"1684245","name":"Tagusao","asciiname":"Tagusao","alternatenames":["Tagusao"],"latitude":"9.19238","longitude":"117.8141","feature_class":"P","feature_code":"PPL","country_code":"PH","cc2":"","admin1_code":"41","admin2_code":"49","admin3_code":"","admin4_code":"","population":"2961","elevation":"","dem":"8","timezone":"Asia/Manila","modification_date":"2012-01-17"},{"geonameid":"1684463","name":"Tagburos","asciiname":"Tagburos","alternatenames":[""],"latitude":"9.82861","longitude":"118.73194","feature_class":"P","feature_code":"PPL","country_code":"PH","cc2":"","admin1_code":"41","admin2_code":"49","admin3_code":"","admin4_code":"","population":"4149","elevation":"","dem":"51","timezone":"Asia/Manila","modification_date":"2010-08-14"},{"geonameid":"1684542","name":"Tagbak","asciiname":"Tagbak","alternatenames":["Tabbac","Tagbac","Tagbak"],"latitude":"13.84166","longitude":"120.08872","feature_class":"P","feature_code":"PPL","country_code":"PH","cc2":"","admin1_code":"41","admin2_code":"40","admin3_code":"","admin4_code":"","population":"4143","elevation":"","dem":"10","timezone":"Asia/Manila","modification_date":"2012-01-17"},{"geonameid":"1684706","name":"Taclobo","asciiname":"Taclobo","alternatenames":["Taclobo"],"latitude":"12.30744","longitude":"122.58601","feature_class":"P","feature_code":"PPL","country_code":"PH","cc2":"","admin1_code":"41","admin2_code":"54","admin3_code":"","admin4_code":"","population":"4782","elevation":"","dem":"11","timezone":"Asia/Manila","modification_date":"2012-01-17"},{"geonameid":"1684717","name":"Tacligan","asciiname":"Tacligan","alternatenames":["Tacligan","Taclingan","Takligan"],"latitude":"13.3975","longitude":"121.0626","feature_class":"P","feature_code":"PPL","country_code":"PH","cc2":"","admin1_code":"41","admin2_code":"41","admin3_code":"","admin4_code":"","population":"2593","elevation":"","dem":"9","timezone":"Asia/Manila","modification_date":"2012-01-17"},{"geonameid":"1684759","name":"Tagbita","asciiname":"Tagbita","alternatenames":["TGB","Taburi","Tagbita"],"latitude":"8.67531","longitude":"117.33989","feature_class":"P","feature_code":"PPL","country_code":"PH","cc2":"","admin1_code":"41","admin2_code":"49","admin3_code":"","admin4_code":"","population":"2501","elevation":"","dem":"9","timezone":"Asia/Manila","modification_date":"2012-01-17"},{"geonameid":"1684902","name":"Tabon","asciiname":"Tabon","alternatenames":["Tabon"],"latitude":"9.23877","longitude":"117.9946","feature_class":"P","feature_code":"PPL","country_code":"PH","cc2":"","admin1_code":"41","admin2_code":"49","admin3_code":"","admin4_code":"","population":"3801","elevation":"","dem":"7","timezone":"Asia/Manila","modification_date":"2012-01-17"},{"geonameid":"1684989","name":"Tabinay","asciiname":"Tabinay","alternatenames":["Tabinay"],"latitude":"13.4871","longitude":"120.9566","feature_class":"P","feature_code":"PPL","country_code":"PH","cc2":"","admin1_code":"41","admin2_code":"41","admin3_code":"","admin4_code":"","population":"2522","elevation":"","dem":"17","timezone":"Asia/Manila","modification_date":"2012-01-17"},{"geonameid":"1685340","name":"Sumagui","asciiname":"Sumagui","alternatenames":["Sumagui"],"latitude":"12.79532","longitude":"121.47401","feature_class":"P","feature_code":"PPL","country_code":"PH","cc2":"","admin1_code":"41","admin2_code":"41","admin3_code":"","admin4_code":"","population":"3495","elevation":"","dem":"12","timezone":"Asia/Manila","modification_date":"2012-01-17"},{"geonameid":"1685609","name":"Saaban","asciiname":"Saaban","alternatenames":["Saaban","Subaan"],"latitude":"13.13049","longitude":"121.36872","feature_class":"P","feature_code":"PPL","country_code":"PH","cc2":"","admin1_code":"41","admin2_code":"41","admin3_code":"","admin4_code":"","population":"2527","elevation":"","dem":"8","timezone":"Asia/Manila","modification_date":"2012-01-17"},{"geonameid":"1685615","name":"Suba","asciiname":"Suba","alternatenames":["Suba"],"latitude":"10.8438","longitude":"121.0102","feature_class":"P","feature_code":"PPL","country_code":"PH","cc2":"","admin1_code":"41","admin2_code":"49","admin3_code":"","admin4_code":"","population":"2966","elevation":"","dem":"8","timezone":"Asia/Manila","modification_date":"2012-01-17"},{"geonameid":"1685918","name":"Sogod","asciiname":"Sogod","alternatenames":["Sogod","Sugod"],"latitude":"12.37635","longitude":"122.66368","feature_class":"P","feature_code":"PPL","country_code":"PH","cc2":"","admin1_code":"41","admin2_code":"54","admin3_code":"","admin4_code":"","population":"2221","elevation":"","dem":"190","timezone":"Asia/Manila","modification_date":"2014-11-16"},{"geonameid":"1685936","name":"Socorro","asciiname":"Socorro","alternatenames":["Soccoro","Socorro"],"latitude":"13.0669","longitude":"121.39858","feature_class":"P","feature_code":"PPLA3","country_code":"PH","cc2":"","admin1_code":"41","admin2_code":"41","admin3_code":"1685939","admin4_code":"","population":"5543","elevation":"","dem":"15","timezone":"Asia/Manila","modification_date":"2015-01-30"},{"geonameid":"1687167","name":"Saraza","asciiname":"Saraza","alternatenames":["Saraza"],"latitude":"8.73556","longitude":"117.78","feature_class":"P","feature_code":"PPL","country_code":"PH","cc2":"","admin1_code":"41","admin2_code":"49","admin3_code":"","admin4_code":"","population":"2533","elevation":"","dem":"13","timezone":"Asia/Manila","modification_date":"2012-02-01"},{"geonameid":"1687474","name":"San Vicente","asciiname":"San Vicente","alternatenames":["San Vicente"],"latitude":"10.55","longitude":"119.26667","feature_class":"P","feature_code":"PPLA3","country_code":"PH","cc2":"","admin1_code":"41","admin2_code":"49","admin3_code":"1687492","admin4_code":"","population":"4576","elevation":"","dem":"-9999","timezone":"Asia/Manila","modification_date":"2011-07-31"},{"geonameid":"1687838","name":"San Teodoro","asciiname":"San Teodoro","alternatenames":["San Teodoro","Subaang"],"latitude":"13.43354","longitude":"121.0144","feature_class":"P","feature_code":"PPL","country_code":"PH","cc2":"","admin1_code":"41","admin2_code":"41","admin3_code":"","admin4_code":"","population":"4827","elevation":"","dem":"73","timezone":"Asia/Manila","modification_date":"2015-04-11"},{"geonameid":"1687860","name":"Santa Teresa","asciiname":"Santa Teresa","alternatenames":["Lalawigan","Santa Teresa"],"latitude":"12.25186","longitude":"121.11251","feature_class":"P","feature_code":"PPL","country_code":"PH","cc2":"","admin1_code":"41","admin2_code":"40","admin3_code":"","admin4_code":"","population":"3177","elevation":"","dem":"7","timezone":"Asia/Manila","modification_date":"2012-01-17"},{"geonameid":"1688051","name":"Santa Maria","asciiname":"Santa Maria","alternatenames":["Santa Maria"],"latitude":"12.57883","longitude":"121.46041","feature_class":"P","feature_code":"PPL","country_code":"PH","cc2":"","admin1_code":"41","admin2_code":"41","admin3_code":"","admin4_code":"","population":"2947","elevation":"","dem":"21","timezone":"Asia/Manila","modification_date":"2012-01-17"},{"geonameid":"1688164","name":"Santa Fe","asciiname":"Santa Fe","alternatenames":["Santa Fe"],"latitude":"12.15656","longitude":"121.99411","feature_class":"P","feature_code":"PPLA3","country_code":"PH","cc2":"","admin1_code":"41","admin2_code":"54","admin3_code":"1688178","admin4_code":"","population":"2358","elevation":"","dem":"13","timezone":"Asia/Manila","modification_date":"2011-07-31"},{"geonameid":"1688271","name":"Santa Cruz","asciiname":"Santa Cruz","alternatenames":["Santa Cruz","Santa-Krus","Санта-Крус"],"latitude":"13.4758","longitude":"122.0275","feature_class":"P","feature_code":"PPLA3","country_code":"PH","cc2":"","admin1_code":"41","admin2_code":"38","admin3_code":"1688326","admin4_code":"","population":"9863","elevation":"","dem":"50","timezone":"Asia/Manila","modification_date":"2011-07-31"},{"geonameid":"1688368","name":"Santa Brigida","asciiname":"Santa Brigida","alternatenames":["Santa Brigida"],"latitude":"12.56783","longitude":"121.48901","feature_class":"P","feature_code":"PPL","country_code":"PH","cc2":"","admin1_code":"41","admin2_code":"41","admin3_code":"","admin4_code":"","population":"2541","elevation":"","dem":"15","timezone":"Asia/Manila","modification_date":"2012-01-17"},{"geonameid":"1688761","name":"San Pedro","asciiname":"San Pedro","alternatenames":["San Pedro"],"latitude":"12.46084","longitude":"121.01041","feature_class":"P","feature_code":"PPL","country_code":"PH","cc2":"","admin1_code":"41","admin2_code":"40","admin3_code":"","admin4_code":"","population":"2698","elevation":"","dem":"16","timezone":"Asia/Manila","modification_date":"2012-01-17"},{"geonameid":"1689086","name":"San Mariano","asciiname":"San Mariano","alternatenames":["San Mariano"],"latitude":"12.64143","longitude":"121.43791","feature_class":"P","feature_code":"PPL","country_code":"PH","cc2":"","admin1_code":"41","admin2_code":"41","admin3_code":"","admin4_code":"","population":"4782","elevation":"","dem":"56","timezone":"Asia/Manila","modification_date":"2012-01-17"},{"geonameid":"1689510","name":"San Jose","asciiname":"San Jose","alternatenames":["Pandurucan","SJI","San Jose"],"latitude":"12.35275","longitude":"121.06761","feature_class":"P","feature_code":"PPL","country_code":"PH","cc2":"","admin1_code":"41","admin2_code":"40","admin3_code":"","admin4_code":"","population":"118807","elevation":"","dem":"9","timezone":"Asia/Manila","modification_date":"2012-01-17"},{"geonameid":"1689515","name":"Agcogon","asciiname":"Agcogon","alternatenames":["Acogon","Agcogon","San Jose","Taft"],"latitude":"12.06146","longitude":"121.95911","feature_class":"P","feature_code":"PPL","country_code":"PH","cc2":"","admin1_code":"41","admin2_code":"54","admin3_code":"","admin4_code":"","population":"3027","elevation":"","dem":"13","timezone":"Asia/Manila","modification_date":"2012-01-17"},{"geonameid":"1690046","name":"San Fernando","asciiname":"San Fernando","alternatenames":["San Fernando"],"latitude":"12.30364","longitude":"122.60041","feature_class":"P","feature_code":"PPLA3","country_code":"PH","cc2":"","admin1_code":"41","admin2_code":"54","admin3_code":"1690068","admin4_code":"","population":"0","elevation":"","dem":"6","timezone":"Asia/Manila","modification_date":"2014-11-16"},{"geonameid":"1690275","name":"San Aquilino","asciiname":"San Aquilino","alternatenames":["San Aquilino"],"latitude":"12.59743","longitude":"121.48671","feature_class":"P","feature_code":"PPL","country_code":"PH","cc2":"","admin1_code":"41","admin2_code":"41","admin3_code":"","admin4_code":"","population":"3151","elevation":"","dem":"23","timezone":"Asia/Manila","modification_date":"2012-01-17"},{"geonameid":"1690512","name":"San Agustin","asciiname":"San Agustin","alternatenames":["San Agustin","San Augustin"],"latitude":"13.27729","longitude":"121.30482","feature_class":"P","feature_code":"PPL","country_code":"PH","cc2":"","admin1_code":"41","admin2_code":"41","admin3_code":"","admin4_code":"","population":"3097","elevation":"","dem":"12","timezone":"Asia/Manila","modification_date":"2012-01-17"},{"geonameid":"1690721","name":"Salvacion","asciiname":"Salvacion","alternatenames":["Salvacion"],"latitude":"12.13287","longitude":"119.93281","feature_class":"P","feature_code":"PPL","country_code":"PH","cc2":"","admin1_code":"41","admin2_code":"49","admin3_code":"","admin4_code":"","population":"2361","elevation":"","dem":"10","timezone":"Asia/Manila","modification_date":"2012-01-17"},{"geonameid":"1690910","name":"Salcedo","asciiname":"Salcedo","alternatenames":["Salcedo"],"latitude":"12.81052","longitude":"121.46742","feature_class":"P","feature_code":"PPL","country_code":"PH","cc2":"","admin1_code":"41","admin2_code":"41","admin3_code":"","admin4_code":"","population":"4618","elevation":"","dem":"11","timezone":"Asia/Manila","modification_date":"2012-01-17"},{"geonameid":"1691174","name":"Sagana","asciiname":"Sagana","alternatenames":["Sagana"],"latitude":"12.72252","longitude":"121.48672","feature_class":"P","feature_code":"PPL","country_code":"PH","cc2":"","admin1_code":"41","admin2_code":"41","admin3_code":"","admin4_code":"","population":"2298","elevation":"","dem":"9","timezone":"Asia/Manila","modification_date":"2012-01-17"},{"geonameid":"1691280","name":"Sablayan","asciiname":"Sablayan","alternatenames":["Sablayan"],"latitude":"12.8346","longitude":"120.769","feature_class":"P","feature_code":"PPL","country_code":"PH","cc2":"","admin1_code":"41","admin2_code":"40","admin3_code":"","admin4_code":"","population":"38383","elevation":"","dem":"10","timezone":"Asia/Manila","modification_date":"2012-01-17"},{"geonameid":"1691360","name":"Sabang","asciiname":"Sabang","alternatenames":["Sabang"],"latitude":"13.5092","longitude":"120.9737","feature_class":"P","feature_code":"PPL","country_code":"PH","cc2":"","admin1_code":"41","admin2_code":"41","admin3_code":"","admin4_code":"","population":"3212","elevation":"","dem":"12","timezone":"Asia/Manila","modification_date":"2012-01-17"},{"geonameid":"1691442","name":"Roxas","asciiname":"Roxas","alternatenames":["Paclasan","Paglasan","Roxas"],"latitude":"12.5835","longitude":"121.5176","feature_class":"P","feature_code":"PPLA3","country_code":"PH","cc2":"","admin1_code":"41","admin2_code":"41","admin3_code":"1691449","admin4_code":"","population":"14335","elevation":"","dem":"9","timezone":"Asia/Manila","modification_date":"2011-07-31"},{"geonameid":"1691538","name":"Romblon","asciiname":"Romblon","alternatenames":["Romblon","Ромблон"],"latitude":"12.57513","longitude":"122.27081","feature_class":"P","feature_code":"PPLA3","country_code":"PH","cc2":"","admin1_code":"41","admin2_code":"54","admin3_code":"1691541","admin4_code":"","population":"15316","elevation":"","dem":"14","timezone":"Asia/Manila","modification_date":"2011-07-31"},{"geonameid":"1691629","name":"Rizal","asciiname":"Rizal","alternatenames":[""],"latitude":"12.46667","longitude":"120.96667","feature_class":"P","feature_code":"PPLA3","country_code":"PH","cc2":"","admin1_code":"41","admin2_code":"40","admin3_code":"1691684","admin4_code":"","population":"0","elevation":"","dem":"6","timezone":"Asia/Manila","modification_date":"2011-07-31"},{"geonameid":"1691703","name":"Rio Tuba","asciiname":"Rio Tuba","alternatenames":["Rio Tuba"],"latitude":"8.50613","longitude":"117.43169","feature_class":"P","feature_code":"PPL","country_code":"PH","cc2":"","admin1_code":"41","admin2_code":"49","admin3_code":"","admin4_code":"","population":"8944","elevation":"0","dem":"7","timezone":"Asia/Manila","modification_date":"2012-01-17"},{"geonameid":"1691872","name":"Ransang","asciiname":"Ransang","alternatenames":["Ransang"],"latitude":"8.96028","longitude":"117.58278","feature_class":"P","feature_code":"PPL","country_code":"PH","cc2":"","admin1_code":"41","admin2_code":"49","admin3_code":"","admin4_code":"","population":"3548","elevation":"","dem":"7","timezone":"Asia/Manila","modification_date":"2012-02-01"},{"geonameid":"1692113","name":"Quinabigan","asciiname":"Quinabigan","alternatenames":["Quinabigan"],"latitude":"12.9936","longitude":"121.47812","feature_class":"P","feature_code":"PPL","country_code":"PH","cc2":"","admin1_code":"41","admin2_code":"41","admin3_code":"","admin4_code":"","population":"2575","elevation":"","dem":"9","timezone":"Asia/Manila","modification_date":"2012-01-17"},{"geonameid":"1692211","name":"Quezon","asciiname":"Quezon","alternatenames":["Alfonso XIII","Keson-Siti","Quezon","Кесон-Сити"],"latitude":"9.24111","longitude":"118.03139","feature_class":"P","feature_code":"PPL","country_code":"PH","cc2":"","admin1_code":"41","admin2_code":"49","admin3_code":"","admin4_code":"","population":"7860","elevation":"","dem":"30","timezone":"Asia/Manila","modification_date":"2012-01-17"},{"geonameid":"1692424","name":"Punta","asciiname":"Punta","alternatenames":["Punta"],"latitude":"12.2441","longitude":"122.0097","feature_class":"P","feature_code":"PPL","country_code":"PH","cc2":"","admin1_code":"41","admin2_code":"54","admin3_code":"","admin4_code":"","population":"2934","elevation":"","dem":"8","timezone":"Asia/Manila","modification_date":"2012-01-17"},{"geonameid":"1692481","name":"Punang","asciiname":"Punang","alternatenames":["Punang","Punango"],"latitude":"9.0169","longitude":"118.0495","feature_class":"P","feature_code":"PPL","country_code":"PH","cc2":"","admin1_code":"41","admin2_code":"49","admin3_code":"","admin4_code":"","population":"2533","elevation":"","dem":"8","timezone":"Asia/Manila","modification_date":"2012-01-17"},{"geonameid":"1692685","name":"Puerto Princesa","asciiname":"Puerto Princesa","alternatenames":["Dakbayan sa Puerto Princesa","Lungsod ng Puerto Princesa","PPS","Puehrto-Prinsesa","Puerta Princesa","Puerto Princesa","Puerto Princesa City","Puerto Princesa Lakanbalen","Puerto Prinsesa","Syudad han Puerto Princesa","Syudad nin Puerto Princesa","pu lin sai sa gang","pueleutopeulinsesa","pwrtwprnss","Пуерто Принсеса","Пуэрто-Принсеса","پورتوپرنسس","プエルト・プリンセサ","普林塞薩港","푸에르토프린세사"],"latitude":"9.73917","longitude":"118.73528","feature_class":"P","feature_code":"PPL","country_code":"PH","cc2":"","admin1_code":"41","admin2_code":"","admin3_code":"","admin4_code":"","population":"222673","elevation":"","dem":"20","timezone":"Asia/Manila","modification_date":"2013-08-18"},{"geonameid":"1692688","name":"Puerto Galera","asciiname":"Puerto Galera","alternatenames":["Port Galera","Puerto Calero","Puerto Galera","Puerto Gallera"],"latitude":"13.50223","longitude":"120.95166","feature_class":"P","feature_code":"PPL","country_code":"PH","cc2":"","admin1_code":"41","admin2_code":"41","admin3_code":"","admin4_code":"","population":"3274","elevation":"","dem":"12","timezone":"Asia/Manila","modification_date":"2015-04-11"},{"geonameid":"1692871","name":"Port Barton","asciiname":"Port Barton","alternatenames":["Port Barton"],"latitude":"10.47556","longitude":"119.24722","feature_class":"P","feature_code":"PPL","country_code":"PH","cc2":"","admin1_code":"41","admin2_code":"49","admin3_code":"","admin4_code":"","population":"4832","elevation":"","dem":"7","timezone":"Asia/Manila","modification_date":"2012-01-17"},{"geonameid":"1693156","name":"Pola","asciiname":"Pola","alternatenames":["Pola","Polo"],"latitude":"13.14379","longitude":"121.44152","feature_class":"P","feature_code":"PPLA3","country_code":"PH","cc2":"","admin1_code":"41","admin2_code":"41","admin3_code":"1693158","admin4_code":"","population":"0","elevation":"","dem":"8","timezone":"Asia/Manila","modification_date":"2011-07-31"},{"geonameid":"1693253","name":"Plaridel","asciiname":"Plaridel","alternatenames":["Plaridel"],"latitude":"9.3786","longitude":"118.50174","feature_class":"P","feature_code":"PPL","country_code":"PH","cc2":"","admin1_code":"41","admin2_code":"49","admin3_code":"","admin4_code":"","population":"2789","elevation":"","dem":"22","timezone":"Asia/Manila","modification_date":"2012-01-17"},{"geonameid":"1693307","name":"Pitogo","asciiname":"Pitogo","alternatenames":["Pitogo"],"latitude":"12.50744","longitude":"121.09041","feature_class":"P","feature_code":"PPL","country_code":"PH","cc2":"","admin1_code":"41","admin2_code":"40","admin3_code":"","admin4_code":"","population":"2643","elevation":"0","dem":"48","timezone":"Asia/Manila","modification_date":"2012-01-17"},{"geonameid":"1693618","name":"Pinamalayan","asciiname":"Pinamalayan","alternatenames":["Pinamalayan","Wawa"],"latitude":"13.04603","longitude":"121.46205","feature_class":"P","feature_code":"PPLA3","country_code":"PH","cc2":"","admin1_code":"41","admin2_code":"41","admin3_code":"1693620","admin4_code":"","population":"43521","elevation":"","dem":"19","timezone":"Asia/Manila","modification_date":"2015-01-30"},{"geonameid":"1693661","name":"Pinagsabangan","asciiname":"Pinagsabangan","alternatenames":["Pinagsabangan"],"latitude":"13.26559","longitude":"121.26812","feature_class":"P","feature_code":"PPL","country_code":"PH","cc2":"","admin1_code":"41","admin2_code":"41","admin3_code":"","admin4_code":"","population":"4586","elevation":"","dem":"18","timezone":"Asia/Manila","modification_date":"2012-01-17"},{"geonameid":"1693798","name":"Pili","asciiname":"Pili","alternatenames":["Pili"],"latitude":"13.0664","longitude":"121.52032","feature_class":"P","feature_code":"PPL","country_code":"PH","cc2":"","admin1_code":"41","admin2_code":"41","admin3_code":"","admin4_code":"","population":"3421","elevation":"","dem":"7","timezone":"Asia/Manila","modification_date":"2012-01-17"},{"geonameid":"1694338","name":"Pato-o","asciiname":"Pato-o","alternatenames":["Pato-o"],"latitude":"12.43025","longitude":"122.0664","feature_class":"P","feature_code":"PPL","country_code":"PH","cc2":"","admin1_code":"41","admin2_code":"54","admin3_code":"","admin4_code":"","population":"2949","elevation":"","dem":"230","timezone":"Asia/Manila","modification_date":"2012-05-05"},{"geonameid":"1695065","name":"Panlaitan","asciiname":"Panlaitan","alternatenames":["Panlaitan"],"latitude":"12.11907","longitude":"119.84861","feature_class":"P","feature_code":"PPL","country_code":"PH","cc2":"","admin1_code":"41","admin2_code":"49","admin3_code":"","admin4_code":"","population":"2596","elevation":"","dem":"16","timezone":"Asia/Manila","modification_date":"2012-01-17"},{"geonameid":"1695083","name":"Panitian","asciiname":"Panitian","alternatenames":["Panitan","Panitian"],"latitude":"9.0965","longitude":"118.0864","feature_class":"P","feature_code":"PPL","country_code":"PH","cc2":"","admin1_code":"41","admin2_code":"49","admin3_code":"","admin4_code":"","population":"7258","elevation":"","dem":"9","timezone":"Asia/Manila","modification_date":"2012-01-17"},{"geonameid":"1695107","name":"Panique","asciiname":"Panique","alternatenames":["Panique"],"latitude":"12.48025","longitude":"122.01462","feature_class":"P","feature_code":"PPL","country_code":"PH","cc2":"","admin1_code":"41","admin2_code":"54","admin3_code":"","admin4_code":"","population":"2690","elevation":"","dem":"9","timezone":"Asia/Manila","modification_date":"2012-05-05"},{"geonameid":"1695185","name":"Pangulayan","asciiname":"Pangulayan","alternatenames":["Panggulayan","Pangulayan"],"latitude":"13.0398","longitude":"121.44792","feature_class":"P","feature_code":"PPL","country_code":"PH","cc2":"","admin1_code":"41","admin2_code":"41","admin3_code":"","admin4_code":"","population":"2737","elevation":"","dem":"19","timezone":"Asia/Manila","modification_date":"2012-01-17"},{"geonameid":"1695250","name":"Pañgobilian","asciiname":"Pangobilian","alternatenames":["Pangobilian","Pañgobilian"],"latitude":"8.80111","longitude":"117.85944","feature_class":"P","feature_code":"PPL","country_code":"PH","cc2":"","admin1_code":"41","admin2_code":"49","admin3_code":"","admin4_code":"","population":"7178","elevation":"","dem":"15","timezone":"Asia/Manila","modification_date":"2012-02-01"},{"geonameid":"1695594","name":"Pancol","asciiname":"Pancol","alternatenames":["Pancol"],"latitude":"10.8715","longitude":"119.4157","feature_class":"P","feature_code":"PPL","country_code":"PH","cc2":"","admin1_code":"41","admin2_code":"49","admin3_code":"","admin4_code":"","population":"2261","elevation":"","dem":"13","timezone":"Asia/Manila","modification_date":"2012-01-17"},{"geonameid":"1695736","name":"Panalingaan","asciiname":"Panalingaan","alternatenames":["Panalingaan"],"latitude":"8.78417","longitude":"117.42306","feature_class":"P","feature_code":"PPL","country_code":"PH","cc2":"","admin1_code":"41","admin2_code":"49","admin3_code":"","admin4_code":"","population":"2973","elevation":"","dem":"18","timezone":"Asia/Manila","modification_date":"2012-02-01"},{"geonameid":"1695751","name":"Panacan","asciiname":"Panacan","alternatenames":["Panacan","Panakan"],"latitude":"9.24627","longitude":"118.4082","feature_class":"P","feature_code":"PPL","country_code":"PH","cc2":"","admin1_code":"41","admin2_code":"49","admin3_code":"","admin4_code":"","population":"10526","elevation":"","dem":"7","timezone":"Asia/Manila","modification_date":"2012-01-17"},{"geonameid":"1695898","name":"Pambisan","asciiname":"Pambisan","alternatenames":["Pambisan"],"latitude":"13.0137","longitude":"121.41282","feature_class":"P","feature_code":"PPL","country_code":"PH","cc2":"","admin1_code":"41","admin2_code":"41","admin3_code":"","admin4_code":"","population":"2844","elevation":"","dem":"28","timezone":"Asia/Manila","modification_date":"2012-01-17"},{"geonameid":"1695982","name":"Paluan","asciiname":"Paluan","alternatenames":["Lipa","Paluan"],"latitude":"13.416","longitude":"120.4623","feature_class":"P","feature_code":"PPLA3","country_code":"PH","cc2":"","admin1_code":"41","admin2_code":"40","admin3_code":"1695983","admin4_code":"","population":"4549","elevation":"","dem":"11","timezone":"Asia/Manila","modification_date":"2011-07-31"},{"geonameid":"1696828","name":"Paclolo","asciiname":"Paclolo","alternatenames":["Paclolo"],"latitude":"12.37675","longitude":"121.17351","feature_class":"P","feature_code":"PPL","country_code":"PH","cc2":"","admin1_code":"41","admin2_code":"40","admin3_code":"","admin4_code":"","population":"2346","elevation":"","dem":"35","timezone":"Asia/Manila","modification_date":"2012-01-17"},{"geonameid":"1696983","name":"Osmeña","asciiname":"Osmena","alternatenames":["Osmena","Osmeña"],"latitude":"10.52083","longitude":"119.92583","feature_class":"P","feature_code":"PPL","country_code":"PH","cc2":"","admin1_code":"41","admin2_code":"49","admin3_code":"","admin4_code":"","population":"4866","elevation":"","dem":"17","timezone":"Asia/Manila","modification_date":"2012-02-01"},{"geonameid":"1697294","name":"Odiongan","asciiname":"Odiongan","alternatenames":["Odiongan"],"latitude":"12.40167","longitude":"121.99194","feature_class":"P","feature_code":"PPLA3","country_code":"PH","cc2":"","admin1_code":"41","admin2_code":"54","admin3_code":"1697300","admin4_code":"","population":"6077","elevation":"","dem":"12","timezone":"Asia/Manila","modification_date":"2011-07-31"},{"geonameid":"1697301","name":"Odiong","asciiname":"Odiong","alternatenames":["Odiong"],"latitude":"12.5931","longitude":"121.5032","feature_class":"P","feature_code":"PPL","country_code":"PH","cc2":"","admin1_code":"41","admin2_code":"41","admin3_code":"","admin4_code":"","population":"3346","elevation":"","dem":"15","timezone":"Asia/Manila","modification_date":"2012-01-17"},{"geonameid":"1697793","name":"New Agutaya","asciiname":"New Agutaya","alternatenames":["New Agutaya"],"latitude":"10.56139","longitude":"119.30778","feature_class":"P","feature_code":"PPL","country_code":"PH","cc2":"","admin1_code":"41","admin2_code":"49","admin3_code":"","admin4_code":"","population":"2464","elevation":"","dem":"4","timezone":"Asia/Manila","modification_date":"2012-02-01"},{"geonameid":"1697911","name":"Naujan","asciiname":"Naujan","alternatenames":["Naujan","Navjan"],"latitude":"13.32328","longitude":"121.30282","feature_class":"P","feature_code":"PPL","country_code":"PH","cc2":"","admin1_code":"41","admin2_code":"41","admin3_code":"","admin4_code":"","population":"2792","elevation":"","dem":"9","timezone":"Asia/Manila","modification_date":"2012-01-17"},{"geonameid":"1698103","name":"Narra","asciiname":"Narra","alternatenames":["Narra"],"latitude":"9.26877","longitude":"118.4043","feature_class":"P","feature_code":"PPLA3","country_code":"PH","cc2":"","admin1_code":"41","admin2_code":"49","admin3_code":"1698104","admin4_code":"","population":"28342","elevation":"","dem":"8","timezone":"Asia/Manila","modification_date":"2011-07-31"},{"geonameid":"1698722","name":"Nagiba","asciiname":"Nagiba","alternatenames":["Nag-iba II","Nag-iba Segundo","Nagiba","Naguiba"],"latitude":"13.33018","longitude":"121.27432","feature_class":"P","feature_code":"PPL","country_code":"PH","cc2":"","admin1_code":"41","admin2_code":"41","admin3_code":"","admin4_code":"","population":"2370","elevation":"","dem":"11","timezone":"Asia/Manila","modification_date":"2012-01-17"},{"geonameid":"1699428","name":"Mogpog","asciiname":"Mogpog","alternatenames":["Mogpog","Mopog"],"latitude":"13.47444","longitude":"121.86139","feature_class":"P","feature_code":"PPLA3","country_code":"PH","cc2":"","admin1_code":"41","admin2_code":"38","admin3_code":"1699429","admin4_code":"","population":"3192","elevation":"","dem":"11","timezone":"Asia/Manila","modification_date":"2011-07-31"},{"geonameid":"1700156","name":"Mauhao","asciiname":"Mauhao","alternatenames":["Mauhao","Maujao"],"latitude":"12.29015","longitude":"121.30071","feature_class":"P","feature_code":"PPL","country_code":"PH","cc2":"","admin1_code":"41","admin2_code":"41","admin3_code":"","admin4_code":"","population":"2310","elevation":"","dem":"8","timezone":"Asia/Manila","modification_date":"2012-01-17"},{"geonameid":"1700686","name":"Masiga","asciiname":"Masiga","alternatenames":["Masiga"],"latitude":"13.3607","longitude":"121.8278","feature_class":"P","feature_code":"PPL","country_code":"PH","cc2":"","admin1_code":"41","admin2_code":"38","admin3_code":"","admin4_code":"","population":"2668","elevation":"","dem":"11","timezone":"Asia/Manila","modification_date":"2012-01-17"},{"geonameid":"1700786","name":"Masaguisi","asciiname":"Masaguisi","alternatenames":["Masaguisi"],"latitude":"12.75452","longitude":"121.44841","feature_class":"P","feature_code":"PPL","country_code":"PH","cc2":"","admin1_code":"41","admin2_code":"41","admin3_code":"","admin4_code":"","population":"2481","elevation":"","dem":"50","timezone":"Asia/Manila","modification_date":"2012-01-17"},{"geonameid":"1701516","name":"Mansalay","asciiname":"Mansalay","alternatenames":["Bulalacao","Mansalay"],"latitude":"12.52044","longitude":"121.43851","feature_class":"P","feature_code":"PPLA3","country_code":"PH","cc2":"","admin1_code":"41","admin2_code":"41","admin3_code":"1701517","admin4_code":"","population":"23044","elevation":"","dem":"18","timezone":"Asia/Manila","modification_date":"2011-07-31"},{"geonameid":"1701840","name":"Mangarine","asciiname":"Mangarine","alternatenames":["Mangaran","Mangarin","Mangarine"],"latitude":"12.35115","longitude":"121.09801","feature_class":"P","feature_code":"PPL","country_code":"PH","cc2":"","admin1_code":"41","admin2_code":"40","admin3_code":"","admin4_code":"","population":"3246","elevation":"","dem":"7","timezone":"Asia/Manila","modification_date":"2012-01-17"},{"geonameid":"1702041","name":"Manaul","asciiname":"Manaul","alternatenames":["Manaul"],"latitude":"12.453","longitude":"121.4107","feature_class":"P","feature_code":"PPL","country_code":"PH","cc2":"","admin1_code":"41","admin2_code":"41","admin3_code":"","admin4_code":"","population":"3011","elevation":"","dem":"20","timezone":"Asia/Manila","modification_date":"2012-01-17"},{"geonameid":"1702263","name":"Mamburao","asciiname":"Mamburao","alternatenames":["MBO","Mambulao","Mamburao"],"latitude":"13.2233","longitude":"120.596","feature_class":"P","feature_code":"PPLA3","country_code":"PH","cc2":"","admin1_code":"41","admin2_code":"40","admin3_code":"1702265","admin4_code":"","population":"23892","elevation":"","dem":"9","timezone":"Asia/Manila","modification_date":"2011-07-31"},{"geonameid":"1702487","name":"Maluanluan","asciiname":"Maluanluan","alternatenames":["Maluanluan"],"latitude":"13.0967","longitude":"121.42352","feature_class":"P","feature_code":"PPL","country_code":"PH","cc2":"","admin1_code":"41","admin2_code":"41","admin3_code":"","admin4_code":"","population":"3116","elevation":"","dem":"18","timezone":"Asia/Manila","modification_date":"2012-01-17"},{"geonameid":"1702633","name":"Malitbog","asciiname":"Malitbog","alternatenames":["Malitbog"],"latitude":"12.75212","longitude":"121.46591","feature_class":"P","feature_code":"PPL","country_code":"PH","cc2":"","admin1_code":"41","admin2_code":"41","admin3_code":"","admin4_code":"","population":"3125","elevation":"","dem":"9","timezone":"Asia/Manila","modification_date":"2012-01-17"},{"geonameid":"1702777","name":"Maliig","asciiname":"Maliig","alternatenames":["Maliig"],"latitude":"13.84556","longitude":"120.15032","feature_class":"P","feature_code":"PPL","country_code":"PH","cc2":"","admin1_code":"41","admin2_code":"40","admin3_code":"","admin4_code":"","population":"2837","elevation":"","dem":"9","timezone":"Asia/Manila","modification_date":"2012-01-17"},{"geonameid":"1702843","name":"Malibago","asciiname":"Malibago","alternatenames":["Malibago"],"latitude":"13.2783","longitude":"122.0228","feature_class":"P","feature_code":"PPL","country_code":"PH","cc2":"","admin1_code":"41","admin2_code":"38","admin3_code":"","admin4_code":"","population":"3087","elevation":"","dem":"237","timezone":"Asia/Manila","modification_date":"2012-01-17"},{"geonameid":"1703143","name":"Malamig","asciiname":"Malamig","alternatenames":["Malamig"],"latitude":"12.95","longitude":"121.36667","feature_class":"P","feature_code":"PPL","country_code":"PH","cc2":"","admin1_code":"41","admin2_code":"41","admin3_code":"","admin4_code":"","population":"2824","elevation":"","dem":"129","timezone":"Asia/Manila","modification_date":"2012-02-01"},{"geonameid":"1703521","name":"Mainit","asciiname":"Mainit","alternatenames":["Mainit"],"latitude":"8.8436","longitude":"117.8183","feature_class":"P","feature_code":"PPL","country_code":"PH","cc2":"","admin1_code":"41","admin2_code":"49","admin3_code":"","admin4_code":"","population":"2304","elevation":"0","dem":"40","timezone":"Asia/Manila","modification_date":"2012-01-17"},{"geonameid":"1703768","name":"Magsaysay","asciiname":"Magsaysay","alternatenames":[""],"latitude":"12.33333","longitude":"121.15","feature_class":"P","feature_code":"PPLA3","country_code":"PH","cc2":"","admin1_code":"41","admin2_code":"40","admin3_code":"1703775","admin4_code":"","population":"9407","elevation":"","dem":"17","timezone":"Asia/Manila","modification_date":"2011-08-22"},{"geonameid":"1703896","name":"Magdiwang","asciiname":"Magdiwang","alternatenames":["Magallanes","Magdiwang"],"latitude":"12.48372","longitude":"122.51472","feature_class":"P","feature_code":"PPLA3","country_code":"PH","cc2":"","admin1_code":"41","admin2_code":"54","admin3_code":"1703897","admin4_code":"","population":"2716","elevation":"","dem":"10","timezone":"Asia/Manila","modification_date":"2014-11-16"},{"geonameid":"1703943","name":"Magbay","asciiname":"Magbay","alternatenames":["Magbay"],"latitude":"12.41014","longitude":"121.08991","feature_class":"P","feature_code":"PPL","country_code":"PH","cc2":"","admin1_code":"41","admin2_code":"40","admin3_code":"","admin4_code":"","population":"3248","elevation":"","dem":"20","timezone":"Asia/Manila","modification_date":"2012-01-17"},{"geonameid":"1705240","name":"Lumangbayan","asciiname":"Lumangbayan","alternatenames":["Lumangbayan"],"latitude":"13.419","longitude":"121.0348","feature_class":"P","feature_code":"PPL","country_code":"PH","cc2":"","admin1_code":"41","admin2_code":"41","admin3_code":"","admin4_code":"","population":"2227","elevation":"","dem":"9","timezone":"Asia/Manila","modification_date":"2012-01-17"},{"geonameid":"1705448","name":"Lubang","asciiname":"Lubang","alternatenames":["Lubang"],"latitude":"13.85835","longitude":"120.12402","feature_class":"P","feature_code":"PPLA3","country_code":"PH","cc2":"","admin1_code":"41","admin2_code":"40","admin3_code":"1705454","admin4_code":"","population":"5750","elevation":"","dem":"10","timezone":"Asia/Manila","modification_date":"2011-07-31"},{"geonameid":"1705641","name":"Looc","asciiname":"Looc","alternatenames":["Looc","San Rafael"],"latitude":"13.72036","longitude":"120.24982","feature_class":"P","feature_code":"PPLA3","country_code":"PH","cc2":"","admin1_code":"41","admin2_code":"40","admin3_code":"1705667","admin4_code":"","population":"2627","elevation":"","dem":"9","timezone":"Asia/Manila","modification_date":"2011-07-31"},{"geonameid":"1706242","name":"San Miguel","asciiname":"San Miguel","alternatenames":["Linapacan","San Miguel"],"latitude":"11.4924","longitude":"119.8703","feature_class":"P","feature_code":"PPL","country_code":"PH","cc2":"","admin1_code":"41","admin2_code":"49","admin3_code":"","admin4_code":"","population":"2972","elevation":"","dem":"16","timezone":"Asia/Manila","modification_date":"2012-01-17"},{"geonameid":"1706325","name":"Limon","asciiname":"Limon","alternatenames":["Limon"],"latitude":"12.3","longitude":"122.01667","feature_class":"P","feature_code":"PPL","country_code":"PH","cc2":"","admin1_code":"41","admin2_code":"54","admin3_code":"","admin4_code":"","population":"2495","elevation":"","dem":"48","timezone":"Asia/Manila","modification_date":"2012-02-01"},{"geonameid":"1706332","name":"Limanancong","asciiname":"Limanancong","alternatenames":["Limanancang","Limanancany","Limanancong","Liminancong","Liminangcong","Liminangoon"],"latitude":"10.9893","longitude":"119.3593","feature_class":"P","feature_code":"PPL","country_code":"PH","cc2":"","admin1_code":"41","admin2_code":"49","admin3_code":"","admin4_code":"","population":"4790","elevation":"","dem":"8","timezone":"Asia/Manila","modification_date":"2012-01-17"},{"geonameid":"1706468","name":"Ligaya","asciiname":"Ligaya","alternatenames":["Ligaya"],"latitude":"12.65993","longitude":"120.89231","feature_class":"P","feature_code":"PPL","country_code":"PH","cc2":"","admin1_code":"41","admin2_code":"40","admin3_code":"","admin4_code":"","population":"8431","elevation":"","dem":"8","timezone":"Asia/Manila","modification_date":"2012-01-17"},{"geonameid":"1706667","name":"Libertad","asciiname":"Libertad","alternatenames":["Libertad"],"latitude":"12.45412","longitude":"122.00828","feature_class":"P","feature_code":"PPL","country_code":"PH","cc2":"","admin1_code":"41","admin2_code":"54","admin3_code":"","admin4_code":"","population":"2231","elevation":"","dem":"29","timezone":"Asia/Manila","modification_date":"2012-05-05"},{"geonameid":"1706717","name":"Libas","asciiname":"Libas","alternatenames":["Libas"],"latitude":"13.24167","longitude":"121.95555","feature_class":"P","feature_code":"PPL","country_code":"PH","cc2":"","admin1_code":"41","admin2_code":"38","admin3_code":"","admin4_code":"","population":"2256","elevation":"","dem":"10","timezone":"Asia/Manila","modification_date":"2012-01-17"},{"geonameid":"1706810","name":"Leuteboro","asciiname":"Leuteboro","alternatenames":["Leuteboro"],"latitude":"13.061","longitude":"121.37472","feature_class":"P","feature_code":"PPL","country_code":"PH","cc2":"","admin1_code":"41","admin2_code":"41","admin3_code":"","admin4_code":"","population":"3802","elevation":"","dem":"27","timezone":"Asia/Manila","modification_date":"2012-01-17"},{"geonameid":"1706950","name":"Laylay","asciiname":"Laylay","alternatenames":["Laylay"],"latitude":"13.4391","longitude":"121.8202","feature_class":"P","feature_code":"PPL","country_code":"PH","cc2":"","admin1_code":"41","admin2_code":"38","admin3_code":"","admin4_code":"","population":"2718","elevation":"","dem":"10","timezone":"Asia/Manila","modification_date":"2012-01-17"},{"geonameid":"1707665","name":"Lanas","asciiname":"Lanas","alternatenames":["Cogon","Lanas"],"latitude":"12.04946","longitude":"121.91851","feature_class":"P","feature_code":"PPL","country_code":"PH","cc2":"","admin1_code":"41","admin2_code":"54","admin3_code":"","admin4_code":"","population":"2499","elevation":"","dem":"7","timezone":"Asia/Manila","modification_date":"2012-01-17"},{"geonameid":"1708191","name":"La Curva","asciiname":"La Curva","alternatenames":["Curva","La Curva"],"latitude":"12.40484","longitude":"121.04591","feature_class":"P","feature_code":"PPL","country_code":"PH","cc2":"","admin1_code":"41","admin2_code":"40","admin3_code":"","admin4_code":"","population":"3359","elevation":"","dem":"8","timezone":"Asia/Manila","modification_date":"2012-01-17"},{"geonameid":"1708288","name":"Labog","asciiname":"Labog","alternatenames":["Labog"],"latitude":"9.0558","longitude":"118.0495","feature_class":"P","feature_code":"PPL","country_code":"PH","cc2":"","admin1_code":"41","admin2_code":"49","admin3_code":"","admin4_code":"","population":"3466","elevation":"","dem":"19","timezone":"Asia/Manila","modification_date":"2012-01-17"},{"geonameid":"1708341","name":"Labasan","asciiname":"Labasan","alternatenames":["Baasan","Labasan"],"latitude":"12.77732","longitude":"121.46922","feature_class":"P","feature_code":"PPL","country_code":"PH","cc2":"","admin1_code":"41","admin2_code":"41","admin3_code":"","admin4_code":"","population":"4217","elevation":"","dem":"8","timezone":"Asia/Manila","modification_date":"2012-01-17"},{"geonameid":"1710473","name":"Isugod","asciiname":"Isugod","alternatenames":["Isugod"],"latitude":"9.34077","longitude":"118.1196","feature_class":"P","feature_code":"PPL","country_code":"PH","cc2":"","admin1_code":"41","admin2_code":"49","admin3_code":"","admin4_code":"","population":"3665","elevation":"","dem":"9","timezone":"Asia/Manila","modification_date":"2012-01-17"},{"geonameid":"1710541","name":"Irirum","asciiname":"Irirum","alternatenames":["Iriron","Irirum","Irirun"],"latitude":"12.61603","longitude":"120.93061","feature_class":"P","feature_code":"PPL","country_code":"PH","cc2":"","admin1_code":"41","admin2_code":"40","admin3_code":"","admin4_code":"","population":"3926","elevation":"","dem":"17","timezone":"Asia/Manila","modification_date":"2012-01-17"},{"geonameid":"1710554","name":"Iraray","asciiname":"Iraray","alternatenames":["Iraray"],"latitude":"8.99361","longitude":"118.05111","feature_class":"P","feature_code":"PPL","country_code":"PH","cc2":"","admin1_code":"41","admin2_code":"49","admin3_code":"","admin4_code":"","population":"2790","elevation":"","dem":"10","timezone":"Asia/Manila","modification_date":"2012-02-01"},{"geonameid":"1710559","name":"Irahuan","asciiname":"Irahuan","alternatenames":["Irawan"],"latitude":"9.80798","longitude":"118.69191","feature_class":"P","feature_code":"PPL","country_code":"PH","cc2":"","admin1_code":"41","admin2_code":"49","admin3_code":"","admin4_code":"","population":"4141","elevation":"","dem":"14","timezone":"Asia/Manila","modification_date":"2014-11-03"},{"geonameid":"1710590","name":"Ipilan","asciiname":"Ipilan","alternatenames":["Ipilan"],"latitude":"8.84306","longitude":"117.90333","feature_class":"P","feature_code":"PPL","country_code":"PH","cc2":"","admin1_code":"41","admin2_code":"49","admin3_code":"","admin4_code":"","population":"5076","elevation":"","dem":"13","timezone":"Asia/Manila","modification_date":"2012-02-01"},{"geonameid":"1710597","name":"Ipil","asciiname":"Ipil","alternatenames":["Ipil"],"latitude":"13.5132","longitude":"121.9841","feature_class":"P","feature_code":"PPL","country_code":"PH","cc2":"","admin1_code":"41","admin2_code":"38","admin3_code":"","admin4_code":"","population":"2468","elevation":"","dem":"49","timezone":"Asia/Manila","modification_date":"2012-01-17"},{"geonameid":"1711864","name":"Harrison","asciiname":"Harrison","alternatenames":["Harrison"],"latitude":"13.45","longitude":"120.43333","feature_class":"P","feature_code":"PPL","country_code":"PH","cc2":"","admin1_code":"41","admin2_code":"40","admin3_code":"","admin4_code":"","population":"2349","elevation":"","dem":"230","timezone":"Asia/Manila","modification_date":"2012-02-01"},{"geonameid":"1712338","name":"Guinlo","asciiname":"Guinlo","alternatenames":["Guinlo","New Guinlo"],"latitude":"10.8009","longitude":"119.4383","feature_class":"P","feature_code":"PPL","country_code":"PH","cc2":"","admin1_code":"41","admin2_code":"49","admin3_code":"","admin4_code":"","population":"3676","elevation":"","dem":"3","timezone":"Asia/Manila","modification_date":"2012-01-17"},{"geonameid":"1712813","name":"Gloria","asciiname":"Gloria","alternatenames":["Gloria"],"latitude":"12.98333","longitude":"121.46667","feature_class":"P","feature_code":"PPL","country_code":"PH","cc2":"","admin1_code":"41","admin2_code":"41","admin3_code":"","admin4_code":"","population":"6137","elevation":"","dem":"14","timezone":"Asia/Manila","modification_date":"2012-01-17"},{"geonameid":"1713154","name":"Gasan","asciiname":"Gasan","alternatenames":["Gasan"],"latitude":"13.32372","longitude":"121.84675","feature_class":"P","feature_code":"PPLA3","country_code":"PH","cc2":"","admin1_code":"41","admin2_code":"38","admin3_code":"1713155","admin4_code":"","population":"2228","elevation":"","dem":"15","timezone":"Asia/Manila","modification_date":"2011-07-31"},{"geonameid":"1713486","name":"Gabawan","asciiname":"Gabawan","alternatenames":["Gabauan","Gabawan"],"latitude":"12.42714","longitude":"122.01332","feature_class":"P","feature_code":"PPL","country_code":"PH","cc2":"","admin1_code":"41","admin2_code":"54","admin3_code":"","admin4_code":"","population":"2382","elevation":"","dem":"80","timezone":"Asia/Manila","modification_date":"2012-05-05"},{"geonameid":"1713644","name":"Ferrol","asciiname":"Ferrol","alternatenames":["Ferrol"],"latitude":"12.33833","longitude":"121.94139","feature_class":"P","feature_code":"PPLA3","country_code":"PH","cc2":"","admin1_code":"41","admin2_code":"54","admin3_code":"1713645","admin4_code":"","population":"0","elevation":"","dem":"16","timezone":"Asia/Manila","modification_date":"2011-07-31"},{"geonameid":"1713702","name":"Evangelista","asciiname":"Evangelista","alternatenames":["Evangelista"],"latitude":"13.3335","longitude":"121.0972","feature_class":"P","feature_code":"PPL","country_code":"PH","cc2":"","admin1_code":"41","admin2_code":"41","admin3_code":"","admin4_code":"","population":"2585","elevation":"","dem":"15","timezone":"Asia/Manila","modification_date":"2012-01-17"},{"geonameid":"1713715","name":"Estrella","asciiname":"Estrella","alternatenames":["Estrella"],"latitude":"13.32898","longitude":"121.31092","feature_class":"P","feature_code":"PPL","country_code":"PH","cc2":"","admin1_code":"41","admin2_code":"41","admin3_code":"","admin4_code":"","population":"2615","elevation":"","dem":"8","timezone":"Asia/Manila","modification_date":"2012-01-17"},{"geonameid":"1713797","name":"España","asciiname":"Espana","alternatenames":["Espana","España","Espina","Espiña"],"latitude":"12.38414","longitude":"122.49901","feature_class":"P","feature_code":"PPL","country_code":"PH","cc2":"","admin1_code":"41","admin2_code":"54","admin3_code":"","admin4_code":"","population":"2624","elevation":"","dem":"9","timezone":"Asia/Manila","modification_date":"2012-01-17"},{"geonameid":"1713839","name":"Eraan","asciiname":"Eraan","alternatenames":["Eraan","Eran","Iraan"],"latitude":"9.06289","longitude":"117.7016","feature_class":"P","feature_code":"PPL","country_code":"PH","cc2":"","admin1_code":"41","admin2_code":"49","admin3_code":"","admin4_code":"","population":"5262","elevation":"","dem":"14","timezone":"Asia/Manila","modification_date":"2012-01-17"},{"geonameid":"1713917","name":"El Nido","asciiname":"El Nido","alternatenames":["Bacuit","ENI","El Nido","El Nido Bacuit","ai ni dao","erunido","エルニド","愛妮島"],"latitude":"11.18583","longitude":"119.39556","feature_class":"P","feature_code":"PPLA3","country_code":"PH","cc2":"","admin1_code":"41","admin2_code":"49","admin3_code":"1713918","admin4_code":"","population":"7801","elevation":"","dem":"36","timezone":"Asia/Manila","modification_date":"2011-07-31"},{"geonameid":"1714147","name":"Dumaran","asciiname":"Dumaran","alternatenames":["Dumaran"],"latitude":"10.525","longitude":"119.7671","feature_class":"P","feature_code":"PPLA3","country_code":"PH","cc2":"","admin1_code":"41","admin2_code":"49","admin3_code":"1714148","admin4_code":"","population":"0","elevation":"","dem":"15","timezone":"Asia/Manila","modification_date":"2011-07-31"},{"geonameid":"1714255","name":"Dulangan","asciiname":"Dulangan","alternatenames":["Dulangan"],"latitude":"13.4685","longitude":"120.9803","feature_class":"P","feature_code":"PPL","country_code":"PH","cc2":"","admin1_code":"41","admin2_code":"41","admin3_code":"","admin4_code":"","population":"2663","elevation":"","dem":"19","timezone":"Asia/Manila","modification_date":"2012-01-17"},{"geonameid":"1714557","name":"Dobdoban","asciiname":"Dobdoban","alternatenames":["Dobdoban","Dubduban"],"latitude":"12.5747","longitude":"122.1138","feature_class":"P","feature_code":"PPL","country_code":"PH","cc2":"","admin1_code":"41","admin2_code":"54","admin3_code":"","admin4_code":"","population":"2271","elevation":"","dem":"51","timezone":"Asia/Manila","modification_date":"2012-01-17"},{"geonameid":"1715279","name":"Daykitin","asciiname":"Daykitin","alternatenames":["Daiquitin","Daykitin","Dayquitin"],"latitude":"13.27073","longitude":"121.91086","feature_class":"P","feature_code":"PPL","country_code":"PH","cc2":"","admin1_code":"41","admin2_code":"38","admin3_code":"","admin4_code":"","population":"2718","elevation":"","dem":"11","timezone":"Asia/Manila","modification_date":"2012-01-17"},{"geonameid":"1715606","name":"Dapawan","asciiname":"Dapawan","alternatenames":["Dapauan","Dapawan"],"latitude":"12.40694","longitude":"122.02778","feature_class":"P","feature_code":"PPL","country_code":"PH","cc2":"","admin1_code":"41","admin2_code":"54","admin3_code":"","admin4_code":"","population":"2929","elevation":"","dem":"45","timezone":"Asia/Manila","modification_date":"2012-01-17"},{"geonameid":"1716397","name":"Cuyo","asciiname":"Cuyo","alternatenames":["CYU","Cugo","Cuyo"],"latitude":"10.8525","longitude":"121.00861","feature_class":"P","feature_code":"PPLA3","country_code":"PH","cc2":"","admin1_code":"41","admin2_code":"49","admin3_code":"1716398","admin4_code":"","population":"7549","elevation":"","dem":"5","timezone":"Asia/Manila","modification_date":"2011-07-31"},{"geonameid":"1716834","name":"Coron","asciiname":"Coron","alternatenames":["Coron","XCN"],"latitude":"11.9986","longitude":"120.2043","feature_class":"P","feature_code":"PPLA3","country_code":"PH","cc2":"","admin1_code":"41","admin2_code":"49","admin3_code":"1716835","admin4_code":"","population":"8723","elevation":"","dem":"10","timezone":"Asia/Manila","modification_date":"2011-07-31"},{"geonameid":"1716864","name":"Corcuera","asciiname":"Corcuera","alternatenames":["Corcuera"],"latitude":"12.78331","longitude":"122.04851","feature_class":"P","feature_code":"PPLA3","country_code":"PH","cc2":"","admin1_code":"41","admin2_code":"54","admin3_code":"1716865","admin4_code":"","population":"0","elevation":"","dem":"10","timezone":"Asia/Manila","modification_date":"2011-07-31"},{"geonameid":"1716963","name":"Conduaga","asciiname":"Conduaga","alternatenames":["Candawaga","Conduaga"],"latitude":"8.862","longitude":"117.4893","feature_class":"P","feature_code":"PPL","country_code":"PH","cc2":"","admin1_code":"41","admin2_code":"49","admin3_code":"","admin4_code":"","population":"5164","elevation":"","dem":"8","timezone":"Asia/Manila","modification_date":"2012-01-17"},{"geonameid":"1717014","name":"Concepcion","asciiname":"Concepcion","alternatenames":["Concepcion","Konseps'on","Консепсьон"],"latitude":"12.3975","longitude":"122.09361","feature_class":"P","feature_code":"PPLA3","country_code":"PH","cc2":"","admin1_code":"41","admin2_code":"54","admin3_code":"1717037","admin4_code":"","population":"4686","elevation":"","dem":"71","timezone":"Asia/Manila","modification_date":"2011-07-31"},{"geonameid":"1717619","name":"Cawayan","asciiname":"Cawayan","alternatenames":["Cawayan"],"latitude":"12.6557","longitude":"121.5456","feature_class":"P","feature_code":"PPL","country_code":"PH","cc2":"","admin1_code":"41","admin2_code":"41","admin3_code":"","admin4_code":"","population":"2892","elevation":"","dem":"7","timezone":"Asia/Manila","modification_date":"2012-01-17"},{"geonameid":"1718170","name":"Casian","asciiname":"Casian","alternatenames":["Casian"],"latitude":"11.035","longitude":"119.7136","feature_class":"P","feature_code":"PPL","country_code":"PH","cc2":"","admin1_code":"41","admin2_code":"49","admin3_code":"","admin4_code":"","population":"2677","elevation":"","dem":"7","timezone":"Asia/Manila","modification_date":"2012-01-17"},{"geonameid":"1718234","name":"Caruray","asciiname":"Caruray","alternatenames":["Caruray"],"latitude":"10.3094","longitude":"119.0128","feature_class":"P","feature_code":"PPL","country_code":"PH","cc2":"","admin1_code":"41","admin2_code":"49","admin3_code":"","admin4_code":"","population":"4115","elevation":"","dem":"6","timezone":"Asia/Manila","modification_date":"2012-01-17"},{"geonameid":"1718324","name":"Carmen","asciiname":"Carmen","alternatenames":["Carman","Carmen","Karmen","Кармен"],"latitude":"12.6171","longitude":"122.1211","feature_class":"P","feature_code":"PPL","country_code":"PH","cc2":"","admin1_code":"41","admin2_code":"54","admin3_code":"","admin4_code":"","population":"2677","elevation":"","dem":"9","timezone":"Asia/Manila","modification_date":"2012-01-17"},{"geonameid":"1718517","name":"Caramay","asciiname":"Caramay","alternatenames":["Caramay"],"latitude":"10.1815","longitude":"119.236","feature_class":"P","feature_code":"PPL","country_code":"PH","cc2":"","admin1_code":"41","admin2_code":"49","admin3_code":"","admin4_code":"","population":"2524","elevation":"","dem":"6","timezone":"Asia/Manila","modification_date":"2012-01-17"},{"geonameid":"1718828","name":"Canubing No 2","asciiname":"Canubing No 2","alternatenames":["Canubing No 2"],"latitude":"13.35","longitude":"121.13333","feature_class":"P","feature_code":"PPL","country_code":"PH","cc2":"","admin1_code":"41","admin2_code":"41","admin3_code":"","admin4_code":"","population":"9569","elevation":"","dem":"13","timezone":"Asia/Manila","modification_date":"2012-02-01"},{"geonameid":"1718869","name":"Cantel","asciiname":"Cantel","alternatenames":["Cantel","Cantil"],"latitude":"12.6176","longitude":"121.5136","feature_class":"P","feature_code":"PPL","country_code":"PH","cc2":"","admin1_code":"41","admin2_code":"41","admin3_code":"","admin4_code":"","population":"2648","elevation":"","dem":"17","timezone":"Asia/Manila","modification_date":"2012-01-17"},{"geonameid":"1719679","name":"Caminauit","asciiname":"Caminauit","alternatenames":["Caminauit","Caminawit"],"latitude":"12.33135","longitude":"121.08251","feature_class":"P","feature_code":"PPL","country_code":"PH","cc2":"","admin1_code":"41","admin2_code":"40","admin3_code":"","admin4_code":"","population":"11161","elevation":"","dem":"6","timezone":"Asia/Manila","modification_date":"2012-01-17"},{"geonameid":"1720269","name":"Calintaan","asciiname":"Calintaan","alternatenames":[""],"latitude":"12.56667","longitude":"120.93333","feature_class":"P","feature_code":"PPL","country_code":"PH","cc2":"","admin1_code":"41","admin2_code":"40","admin3_code":"","admin4_code":"","population":"11476","elevation":"","dem":"1","timezone":"Asia/Manila","modification_date":"2010-08-14"},{"geonameid":"1720474","name":"Calauag","asciiname":"Calauag","alternatenames":["Calauag","Calawag"],"latitude":"10.66817","longitude":"119.5705","feature_class":"P","feature_code":"PPL","country_code":"PH","cc2":"","admin1_code":"41","admin2_code":"49","admin3_code":"","admin4_code":"","population":"4379","elevation":"","dem":"14","timezone":"Asia/Manila","modification_date":"2012-01-17"},{"geonameid":"1720478","name":"Calatugas","asciiname":"Calatugas","alternatenames":["Calategas","Calatugas"],"latitude":"9.16898","longitude":"118.2235","feature_class":"P","feature_code":"PPL","country_code":"PH","cc2":"","admin1_code":"41","admin2_code":"49","admin3_code":"","admin4_code":"","population":"4542","elevation":"","dem":"9","timezone":"Asia/Manila","modification_date":"2012-01-17"},{"geonameid":"1720481","name":"Calatrava","asciiname":"Calatrava","alternatenames":["Calatrava"],"latitude":"12.6198","longitude":"122.0714","feature_class":"P","feature_code":"PPLA3","country_code":"PH","cc2":"","admin1_code":"41","admin2_code":"54","admin3_code":"1720483","admin4_code":"","population":"2225","elevation":"","dem":"8","timezone":"Asia/Manila","modification_date":"2011-07-31"},{"geonameid":"1720561","name":"Calapan","asciiname":"Calapan","alternatenames":["Calapan","Calapan City","Calapan Lakanbalen","Calapán","Dakbayan sa Calapan","Kalapan","Lungsod ng Calapan","ka la pan","kallapan","卡拉潘","칼라판"],"latitude":"13.4117","longitude":"121.1803","feature_class":"P","feature_code":"PPLA","country_code":"PH","cc2":"","admin1_code":"41","admin2_code":"13","admin3_code":"","admin4_code":"","population":"66008","elevation":"","dem":"8","timezone":"Asia/Manila","modification_date":"2010-08-14"},{"geonameid":"1720820","name":"Cajimos","asciiname":"Cajimos","alternatenames":["Cajimos"],"latitude":"12.59463","longitude":"122.27531","feature_class":"P","feature_code":"PPL","country_code":"PH","cc2":"","admin1_code":"41","admin2_code":"54","admin3_code":"","admin4_code":"","population":"2739","elevation":"","dem":"23","timezone":"Asia/Manila","modification_date":"2012-01-17"},{"geonameid":"1720823","name":"Cajidiocan","asciiname":"Cajidiocan","alternatenames":["Cajidiocan"],"latitude":"12.36696","longitude":"122.68141","feature_class":"P","feature_code":"PPLA3","country_code":"PH","cc2":"","admin1_code":"41","admin2_code":"54","admin3_code":"1720824","admin4_code":"","population":"0","elevation":"","dem":"50","timezone":"Asia/Manila","modification_date":"2014-11-16"},{"geonameid":"1720863","name":"Caigangan","asciiname":"Caigangan","alternatenames":["Caigangan"],"latitude":"13.25811","longitude":"121.93363","feature_class":"P","feature_code":"PPL","country_code":"PH","cc2":"","admin1_code":"41","admin2_code":"38","admin3_code":"","admin4_code":"","population":"2283","elevation":"","dem":"11","timezone":"Asia/Manila","modification_date":"2012-01-17"},{"geonameid":"1721077","name":"Cagayan","asciiname":"Cagayan","alternatenames":["Cagayan","Cagayan de Sulu","Cagayan de Tawi-Tawi","Kagayan","Kagayan de Tawi-Tawi","Mahalu","Tana' Mapun","Tana’ Mapun"],"latitude":"6.9747","longitude":"118.5144","feature_class":"P","feature_code":"PPL","country_code":"PH","cc2":"","admin1_code":"41","admin2_code":"49","admin3_code":"","admin4_code":"","population":"3847","elevation":"","dem":"8","timezone":"Asia/Manila","modification_date":"2013-05-07"},{"geonameid":"1721082","name":"Cagayancillo","asciiname":"Cagayancillo","alternatenames":["Cagayancillo","Nalad Cagayancillo"],"latitude":"9.57694","longitude":"121.20722","feature_class":"P","feature_code":"PPLA3","country_code":"PH","cc2":"PH","admin1_code":"41","admin2_code":"49","admin3_code":"1721083","admin4_code":"","population":"0","elevation":"","dem":"35","timezone":"Asia/Manila","modification_date":"2011-07-31"},{"geonameid":"1721491","name":"Cabra","asciiname":"Cabra","alternatenames":["Cabra"],"latitude":"13.88833","longitude":"120.04944","feature_class":"P","feature_code":"PPL","country_code":"PH","cc2":"","admin1_code":"41","admin2_code":"40","admin3_code":"","admin4_code":"","population":"3261","elevation":"","dem":"10","timezone":"Asia/Manila","modification_date":"2012-02-01"},{"geonameid":"1722053","name":"Cabacao","asciiname":"Cabacao","alternatenames":["Cabacao"],"latitude":"13.3356","longitude":"120.6588","feature_class":"P","feature_code":"PPL","country_code":"PH","cc2":"","admin1_code":"41","admin2_code":"40","admin3_code":"","admin4_code":"","population":"4486","elevation":"","dem":"24","timezone":"Asia/Manila","modification_date":"2012-01-17"},{"geonameid":"1722162","name":"Buyabod","asciiname":"Buyabod","alternatenames":["Buvabod","Buyabod","Buyabud"],"latitude":"13.4666","longitude":"122.0526","feature_class":"P","feature_code":"PPL","country_code":"PH","cc2":"","admin1_code":"41","admin2_code":"38","admin3_code":"","admin4_code":"","population":"2991","elevation":"","dem":"11","timezone":"Asia/Manila","modification_date":"2012-01-17"},{"geonameid":"1722263","name":"Busuanga","asciiname":"Busuanga","alternatenames":["Busuanga","USU"],"latitude":"12.15847","longitude":"119.91781","feature_class":"P","feature_code":"PPLA3","country_code":"PH","cc2":"","admin1_code":"41","admin2_code":"49","admin3_code":"1722264","admin4_code":"","population":"0","elevation":"","dem":"14","timezone":"Asia/Manila","modification_date":"2011-07-31"},{"geonameid":"1722384","name":"Burirao","asciiname":"Burirao","alternatenames":["Burirao"],"latitude":"9.2","longitude":"118.1","feature_class":"P","feature_code":"PPL","country_code":"PH","cc2":"","admin1_code":"41","admin2_code":"49","admin3_code":"","admin4_code":"","population":"2626","elevation":"","dem":"190","timezone":"Asia/Manila","modification_date":"2012-02-01"},{"geonameid":"1722579","name":"Bunog","asciiname":"Bunog","alternatenames":["Bunog"],"latitude":"9.14028","longitude":"117.78167","feature_class":"P","feature_code":"PPL","country_code":"PH","cc2":"","admin1_code":"41","admin2_code":"49","admin3_code":"","admin4_code":"","population":"2228","elevation":"","dem":"9","timezone":"Asia/Manila","modification_date":"2012-02-01"},{"geonameid":"1722804","name":"Buluang","asciiname":"Buluang","alternatenames":["Buluang"],"latitude":"12.23336","longitude":"119.87581","feature_class":"P","feature_code":"PPL","country_code":"PH","cc2":"","admin1_code":"41","admin2_code":"49","admin3_code":"","admin4_code":"","population":"2567","elevation":"","dem":"19","timezone":"Asia/Manila","modification_date":"2012-01-17"},{"geonameid":"1723002","name":"Bulalacao","asciiname":"Bulalacao","alternatenames":["Bulalacao","Bulalakao"],"latitude":"12.32535","longitude":"121.34351","feature_class":"P","feature_code":"PPL","country_code":"PH","cc2":"","admin1_code":"41","admin2_code":"41","admin3_code":"","admin4_code":"","population":"12027","elevation":"","dem":"12","timezone":"Asia/Manila","modification_date":"2012-01-17"},{"geonameid":"1723409","name":"Buenavista","asciiname":"Buenavista","alternatenames":["Buenavista"],"latitude":"13.25511","longitude":"121.94149","feature_class":"P","feature_code":"PPLA3","country_code":"PH","cc2":"","admin1_code":"41","admin2_code":"38","admin3_code":"1723487","admin4_code":"","population":"2743","elevation":"","dem":"10","timezone":"Asia/Manila","modification_date":"2011-07-31"},{"geonameid":"1723635","name":"Babug","asciiname":"Babug","alternatenames":["Babug","Bubog","Bubug"],"latitude":"12.37325","longitude":"121.04171","feature_class":"P","feature_code":"PPL","country_code":"PH","cc2":"","admin1_code":"41","admin2_code":"40","admin3_code":"","admin4_code":"","population":"4880","elevation":"","dem":"8","timezone":"Asia/Manila","modification_date":"2012-01-17"},{"geonameid":"1724576","name":"Boac","asciiname":"Boac","alternatenames":["Boac"],"latitude":"13.4463","longitude":"121.84","feature_class":"P","feature_code":"PPLA3","country_code":"PH","cc2":"","admin1_code":"41","admin2_code":"38","admin3_code":"1724578","admin4_code":"","population":"6566","elevation":"","dem":"17","timezone":"Asia/Manila","modification_date":"2011-07-31"},{"geonameid":"1724902","name":"Bintacay","asciiname":"Bintacay","alternatenames":["Bintacay","Bintakay"],"latitude":"13.4986","longitude":"121.8768","feature_class":"P","feature_code":"PPL","country_code":"PH","cc2":"","admin1_code":"41","admin2_code":"38","admin3_code":"","admin4_code":"","population":"2593","elevation":"","dem":"34","timezone":"Asia/Manila","modification_date":"2012-01-17"},{"geonameid":"1725676","name":"Bayuin","asciiname":"Bayuin","alternatenames":["Bayuin"],"latitude":"13.0411","longitude":"121.38852","feature_class":"P","feature_code":"PPL","country_code":"PH","cc2":"","admin1_code":"41","admin2_code":"41","admin3_code":"","admin4_code":"","population":"3069","elevation":"","dem":"22","timezone":"Asia/Manila","modification_date":"2012-01-17"},{"geonameid":"1726170","name":"Bato","asciiname":"Bato","alternatenames":["Bato"],"latitude":"10.825","longitude":"119.471","feature_class":"P","feature_code":"PPL","country_code":"PH","cc2":"","admin1_code":"41","admin2_code":"49","admin3_code":"","admin4_code":"","population":"2615","elevation":"","dem":"8","timezone":"Asia/Manila","modification_date":"2012-01-17"},{"geonameid":"1726249","name":"Batasan","asciiname":"Batasan","alternatenames":["Batasan"],"latitude":"12.76667","longitude":"120.78333","feature_class":"P","feature_code":"PPL","country_code":"PH","cc2":"","admin1_code":"41","admin2_code":"40","admin3_code":"","admin4_code":"","population":"4752","elevation":"","dem":"-9999","timezone":"Asia/Manila","modification_date":"2012-02-01"},{"geonameid":"1726256","name":"Batarasa","asciiname":"Batarasa","alternatenames":["Batarasa","Bataraza"],"latitude":"8.66167","longitude":"117.62222","feature_class":"P","feature_code":"PPL","country_code":"PH","cc2":"","admin1_code":"41","admin2_code":"49","admin3_code":"","admin4_code":"","population":"6169","elevation":"","dem":"6","timezone":"Asia/Manila","modification_date":"2012-01-17"},{"geonameid":"1726606","name":"Barong Barong","asciiname":"Barong Barong","alternatenames":["Barong Barong"],"latitude":"8.8535","longitude":"117.8939","feature_class":"P","feature_code":"PPL","country_code":"PH","cc2":"","admin1_code":"41","admin2_code":"49","admin3_code":"","admin4_code":"","population":"3604","elevation":"","dem":"21","timezone":"Asia/Manila","modification_date":"2012-01-17"},{"geonameid":"1726832","name":"Barahan","asciiname":"Barahan","alternatenames":["Barahan"],"latitude":"13.0121","longitude":"120.762","feature_class":"P","feature_code":"PPL","country_code":"PH","cc2":"","admin1_code":"41","admin2_code":"40","admin3_code":"","admin4_code":"","population":"6414","elevation":"","dem":"6","timezone":"Asia/Manila","modification_date":"2012-01-17"},{"geonameid":"1727073","name":"Bansud","asciiname":"Bansud","alternatenames":[""],"latitude":"12.865","longitude":"121.45639","feature_class":"P","feature_code":"PPLA3","country_code":"PH","cc2":"","admin1_code":"41","admin2_code":"41","admin3_code":"1727074","admin4_code":"","population":"13758","elevation":"","dem":"15","timezone":"Asia/Manila","modification_date":"2011-07-31"},{"geonameid":"1727099","name":"Banos","asciiname":"Banos","alternatenames":["Banos"],"latitude":"12.64553","longitude":"120.90972","feature_class":"P","feature_code":"PPL","country_code":"PH","cc2":"","admin1_code":"41","admin2_code":"40","admin3_code":"","admin4_code":"","population":"2340","elevation":"","dem":"12","timezone":"Asia/Manila","modification_date":"2012-01-17"},{"geonameid":"1727760","name":"Balugo","asciiname":"Balugo","alternatenames":["Balugo"],"latitude":"12.57923","longitude":"121.43931","feature_class":"P","feature_code":"PPL","country_code":"PH","cc2":"","admin1_code":"41","admin2_code":"41","admin3_code":"","admin4_code":"","population":"2666","elevation":"","dem":"37","timezone":"Asia/Manila","modification_date":"2012-01-17"},{"geonameid":"1728249","name":"Calamundingan","asciiname":"Calamundingan","alternatenames":["Balete","Balite","Calamundingan"],"latitude":"12.93101","longitude":"121.47062","feature_class":"P","feature_code":"PPL","country_code":"PH","cc2":"","admin1_code":"41","admin2_code":"41","admin3_code":"","admin4_code":"","population":"2502","elevation":"","dem":"13","timezone":"Asia/Manila","modification_date":"2012-01-17"},{"geonameid":"1728382","name":"Balatero","asciiname":"Balatero","alternatenames":["Balatero"],"latitude":"13.5021","longitude":"120.9244","feature_class":"P","feature_code":"PPL","country_code":"PH","cc2":"","admin1_code":"41","admin2_code":"41","admin3_code":"","admin4_code":"","population":"3746","elevation":"","dem":"84","timezone":"Asia/Manila","modification_date":"2012-01-17"},{"geonameid":"1728539","name":"Balanacan","asciiname":"Balanacan","alternatenames":["Balanacan","Balanakan"],"latitude":"13.5289","longitude":"121.8677","feature_class":"P","feature_code":"PPL","country_code":"PH","cc2":"","admin1_code":"41","admin2_code":"38","admin3_code":"","admin4_code":"","population":"3547","elevation":"","dem":"6","timezone":"Asia/Manila","modification_date":"2012-01-17"},{"geonameid":"1728675","name":"Balabac","asciiname":"Balabac","alternatenames":["Balabac"],"latitude":"7.98363","longitude":"117.04868","feature_class":"P","feature_code":"PPLA3","country_code":"PH","cc2":"","admin1_code":"41","admin2_code":"49","admin3_code":"1728677","admin4_code":"","population":"9881","elevation":"","dem":"13","timezone":"Asia/Manila","modification_date":"2014-11-16"},{"geonameid":"1728823","name":"Baheli","asciiname":"Baheli","alternatenames":["Baheli","Bahile"],"latitude":"10.01369","longitude":"118.77294","feature_class":"P","feature_code":"PPL","country_code":"PH","cc2":"","admin1_code":"41","admin2_code":"49","admin3_code":"","admin4_code":"","population":"2255","elevation":"","dem":"5","timezone":"Asia/Manila","modification_date":"2014-11-03"},{"geonameid":"1729022","name":"Bagong Sikat","asciiname":"Bagong Sikat","alternatenames":["Bagong Sikat"],"latitude":"12.36745","longitude":"121.06171","feature_class":"P","feature_code":"PPL","country_code":"PH","cc2":"","admin1_code":"41","admin2_code":"40","admin3_code":"","admin4_code":"","population":"5468","elevation":"","dem":"8","timezone":"Asia/Manila","modification_date":"2012-01-17"},{"geonameid":"1729456","name":"Bacungan","asciiname":"Bacungan","alternatenames":[""],"latitude":"9.91056","longitude":"118.70222","feature_class":"P","feature_code":"PPL","country_code":"PH","cc2":"","admin1_code":"41","admin2_code":"49","admin3_code":"","admin4_code":"","population":"3975","elevation":"","dem":"9","timezone":"Asia/Manila","modification_date":"2010-08-14"},{"geonameid":"1729592","name":"Baco","asciiname":"Baco","alternatenames":["Baco"],"latitude":"13.3573","longitude":"121.0983","feature_class":"P","feature_code":"PPLA3","country_code":"PH","cc2":"","admin1_code":"41","admin2_code":"41","admin3_code":"1729593","admin4_code":"","population":"2903","elevation":"","dem":"12","timezone":"Asia/Manila","modification_date":"2011-07-31"},{"geonameid":"1729929","name":"Aurora","asciiname":"Aurora","alternatenames":["Aurora"],"latitude":"13.2322","longitude":"121.1203","feature_class":"P","feature_code":"PPL","country_code":"PH","cc2":"","admin1_code":"41","admin2_code":"41","admin3_code":"","admin4_code":"","population":"3481","elevation":"","dem":"41","timezone":"Asia/Manila","modification_date":"2012-01-17"},{"geonameid":"1730258","name":"Aramawayan","asciiname":"Aramawayan","alternatenames":["Aramawayan","Aramaywan"],"latitude":"9.34247","longitude":"118.1623","feature_class":"P","feature_code":"PPL","country_code":"PH","cc2":"","admin1_code":"41","admin2_code":"49","admin3_code":"","admin4_code":"","population":"3586","elevation":"","dem":"64","timezone":"Asia/Manila","modification_date":"2012-01-17"},{"geonameid":"1730259","name":"Aramayuan","asciiname":"Aramayuan","alternatenames":["Aramayuan","Aramaywan"],"latitude":"9.17008","longitude":"118.1872","feature_class":"P","feature_code":"PPL","country_code":"PH","cc2":"","admin1_code":"41","admin2_code":"49","admin3_code":"","admin4_code":"","population":"3487","elevation":"","dem":"6","timezone":"Asia/Manila","modification_date":"2012-01-17"},{"geonameid":"1730272","name":"Araceli","asciiname":"Araceli","alternatenames":["Araceli","Dumaran"],"latitude":"10.5529","longitude":"119.9913","feature_class":"P","feature_code":"PPL","country_code":"PH","cc2":"","admin1_code":"41","admin2_code":"49","admin3_code":"","admin4_code":"","population":"3111","elevation":"","dem":"6","timezone":"Asia/Manila","modification_date":"2012-01-17"},{"geonameid":"1730290","name":"Apurawan","asciiname":"Apurawan","alternatenames":["Aporawan","Apurahuan","Apurauan","Apurawan"],"latitude":"9.5994","longitude":"118.3489","feature_class":"P","feature_code":"PPL","country_code":"PH","cc2":"","admin1_code":"41","admin2_code":"49","admin3_code":"","admin4_code":"","population":"2943","elevation":"","dem":"9","timezone":"Asia/Manila","modification_date":"2012-01-17"},{"geonameid":"1730353","name":"Apitong","asciiname":"Apitong","alternatenames":["Apitong"],"latitude":"13.2391","longitude":"121.2075","feature_class":"P","feature_code":"PPL","country_code":"PH","cc2":"","admin1_code":"41","admin2_code":"41","admin3_code":"","admin4_code":"","population":"2402","elevation":"","dem":"29","timezone":"Asia/Manila","modification_date":"2012-01-17"},{"geonameid":"1730663","name":"Anilao","asciiname":"Anilao","alternatenames":["Anilao"],"latitude":"12.71402","longitude":"121.51242","feature_class":"P","feature_code":"PPL","country_code":"PH","cc2":"","admin1_code":"41","admin2_code":"41","admin3_code":"","admin4_code":"","population":"2677","elevation":"","dem":"14","timezone":"Asia/Manila","modification_date":"2012-01-17"},{"geonameid":"1731450","name":"Alemanguan","asciiname":"Alemanguan","alternatenames":["Alemanguan","Alimanguan"],"latitude":"10.61177","longitude":"119.3268","feature_class":"P","feature_code":"PPL","country_code":"PH","cc2":"","admin1_code":"41","admin2_code":"49","admin3_code":"","admin4_code":"","population":"3324","elevation":"","dem":"1","timezone":"Asia/Manila","modification_date":"2012-01-17"},{"geonameid":"1731502","name":"Alibug","asciiname":"Alibug","alternatenames":["Alibog","Alibug"],"latitude":"12.22906","longitude":"121.22811","feature_class":"P","feature_code":"PPL","country_code":"PH","cc2":"","admin1_code":"41","admin2_code":"40","admin3_code":"","admin4_code":"","population":"2576","elevation":"","dem":"33","timezone":"Asia/Manila","modification_date":"2012-01-17"},{"geonameid":"1731531","name":"Algeciras","asciiname":"Algeciras","alternatenames":["Algeciras"],"latitude":"11.4154","longitude":"120.8168","feature_class":"P","feature_code":"PPL","country_code":"PH","cc2":"","admin1_code":"41","admin2_code":"49","admin3_code":"","admin4_code":"","population":"4007","elevation":"","dem":"16","timezone":"Asia/Manila","modification_date":"2012-01-17"},{"geonameid":"1731592","name":"Alcantara","asciiname":"Alcantara","alternatenames":["Alcantara"],"latitude":"12.2589","longitude":"122.0544","feature_class":"P","feature_code":"PPLA3","country_code":"PH","cc2":"","admin1_code":"41","admin2_code":"54","admin3_code":"1731595","admin4_code":"","population":"2251","elevation":"","dem":"8","timezone":"Asia/Manila","modification_date":"2011-07-31"},{"geonameid":"1731730","name":"Alad","asciiname":"Alad","alternatenames":["Alad"],"latitude":"12.61682","longitude":"122.24751","feature_class":"P","feature_code":"PPL","country_code":"PH","cc2":"","admin1_code":"41","admin2_code":"54","admin3_code":"","admin4_code":"","population":"2543","elevation":"","dem":"15","timezone":"Asia/Manila","modification_date":"2012-01-17"},{"geonameid":"1731798","name":"Agutaya","asciiname":"Agutaya","alternatenames":["Agatuya","Agutaya"],"latitude":"11.148","longitude":"120.9417","feature_class":"P","feature_code":"PPL","country_code":"PH","cc2":"","admin1_code":"41","admin2_code":"49","admin3_code":"","admin4_code":"","population":"4989","elevation":"","dem":"23","timezone":"Asia/Manila","modification_date":"2012-01-17"},{"geonameid":"1732246","name":"Adela","asciiname":"Adela","alternatenames":["Adela"],"latitude":"12.44164","longitude":"120.97291","feature_class":"P","feature_code":"PPL","country_code":"PH","cc2":"","admin1_code":"41","admin2_code":"40","admin3_code":"","admin4_code":"","population":"3926","elevation":"","dem":"8","timezone":"Asia/Manila","modification_date":"2012-01-17"},{"geonameid":"1732378","name":"Abra de Ilog","asciiname":"Abra de Ilog","alternatenames":["Abra de Ilog"],"latitude":"13.4437","longitude":"120.7291","feature_class":"P","feature_code":"PPLA3","country_code":"PH","cc2":"","admin1_code":"41","admin2_code":"40","admin3_code":"1732379","admin4_code":"","population":"2971","elevation":"","dem":"23","timezone":"Asia/Manila","modification_date":"2011-07-31"},{"geonameid":"1732385","name":"Aborlan","asciiname":"Aborlan","alternatenames":["Aborlan"],"latitude":"9.43361","longitude":"118.54879","feature_class":"P","feature_code":"PPL","country_code":"PH","cc2":"","admin1_code":"41","admin2_code":"49","admin3_code":"1732386","admin4_code":"","population":"4790","elevation":"","dem":"11","timezone":"Asia/Manila","modification_date":"2014-08-21"},{"geonameid":"9485503","name":"Barangay of Poblacion","asciiname":"Barangay of Poblacion","alternatenames":[""],"latitude":"13.31768","longitude":"122.07935","feature_class":"P","feature_code":"PPLA4","country_code":"PH","cc2":"","admin1_code":"41","admin2_code":"","admin3_code":"","admin4_code":"","population":"0","elevation":"","dem":"28","timezone":"Asia/Manila","modification_date":"2014-09-07"}]}