{"region_data":{"adminCode1":"02","lng":"165.83333","geonameId":2140464,"toponymName":"Province Sud","countryId":"2139685","fcl":"A","population":0,"numberOfChildren":13,"countryCode":"NC","name":"South Province","fclName":"country, state, region,...","countryName":"New Caledonia","fcodeName":"first-order administrative division","adminName1":"South Province","lat":"-21.75","fcode":"ADM1"},"country_data":{"ISO":"NC","ISO3":"NCL","ISO_Numeric":"540","fips":"NC","country":"New Caledonia","capital":"Noumea","area":"19060","Population":"216494","Continent":"OC","tld":".nc","CurrencyCode":"XPF","CurrencyName":"Franc","Phone":"687","Postal_Code_Format":"#####","Postal_Code_Regex":"^(\\d{5})$","Languages":"fr-NC","geonameid":"2139685","neighbours":"","EquivalentFipsCode":""},"cities":[{"geonameid":"2138103","name":"Thio","asciiname":"Thio","alternatenames":["Thio"],"latitude":"-21.61667","longitude":"166.21667","feature_class":"P","feature_code":"PPLA2","country_code":"NC","cc2":"","admin1_code":"02","admin2_code":"98829","admin3_code":"","admin4_code":"","population":"2748","elevation":"","dem":"12","timezone":"Pacific/Noumea","modification_date":"2014-04-01"},{"geonameid":"2138981","name":"Païta","asciiname":"Paita","alternatenames":["Paita","Païta"],"latitude":"-22.13333","longitude":"166.36667","feature_class":"P","feature_code":"PPL","country_code":"NC","cc2":"","admin1_code":"02","admin2_code":"98821","admin3_code":"","admin4_code":"","population":"12617","elevation":"","dem":"18","timezone":"Pacific/Noumea","modification_date":"2012-02-02"},{"geonameid":"2139521","name":"Nouméa","asciiname":"Noumea","alternatenames":["NOU","Nomea","Noumea","Nouméa","Numea","Numeja","Numeo","Numėja","Port de France","nu me xa","nu mei a","nume'a","numea","nwmya","Νουμεά","Нумеа","נומאה","نوميا","نومیا","नूमेआ","นูเมอา","ნუმეა","ヌメア","努美阿","누메아"],"latitude":"-22.27631","longitude":"166.4572","feature_class":"P","feature_code":"PPLC","country_code":"NC","cc2":"","admin1_code":"02","admin2_code":"98818","admin3_code":"","admin4_code":"","population":"93060","elevation":"","dem":"11","timezone":"Pacific/Noumea","modification_date":"2014-04-26"},{"geonameid":"2140066","name":"Mont-Dore","asciiname":"Mont-Dore","alternatenames":[""],"latitude":"-22.28333","longitude":"166.58333","feature_class":"P","feature_code":"PPL","country_code":"NC","cc2":"","admin1_code":"02","admin2_code":"98817","admin3_code":"","admin4_code":"","population":"24680","elevation":"","dem":"9","timezone":"Pacific/Noumea","modification_date":"2013-05-03"},{"geonameid":"2140466","name":"La Foa","asciiname":"La Foa","alternatenames":[""],"latitude":"-21.71079","longitude":"165.82764","feature_class":"P","feature_code":"PPLA","country_code":"NC","cc2":"","admin1_code":"02","admin2_code":"98813","admin3_code":"","admin4_code":"","population":"2947","elevation":"","dem":"24","timezone":"Pacific/Noumea","modification_date":"2013-05-03"},{"geonameid":"2141394","name":"Dumbéa","asciiname":"Dumbea","alternatenames":["Dumbea","Dumbéa"],"latitude":"-22.15","longitude":"166.45","feature_class":"P","feature_code":"PPL","country_code":"NC","cc2":"","admin1_code":"02","admin2_code":"98805","admin3_code":"","admin4_code":"","population":"19346","elevation":"","dem":"11","timezone":"Pacific/Noumea","modification_date":"2012-02-02"},{"geonameid":"2141714","name":"Bourail","asciiname":"Bourail","alternatenames":["Bourail","Boureil","Burail"],"latitude":"-21.5669","longitude":"165.49736","feature_class":"P","feature_code":"PPL","country_code":"NC","cc2":"","admin1_code":"02","admin2_code":"98803","admin3_code":"","admin4_code":"","population":"4826","elevation":"","dem":"9","timezone":"Pacific/Noumea","modification_date":"2014-10-07"},{"geonameid":"2141722","name":"Bouloupari","asciiname":"Bouloupari","alternatenames":["Bouloupari","Boulouparis","Bulupari"],"latitude":"-21.86667","longitude":"166.05","feature_class":"P","feature_code":"PPL","country_code":"NC","cc2":"","admin1_code":"02","admin2_code":"98802","admin3_code":"","admin4_code":"","population":"2146","elevation":"","dem":"9","timezone":"Pacific/Noumea","modification_date":"2012-01-18"}]}