{"region_data":{"countryId":"298795","adminCode1":"03","countryName":"Turkey","fclName":"country, state, region,...","countryCode":"TR","lng":"30.66667","fcodeName":"first-order administrative division","toponymName":"Afyonkarahisar","fcl":"A","numberOfChildren":18,"name":"Afyonkarahisar","fcode":"ADM1","geonameId":325302,"lat":"38.75","adminName1":"Afyonkarahisar","population":707123},"country_data":{"ISO":"TR","ISO3":"TUR","ISO_Numeric":"792","fips":"TU","country":"Turkey","capital":"Ankara","area":"780580","Population":"77804122","Continent":"AS","tld":".tr","CurrencyCode":"TRY","CurrencyName":"Lira","Phone":"90","Postal_Code_Format":"#####","Postal_Code_Regex":"^(\\d{5})$","Languages":"tr-TR,ku,diq,az,av","geonameid":"298795","neighbours":"SY,GE,IQ,IR,GR,AM,AZ,BG","EquivalentFipsCode":""},"cities":[{"geonameid":"298371","name":"Umraniye","asciiname":"Umraniye","alternatenames":["Batik","Batık","Umraniye"],"latitude":"39.175","longitude":"31.23444","feature_class":"P","feature_code":"PPLA3","country_code":"TR","cc2":"","admin1_code":"03","admin2_code":"","admin3_code":"","admin4_code":"","population":"0","elevation":"","dem":"905","timezone":"Europe/Istanbul","modification_date":"2013-09-08"},{"geonameid":"300201","name":"Sultandağı","asciiname":"Sultandagi","alternatenames":["Isakli","Ishakli","Sultandagi","Sultandağı","İsaklı","İshaklı"],"latitude":"38.53111","longitude":"31.22806","feature_class":"P","feature_code":"PPLA2","country_code":"TR","cc2":"","admin1_code":"03","admin2_code":"","admin3_code":"","admin4_code":"","population":"7550","elevation":"","dem":"1017","timezone":"Europe/Istanbul","modification_date":"2012-04-05"},{"geonameid":"300273","name":"Şuhut","asciiname":"Suhut","alternatenames":["Suhut","Şuhut"],"latitude":"38.53111","longitude":"30.54583","feature_class":"P","feature_code":"PPLA2","country_code":"TR","cc2":"","admin1_code":"03","admin2_code":"","admin3_code":"","admin4_code":"","population":"13842","elevation":"","dem":"1138","timezone":"Europe/Istanbul","modification_date":"2012-04-05"},{"geonameid":"300754","name":"Sincanlı","asciiname":"Sincanli","alternatenames":["Sinanpasa","Sinanpaşa","Sincanli","Sincanlı"],"latitude":"38.74444","longitude":"30.24278","feature_class":"P","feature_code":"PPLA2","country_code":"TR","cc2":"","admin1_code":"03","admin2_code":"","admin3_code":"","admin4_code":"","population":"5940","elevation":"","dem":"1121","timezone":"Europe/Istanbul","modification_date":"2013-08-06"},{"geonameid":"307129","name":"Kızılören","asciiname":"Kiziloren","alternatenames":["Kiziloren","Kizilviran","Kızılviran","Kızılören"],"latitude":"38.25806","longitude":"30.15167","feature_class":"P","feature_code":"PPLA2","country_code":"TR","cc2":"","admin1_code":"03","admin2_code":"","admin3_code":"","admin4_code":"","population":"2403","elevation":"","dem":"1111","timezone":"Europe/Istanbul","modification_date":"2012-04-05"},{"geonameid":"311159","name":"Işıklar","asciiname":"Isiklar","alternatenames":["Isiklar","Işıklar"],"latitude":"38.64444","longitude":"30.70611","feature_class":"P","feature_code":"PPL","country_code":"TR","cc2":"","admin1_code":"03","admin2_code":"","admin3_code":"","admin4_code":"","population":"7250","elevation":"","dem":"1125","timezone":"Europe/Istanbul","modification_date":"2013-05-05"},{"geonameid":"311193","name":"İscehisar","asciiname":"Iscehisar","alternatenames":["Iscehisar","İscehisar"],"latitude":"38.86194","longitude":"30.75028","feature_class":"P","feature_code":"PPLA2","country_code":"TR","cc2":"","admin1_code":"03","admin2_code":"","admin3_code":"","admin4_code":"","population":"11809","elevation":"","dem":"1076","timezone":"Europe/Istanbul","modification_date":"2012-04-05"},{"geonameid":"311645","name":"İhsaniye","asciiname":"Ihsaniye","alternatenames":["Ihsaniye","İhsaniye"],"latitude":"39.02916","longitude":"30.41639","feature_class":"P","feature_code":"PPLA2","country_code":"TR","cc2":"","admin1_code":"03","admin2_code":"","admin3_code":"","admin4_code":"","population":"5767","elevation":"","dem":"1101","timezone":"Europe/Istanbul","modification_date":"2012-04-05"},{"geonameid":"316329","name":"Dombay","asciiname":"Dombay","alternatenames":["Dombay","Dombayova"],"latitude":"38.15421","longitude":"30.20876","feature_class":"P","feature_code":"PPLA3","country_code":"TR","cc2":"","admin1_code":"03","admin2_code":"","admin3_code":"","admin4_code":"","population":"0","elevation":"","dem":"1038","timezone":"Europe/Istanbul","modification_date":"2013-09-08"},{"geonameid":"316634","name":"Dinar","asciiname":"Dinar","alternatenames":["Apamea Cibotus","Celaenae","Dinar","Dinar i Tyrkia","Dineir","Geyiklar","di na er","dynar","Динар","دینار","ضلع دینار","迪納爾"],"latitude":"38.065","longitude":"30.16557","feature_class":"P","feature_code":"PPLA2","country_code":"TR","cc2":"","admin1_code":"03","admin2_code":"","admin3_code":"","admin4_code":"","population":"35359","elevation":"","dem":"863","timezone":"Europe/Istanbul","modification_date":"2012-04-05"},{"geonameid":"317496","name":"Dazkırı","asciiname":"Dazkiri","alternatenames":["Daskiri","Daskırı","Dazkiri","Dazkırı","Polatli","Polatlı","Pulatli","Tazkiri","Tazkırı"],"latitude":"37.91861","longitude":"29.86056","feature_class":"P","feature_code":"PPLA2","country_code":"TR","cc2":"","admin1_code":"03","admin2_code":"","admin3_code":"","admin4_code":"","population":"6450","elevation":"","dem":"882","timezone":"Europe/Istanbul","modification_date":"2012-04-05"},{"geonameid":"317524","name":"Davulga","asciiname":"Davulga","alternatenames":["Davulga"],"latitude":"38.97917","longitude":"31.37139","feature_class":"P","feature_code":"PPLA3","country_code":"TR","cc2":"","admin1_code":"03","admin2_code":"","admin3_code":"","admin4_code":"","population":"0","elevation":"","dem":"1032","timezone":"Europe/Istanbul","modification_date":"2013-09-08"},{"geonameid":"318227","name":"Çobanlar","asciiname":"Cobanlar","alternatenames":["Buyuk Cobanlar","Büyük Çobanlar","Cobanlar","Çobanlar"],"latitude":"38.70139","longitude":"30.78278","feature_class":"P","feature_code":"PPLA2","country_code":"TR","cc2":"","admin1_code":"03","admin2_code":"","admin3_code":"","admin4_code":"","population":"0","elevation":"","dem":"992","timezone":"Europe/Istanbul","modification_date":"2012-04-05"},{"geonameid":"319104","name":"Çay","asciiname":"Cay","alternatenames":["Cay","Kej","Çay","Кей"],"latitude":"38.59167","longitude":"31.02861","feature_class":"P","feature_code":"PPLA2","country_code":"TR","cc2":"","admin1_code":"03","admin2_code":"","admin3_code":"","admin4_code":"","population":"34215","elevation":"","dem":"1039","timezone":"Europe/Istanbul","modification_date":"2013-08-06"},{"geonameid":"320879","name":"Bolvadin","asciiname":"Bolvadin","alternatenames":["Bolvadin"],"latitude":"38.71111","longitude":"31.04861","feature_class":"P","feature_code":"PPLA2","country_code":"TR","cc2":"","admin1_code":"03","admin2_code":"","admin3_code":"","admin4_code":"","population":"55870","elevation":"","dem":"995","timezone":"Europe/Istanbul","modification_date":"2012-04-05"},{"geonameid":"321814","name":"Bayat","asciiname":"Bayat","alternatenames":["Bayat","Hambarcin","Hambarçin"],"latitude":"38.98306","longitude":"30.92472","feature_class":"P","feature_code":"PPLA2","country_code":"TR","cc2":"","admin1_code":"03","admin2_code":"","admin3_code":"","admin4_code":"","population":"4790","elevation":"","dem":"1063","timezone":"Europe/Istanbul","modification_date":"2012-04-05"},{"geonameid":"321887","name":"Başmakçı","asciiname":"Basmakci","alternatenames":["Basmakci","Başmakçı"],"latitude":"37.89722","longitude":"30.01167","feature_class":"P","feature_code":"PPLA2","country_code":"TR","cc2":"","admin1_code":"03","admin2_code":"","admin3_code":"","admin4_code":"","population":"8415","elevation":"","dem":"858","timezone":"Europe/Istanbul","modification_date":"2012-04-05"},{"geonameid":"325303","name":"Afyonkarahisar","asciiname":"Afyonkarahisar","alternatenames":["AFY","Acroenus","Acroënus","Af'on-Karakhisar","Af'onkarakhisar","Afion","Afion Karachisar","Afion Karahissar","Afion-Karahisar","Afionkarakhisar","Afioun-Kara-Hissar","Afium Kara Hissar","Afium Karahisar","Afiun Karahissar","Afiun Qarahisar","Afiun-Carahissar","Afjonkarahisaras","Afyon","Afyonkara Hisar","Afyonkarahisar","Afıon Karahissar","Gorad Afjon","Kara Hissar Sahib","Karahisarisahip","Karahısarısahıp","a fei yong ka la xi sa er","afiyonkarahisaru","afywn qrh hsar","apionkalahisaleu","Αφιόν Καραχισάρ","Афионкарахисар","АфйонкъарахӀисар","Афьон-Карахисар","Афьон-Карахісар","Афьонкарахисар","Горад Афён","Աֆիոն-Կարահիսար","أفيون قره حصار","ئافيون قاراھىسار","افیون قره‌حصار","افیون‌ قره حصاری","قره ‌حصار ساحب","აფიონ-ყარაჰისარი","アフィヨンカラヒサール","阿菲永卡拉希萨尔","아피온카라히사르"],"latitude":"38.75667","longitude":"30.54333","feature_class":"P","feature_code":"PPLA","country_code":"TR","cc2":"","admin1_code":"03","admin2_code":"","admin3_code":"","admin4_code":"","population":"146136","elevation":"","dem":"1019","timezone":"Europe/Istanbul","modification_date":"2012-04-29"},{"geonameid":"301911","name":"Sandıklı","asciiname":"Sandikli","alternatenames":["Sandikli","Sandykly","Sandıklı","sandyqly","sang de ke lei","Сандикли","Сандыклы","صاندیقلی","ضلع ساندیکی","桑德克勒"],"latitude":"38.46472","longitude":"30.26946","feature_class":"P","feature_code":"PPLA2","country_code":"TR","cc2":"","admin1_code":"03","admin2_code":"","admin3_code":"","admin4_code":"","population":"42981","elevation":"","dem":"1086","timezone":"Europe/Istanbul","modification_date":"2012-04-05"},{"geonameid":"315621","name":"Emirdağ","asciiname":"Emirdag","alternatenames":["Aziziye","Distretto di Emirdag","Distretto di Emirdağ","Ehmirdag","Emirdag","Emirdağ","ai mi er da","amyrdagh","Эмирдаг","امیرداغ","ضلع امیرداگ","埃米爾達"],"latitude":"39.01972","longitude":"31.15","feature_class":"P","feature_code":"PPLA2","country_code":"TR","cc2":"","admin1_code":"03","admin2_code":"","admin3_code":"","admin4_code":"","population":"20063","elevation":"","dem":"964","timezone":"Europe/Istanbul","modification_date":"2012-04-05"}]}