{"region_data":{"countryId":"298795","adminCode1":"75","countryName":"Turkey","fclName":"country, state, region,...","countryCode":"TR","lng":"34.0142","fcodeName":"first-order administrative division","toponymName":"Aksaray","fcl":"A","numberOfChildren":7,"name":"Aksaray","fcode":"ADM1","geonameId":443185,"lat":"38.36504","adminName1":"Aksaray","population":382806},"country_data":{"ISO":"TR","ISO3":"TUR","ISO_Numeric":"792","fips":"TU","country":"Turkey","capital":"Ankara","area":"780580","Population":"77804122","Continent":"AS","tld":".tr","CurrencyCode":"TRY","CurrencyName":"Lira","Phone":"90","Postal_Code_Format":"#####","Postal_Code_Regex":"^(\\d{5})$","Languages":"tr-TR,ku,diq,az,av","geonameid":"298795","neighbours":"SY,GE,IQ,IR,GR,AM,AZ,BG","EquivalentFipsCode":""},"cities":[{"geonameid":"296821","name":"Yeşilova","asciiname":"Yesilova","alternatenames":["Acem","Yesilova","Yeşilova"],"latitude":"38.4095","longitude":"33.83804","feature_class":"P","feature_code":"PPLA3","country_code":"TR","cc2":"","admin1_code":"75","admin2_code":"","admin3_code":"","admin4_code":"","population":"0","elevation":"","dem":"935","timezone":"Europe/Istanbul","modification_date":"2013-09-08"},{"geonameid":"299658","name":"Taşpınar","asciiname":"Taspinar","alternatenames":["Taspinar","Taşpınar"],"latitude":"38.17963","longitude":"34.02499","feature_class":"P","feature_code":"PPLA3","country_code":"TR","cc2":"","admin1_code":"75","admin2_code":"","admin3_code":"","admin4_code":"","population":"0","elevation":"","dem":"1056","timezone":"Europe/Istanbul","modification_date":"2013-09-08"},{"geonameid":"300197","name":"Sultanhanı","asciiname":"Sultanhani","alternatenames":["Sultanhani","Sultanhanı"],"latitude":"38.2471","longitude":"33.54961","feature_class":"P","feature_code":"PPLA3","country_code":"TR","cc2":"","admin1_code":"75","admin2_code":"","admin3_code":"","admin4_code":"","population":"0","elevation":"","dem":"945","timezone":"Europe/Istanbul","modification_date":"2013-09-08"},{"geonameid":"322202","name":"Balcı","asciiname":"Balci","alternatenames":["Balci","Balcı"],"latitude":"38.72532","longitude":"34.10123","feature_class":"P","feature_code":"PPLA3","country_code":"TR","cc2":"","admin1_code":"75","admin2_code":"","admin3_code":"","admin4_code":"","population":"0","elevation":"","dem":"1160","timezone":"Europe/Istanbul","modification_date":"2013-09-08"},{"geonameid":"324496","name":"Aksaray","asciiname":"Aksaray","alternatenames":["Aksarai","Aksaraj","Aksarajus","Aksaray","Akusaraj","Aqserayiye","Gorad Aksaraj","a ke sa lai","agsalai","akasara'e","aksarai","akusarai","aq sray","Ακσαράι","Аксарай","Аксарај","Акъсарай","Ақсарай","Горад Аксарай","آق سراي","آق‌سرای","آکسرے","ਅਕਸਾਰਾਏ","აქსარაი","アクサライ","阿克萨赖","악사라이"],"latitude":"38.37255","longitude":"34.02537","feature_class":"P","feature_code":"PPLA","country_code":"TR","cc2":"","admin1_code":"75","admin2_code":"","admin3_code":"","admin4_code":"","population":"152201","elevation":"","dem":"976","timezone":"Europe/Istanbul","modification_date":"2012-01-18"},{"geonameid":"325269","name":"Ağaçören","asciiname":"Agacoren","alternatenames":["Agacoren","Ağaçören","Panli","Panlı"],"latitude":"38.87484","longitude":"33.91674","feature_class":"P","feature_code":"PPLA2","country_code":"TR","cc2":"","admin1_code":"75","admin2_code":"","admin3_code":"","admin4_code":"","population":"5822","elevation":"","dem":"1232","timezone":"Europe/Istanbul","modification_date":"2012-01-18"},{"geonameid":"325278","name":"Gülağaç","asciiname":"Gulagac","alternatenames":["Agacli","Ağaçlı","Gulagac","Gülağaç"],"latitude":"38.39576","longitude":"34.34576","feature_class":"P","feature_code":"PPLA2","country_code":"TR","cc2":"","admin1_code":"75","admin2_code":"","admin3_code":"","admin4_code":"","population":"0","elevation":"","dem":"1180","timezone":"Europe/Istanbul","modification_date":"2012-01-18"},{"geonameid":"325423","name":"Acıpınar","asciiname":"Acipinar","alternatenames":["Acipinar","Acıpınar"],"latitude":"38.52671","longitude":"33.85225","feature_class":"P","feature_code":"PPLA3","country_code":"TR","cc2":"","admin1_code":"75","admin2_code":"","admin3_code":"","admin4_code":"","population":"0","elevation":"","dem":"993","timezone":"Europe/Istanbul","modification_date":"2013-09-08"},{"geonameid":"301566","name":"Sarıyahşi","asciiname":"Sariyahsi","alternatenames":["Sariyahsi","Sarıyahşi"],"latitude":"38.98349","longitude":"33.84136","feature_class":"P","feature_code":"PPLA2","country_code":"TR","cc2":"","admin1_code":"75","admin2_code":"","admin3_code":"","admin4_code":"","population":"8704","elevation":"","dem":"971","timezone":"Europe/Istanbul","modification_date":"2012-01-18"},{"geonameid":"303290","name":"Ortaköy","asciiname":"Ortakoy","alternatenames":["Ortakoy","Ortaköy"],"latitude":"38.73728","longitude":"34.03866","feature_class":"P","feature_code":"PPLA2","country_code":"TR","cc2":"","admin1_code":"75","admin2_code":"","admin3_code":"","admin4_code":"","population":"31144","elevation":"","dem":"1226","timezone":"Europe/Istanbul","modification_date":"2012-01-18"}]}