{"region_data":{"countryId":"298795","adminCode1":"87","countryName":"Turkey","fclName":"country, state, region,...","countryCode":"TR","lng":"32.5","fcodeName":"first-order administrative division","toponymName":"Bartın","fcl":"A","numberOfChildren":3,"name":"Bartın","fcode":"ADM1","geonameId":862467,"lat":"41.58333","adminName1":"Bartın","population":189139},"country_data":{"ISO":"TR","ISO3":"TUR","ISO_Numeric":"792","fips":"TU","country":"Turkey","capital":"Ankara","area":"780580","Population":"77804122","Continent":"AS","tld":".tr","CurrencyCode":"TRY","CurrencyName":"Lira","Phone":"90","Postal_Code_Format":"#####","Postal_Code_Regex":"^(\\d{5})$","Languages":"tr-TR,ku,diq,az,av","geonameid":"298795","neighbours":"SY,GE,IQ,IR,GR,AM,AZ,BG","EquivalentFipsCode":""},"cities":[{"geonameid":"738390","name":"Ulus","asciiname":"Ulus","alternatenames":["Ulus"],"latitude":"41.58417","longitude":"32.64139","feature_class":"P","feature_code":"PPLA2","country_code":"TR","cc2":"","admin1_code":"87","admin2_code":"","admin3_code":"","admin4_code":"","population":"0","elevation":"","dem":"180","timezone":"Europe/Istanbul","modification_date":"2012-05-06"},{"geonameid":"742095","name":"Kurucaşile","asciiname":"Kurucasile","alternatenames":["Kurucasile","Kurucaşile"],"latitude":"41.83781","longitude":"32.71621","feature_class":"P","feature_code":"PPLA2","country_code":"TR","cc2":"","admin1_code":"87","admin2_code":"","admin3_code":"","admin4_code":"","population":"2066","elevation":"","dem":"73","timezone":"Europe/Istanbul","modification_date":"2012-01-18"},{"geonameid":"742245","name":"Kumluca","asciiname":"Kumluca","alternatenames":["Kocanoz","Kumluca"],"latitude":"41.44724","longitude":"32.46759","feature_class":"P","feature_code":"PPLA3","country_code":"TR","cc2":"","admin1_code":"87","admin2_code":"","admin3_code":"","admin4_code":"","population":"0","elevation":"","dem":"216","timezone":"Europe/Istanbul","modification_date":"2013-09-08"},{"geonameid":"742460","name":"Kozcağız","asciiname":"Kozcagiz","alternatenames":["Ahmetler","Kozcagiz","Kozcağız"],"latitude":"41.48333","longitude":"32.33333","feature_class":"P","feature_code":"PPLA3","country_code":"TR","cc2":"","admin1_code":"87","admin2_code":"","admin3_code":"","admin4_code":"","population":"0","elevation":"","dem":"118","timezone":"Europe/Istanbul","modification_date":"2013-09-08"},{"geonameid":"751057","name":"Bartın","asciiname":"Bartin","alternatenames":["Bartan","Bartheni","Bartin","Bartin Merkez","Bartyn","Bartın","Bartın Merkez","Parthenium","ba er teng","baleutin","bartn","bartyn","baruto~un","Μπαρτίν","Бартин","Бартын","بارتن","بارتين","بارتین","バルトゥン","巴爾滕","바르틴"],"latitude":"41.63583","longitude":"32.3375","feature_class":"P","feature_code":"PPLA","country_code":"TR","cc2":"","admin1_code":"87","admin2_code":"","admin3_code":"","admin4_code":"","population":"37427","elevation":"","dem":"28","timezone":"Europe/Istanbul","modification_date":"2012-01-18"},{"geonameid":"751905","name":"Arıt","asciiname":"Arit","alternatenames":["Arit","Arıt","Mentespiri","Menteşpiri"],"latitude":"41.68706","longitude":"32.62396","feature_class":"P","feature_code":"PPLA3","country_code":"TR","cc2":"","admin1_code":"87","admin2_code":"","admin3_code":"","admin4_code":"","population":"0","elevation":"","dem":"360","timezone":"Europe/Istanbul","modification_date":"2013-09-08"},{"geonameid":"752016","name":"Amasra","asciiname":"Amasra","alternatenames":["Amasra","Amasreh","Amassera","Amastra","Amastris","Sesamus"],"latitude":"41.74633","longitude":"32.38633","feature_class":"P","feature_code":"PPLA2","country_code":"TR","cc2":"","admin1_code":"87","admin2_code":"","admin3_code":"","admin4_code":"","population":"6177","elevation":"","dem":"14","timezone":"Europe/Istanbul","modification_date":"2012-01-18"}]}