{"region_data":{"countryId":"298795","adminCode1":"76","countryName":"Turkey","fclName":"country, state, region,...","countryCode":"TR","lng":"41.33333","fcodeName":"first-order administrative division","toponymName":"Batman","fcl":"A","numberOfChildren":6,"name":"Batman","fcode":"ADM1","geonameId":443186,"lat":"38","adminName1":"Batman","population":547581},"country_data":{"ISO":"TR","ISO3":"TUR","ISO_Numeric":"792","fips":"TU","country":"Turkey","capital":"Ankara","area":"780580","Population":"77804122","Continent":"AS","tld":".tr","CurrencyCode":"TRY","CurrencyName":"Lira","Phone":"90","Postal_Code_Format":"#####","Postal_Code_Regex":"^(\\d{5})$","Languages":"tr-TR,ku,diq,az,av","geonameid":"298795","neighbours":"SY,GE,IQ,IR,GR,AM,AZ,BG","EquivalentFipsCode":""},"cities":[{"geonameid":"296555","name":"Yücebağ","asciiname":"Yucebag","alternatenames":["Yucebag","Yücebağ"],"latitude":"38.39367","longitude":"41.26713","feature_class":"P","feature_code":"PPLA3","country_code":"TR","cc2":"","admin1_code":"76","admin2_code":"","admin3_code":"","admin4_code":"","population":"0","elevation":"","dem":"1079","timezone":"Europe/Istanbul","modification_date":"2015-02-07"},{"geonameid":"296653","name":"Yolağzı","asciiname":"Yolagzi","alternatenames":["Derindip","Dirindip","Yolagzi","Yolağzı"],"latitude":"37.52484","longitude":"41.35357","feature_class":"P","feature_code":"PPL","country_code":"TR","cc2":"","admin1_code":"76","admin2_code":"","admin3_code":"","admin4_code":"","population":"2600","elevation":"","dem":"1036","timezone":"Europe/Istanbul","modification_date":"2012-01-18"},{"geonameid":"296947","name":"Yenipınar","asciiname":"Yenipinar","alternatenames":["Asagi Keferzo","Ashagy-Keferzo","Aşağı Keferzo","Yenipinar","Yenipınar"],"latitude":"37.84345","longitude":"41.30247","feature_class":"P","feature_code":"PPL","country_code":"TR","cc2":"","admin1_code":"76","admin2_code":"","admin3_code":"","admin4_code":"","population":"1100","elevation":"","dem":"728","timezone":"Europe/Istanbul","modification_date":"2012-01-18"},{"geonameid":"297027","name":"Yeniköy","asciiname":"Yenikoy","alternatenames":["Yenikly","Yenikoy","Yeniköy"],"latitude":"37.88111","longitude":"41.04972","feature_class":"P","feature_code":"PPL","country_code":"TR","cc2":"","admin1_code":"76","admin2_code":"","admin3_code":"","admin4_code":"","population":"3269","elevation":"","dem":"533","timezone":"Europe/Istanbul","modification_date":"2012-01-18"},{"geonameid":"298659","name":"Melefan","asciiname":"Melefan","alternatenames":["Melefan","Tuzlagozu","Tuzlagözü"],"latitude":"38.18333","longitude":"41.56667","feature_class":"P","feature_code":"PPLA3","country_code":"TR","cc2":"","admin1_code":"76","admin2_code":"","admin3_code":"","admin4_code":"","population":"0","elevation":"","dem":"866","timezone":"Europe/Istanbul","modification_date":"2013-09-08"},{"geonameid":"306041","name":"Kozluk","asciiname":"Kozluk","alternatenames":["Kozluk"],"latitude":"38.19118","longitude":"41.47775","feature_class":"P","feature_code":"PPLA2","country_code":"TR","cc2":"","admin1_code":"76","admin2_code":"","admin3_code":"","admin4_code":"","population":"29502","elevation":"","dem":"937","timezone":"Europe/Istanbul","modification_date":"2015-02-07"},{"geonameid":"308572","name":"Kayapınar","asciiname":"Kayapinar","alternatenames":["Ayinkaf","Ayinkar","Ayinkef","Ayinkâf","Aynnkyaf","Ayınkâr","Habezbeni","Kayapinar","Kayapınar","Khabezbeni"],"latitude":"37.55735","longitude":"41.16496","feature_class":"P","feature_code":"PPLA3","country_code":"TR","cc2":"","admin1_code":"76","admin2_code":"","admin3_code":"","admin4_code":"","population":"5226","elevation":"","dem":"1138","timezone":"Europe/Istanbul","modification_date":"2013-09-08"},{"geonameid":"311628","name":"Aviski","asciiname":"Aviski","alternatenames":["Asagi Aviski","Aviski","Aşağı Aviski","Ikikopru","İkiköprü"],"latitude":"37.96577","longitude":"41.32928","feature_class":"P","feature_code":"PPL","country_code":"TR","cc2":"","admin1_code":"76","admin2_code":"","admin3_code":"","admin4_code":"","population":"4065","elevation":"","dem":"588","timezone":"Europe/Istanbul","modification_date":"2012-01-18"},{"geonameid":"316473","name":"Doğankavak","asciiname":"Dogankavak","alternatenames":["Dogankavak","Doğankavak","Hadhatih","Hadhatıh","Hathatik","Khatkhatik"],"latitude":"37.96237","longitude":"41.22729","feature_class":"P","feature_code":"PPL","country_code":"TR","cc2":"","admin1_code":"76","admin2_code":"","admin3_code":"","admin4_code":"","population":"2132","elevation":"","dem":"745","timezone":"Europe/Istanbul","modification_date":"2012-01-18"},{"geonameid":"317133","name":"Demiryol","asciiname":"Demiryol","alternatenames":["Demiryol","Til'merch","Tilmerc","Tilmere","Tilmerç","Til’merch"],"latitude":"37.91778","longitude":"41.14917","feature_class":"P","feature_code":"PPL","country_code":"TR","cc2":"","admin1_code":"76","admin2_code":"","admin3_code":"","admin4_code":"","population":"1388","elevation":"","dem":"619","timezone":"Europe/Istanbul","modification_date":"2012-01-18"},{"geonameid":"318679","name":"Çevrimova","asciiname":"Cevrimova","alternatenames":["Barisil","Barsil","Barsyl","Barısıl","Cevrimova","Çevrimova"],"latitude":"37.84083","longitude":"41.27333","feature_class":"P","feature_code":"PPL","country_code":"TR","cc2":"","admin1_code":"76","admin2_code":"","admin3_code":"","admin4_code":"","population":"1276","elevation":"","dem":"711","timezone":"Europe/Istanbul","modification_date":"2012-01-18"},{"geonameid":"321088","name":"Binatlı","asciiname":"Binatli","alternatenames":["Bileyder","Binatli","Binatlı"],"latitude":"37.84798","longitude":"41.21636","feature_class":"P","feature_code":"PPL","country_code":"TR","cc2":"","admin1_code":"76","admin2_code":"","admin3_code":"","admin4_code":"","population":"2259","elevation":"","dem":"639","timezone":"Europe/Istanbul","modification_date":"2012-01-18"},{"geonameid":"321297","name":"Beyçayırı","asciiname":"Beycayiri","alternatenames":["Beycayiri","Beyçayırı"],"latitude":"38.01412","longitude":"41.32372","feature_class":"P","feature_code":"PPLA3","country_code":"TR","cc2":"","admin1_code":"76","admin2_code":"","admin3_code":"","admin4_code":"","population":"0","elevation":"","dem":"627","timezone":"Europe/Istanbul","modification_date":"2015-02-07"},{"geonameid":"321327","name":"Beşpınar","asciiname":"Bespinar","alternatenames":["Alenz","Arans","Aranz","Baspinar","Başpınar","Beshpynar","Bespinar","Beşpınar","Jukary-Lori","Ridvan","Rıdvan","Юкары-Лори"],"latitude":"37.83709","longitude":"41.60219","feature_class":"P","feature_code":"PPLA3","country_code":"TR","cc2":"","admin1_code":"76","admin2_code":"","admin3_code":"","admin4_code":"","population":"1227","elevation":"","dem":"755","timezone":"Europe/Istanbul","modification_date":"2015-06-08"},{"geonameid":"321360","name":"Beşiri","asciiname":"Besiri","alternatenames":["Beshirin","Besiri","Beşiri","Kabin","Kobin"],"latitude":"37.91838","longitude":"41.2924","feature_class":"P","feature_code":"PPLA2","country_code":"TR","cc2":"","admin1_code":"76","admin2_code":"","admin3_code":"","admin4_code":"","population":"9513","elevation":"","dem":"751","timezone":"Europe/Istanbul","modification_date":"2013-07-06"},{"geonameid":"321632","name":"Bekirhan","asciiname":"Bekirhan","alternatenames":["Bekirhan","Kanihani","Kânihani","Selmo","Şelmo"],"latitude":"38.14086","longitude":"41.29351","feature_class":"P","feature_code":"PPLA3","country_code":"TR","cc2":"","admin1_code":"76","admin2_code":"","admin3_code":"","admin4_code":"","population":"0","elevation":"","dem":"645","timezone":"Europe/Istanbul","modification_date":"2015-02-07"},{"geonameid":"321836","name":"Batman","asciiname":"Batman","alternatenames":["BAL","Batman","Batman i Tyrkia","Batmanas","Elih","Gorad Batman","Iloh","Iluh","ba te man","bateuman","batman","batmani","batoman","btman","btmn","Êlih","Μπατμάν","Батман","Баҭман","Горад Батман","בטמן","ئێلح","باتمان","بطمان","ضلع باتمان","ბათმანი","バトマン","巴特曼","바트만"],"latitude":"37.88738","longitude":"41.13221","feature_class":"P","feature_code":"PPLA","country_code":"TR","cc2":"","admin1_code":"76","admin2_code":"","admin3_code":"","admin4_code":"","population":"381990","elevation":"540","dem":"574","timezone":"Europe/Istanbul","modification_date":"2014-02-09"},{"geonameid":"322076","name":"Balpınar","asciiname":"Balpinar","alternatenames":["Balpinar","Balpınar","Giresiran","Girisiran","Gresiran","Kersivan"],"latitude":"37.86833","longitude":"41.05472","feature_class":"P","feature_code":"PPL","country_code":"TR","cc2":"","admin1_code":"76","admin2_code":"","admin3_code":"","admin4_code":"","population":"2879","elevation":"","dem":"538","timezone":"Europe/Istanbul","modification_date":"2012-01-18"},{"geonameid":"322813","name":"Aydınkonak","asciiname":"Aydinkonak","alternatenames":["Aydinkonak","Aydınkonak","Keryuk","Korik","Koruk","Korukkoy","Këryuk","Körük","Körükköy"],"latitude":"37.89222","longitude":"41.1625","feature_class":"P","feature_code":"PPL","country_code":"TR","cc2":"","admin1_code":"76","admin2_code":"","admin3_code":"","admin4_code":"","population":"1181","elevation":"","dem":"613","timezone":"Europe/Istanbul","modification_date":"2012-01-18"},{"geonameid":"301483","name":"Sason","asciiname":"Sason","alternatenames":["Kabilcevaz","Kabilcoz","Kabilcuz","Sason","Sasun"],"latitude":"38.32767","longitude":"41.41377","feature_class":"P","feature_code":"PPLA2","country_code":"TR","cc2":"","admin1_code":"76","admin2_code":"","admin3_code":"","admin4_code":"","population":"11403","elevation":"","dem":"981","timezone":"Europe/Istanbul","modification_date":"2015-02-07"},{"geonameid":"314608","name":"Gerdzhyush","asciiname":"Gerdzhyush","alternatenames":["Gercus","Gercüş","Gerdzhyush"],"latitude":"37.5651","longitude":"41.39161","feature_class":"P","feature_code":"PPLA2","country_code":"TR","cc2":"","admin1_code":"76","admin2_code":"","admin3_code":"","admin4_code":"","population":"8590","elevation":"","dem":"987","timezone":"Europe/Istanbul","modification_date":"2013-07-06"}]}