{"region_data":{"countryId":"298795","adminCode1":"15","countryName":"Turkey","fclName":"country, state, region,...","countryCode":"TR","lng":"30","fcodeName":"first-order administrative division","toponymName":"Burdur","fcl":"A","numberOfChildren":11,"name":"Burdur","fcode":"ADM1","geonameId":320390,"lat":"37.5","adminName1":"Burdur","population":257267},"country_data":{"ISO":"TR","ISO3":"TUR","ISO_Numeric":"792","fips":"TU","country":"Turkey","capital":"Ankara","area":"780580","Population":"77804122","Continent":"AS","tld":".tr","CurrencyCode":"TRY","CurrencyName":"Lira","Phone":"90","Postal_Code_Format":"#####","Postal_Code_Regex":"^(\\d{5})$","Languages":"tr-TR,ku,diq,az,av","geonameid":"298795","neighbours":"SY,GE,IQ,IR,GR,AM,AZ,BG","EquivalentFipsCode":""},"cities":[{"geonameid":"296823","name":"Yeşilova","asciiname":"Yesilova","alternatenames":["Satilar","Satirlar","Satılar","Satırlar","Yesilova","Yeşilova"],"latitude":"37.50806","longitude":"29.75472","feature_class":"P","feature_code":"PPLA2","country_code":"TR","cc2":"","admin1_code":"15","admin2_code":"","admin3_code":"","admin4_code":"","population":"6777","elevation":"","dem":"1206","timezone":"Europe/Istanbul","modification_date":"2012-02-28"},{"geonameid":"299499","name":"Tefenni","asciiname":"Tefenni","alternatenames":["Tefenni"],"latitude":"37.30968","longitude":"29.77538","feature_class":"P","feature_code":"PPLA2","country_code":"TR","cc2":"","admin1_code":"15","admin2_code":"","admin3_code":"","admin4_code":"","population":"5317","elevation":"","dem":"1162","timezone":"Europe/Istanbul","modification_date":"2012-02-02"},{"geonameid":"307014","name":"Kocaaliler","asciiname":"Kocaaliler","alternatenames":["Kocaaliler"],"latitude":"37.31694","longitude":"30.74","feature_class":"P","feature_code":"PPLA3","country_code":"TR","cc2":"","admin1_code":"15","admin2_code":"","admin3_code":"","admin4_code":"","population":"2170","elevation":"","dem":"632","timezone":"Europe/Istanbul","modification_date":"2013-09-08"},{"geonameid":"307071","name":"Kızılyaka","asciiname":"Kizilyaka","alternatenames":["Kizilyaka","Kızılyaka"],"latitude":"36.98301","longitude":"29.52847","feature_class":"P","feature_code":"PPLA3","country_code":"TR","cc2":"","admin1_code":"15","admin2_code":"","admin3_code":"","admin4_code":"","population":"0","elevation":"","dem":"1213","timezone":"Europe/Istanbul","modification_date":"2013-09-08"},{"geonameid":"307187","name":"Kızılkaya","asciiname":"Kizilkaya","alternatenames":["Kizilkaya","Kızılkaya","Pazaravdan"],"latitude":"37.30361","longitude":"30.44417","feature_class":"P","feature_code":"PPL","country_code":"TR","cc2":"TR","admin1_code":"15","admin2_code":"","admin3_code":"","admin4_code":"","population":"1860","elevation":"","dem":"800","timezone":"Europe/Istanbul","modification_date":"2013-05-05"},{"geonameid":"308217","name":"Kemer","asciiname":"Kemer","alternatenames":["Bebekler","Bobekler","Böbekler","Kemer","Sertac","Sertaç","Кемер"],"latitude":"37.35222","longitude":"30.06306","feature_class":"P","feature_code":"PPLA2","country_code":"TR","cc2":"","admin1_code":"15","admin2_code":"","admin3_code":"","admin4_code":"","population":"2217","elevation":"","dem":"1168","timezone":"Europe/Istanbul","modification_date":"2012-02-28"},{"geonameid":"309512","name":"Karamanlı","asciiname":"Karamanli","alternatenames":["Karamanli","Karamanlı"],"latitude":"37.37301","longitude":"29.82308","feature_class":"P","feature_code":"PPLA2","country_code":"TR","cc2":"","admin1_code":"15","admin2_code":"","admin3_code":"","admin4_code":"","population":"4820","elevation":"","dem":"1159","timezone":"Europe/Istanbul","modification_date":"2012-02-28"},{"geonameid":"318879","name":"Çeltikçi","asciiname":"Celtikci","alternatenames":["Celtikci","Çeltikçi"],"latitude":"37.52947","longitude":"30.48028","feature_class":"P","feature_code":"PPLA2","country_code":"TR","cc2":"","admin1_code":"15","admin2_code":"","admin3_code":"","admin4_code":"","population":"0","elevation":"","dem":"855","timezone":"Europe/Istanbul","modification_date":"2012-05-06"},{"geonameid":"319163","name":"Çavdır","asciiname":"Cavdir","alternatenames":["Cavdir","Çavdır"],"latitude":"37.155","longitude":"29.69389","feature_class":"P","feature_code":"PPLA2","country_code":"TR","cc2":"","admin1_code":"15","admin2_code":"","admin3_code":"","admin4_code":"","population":"0","elevation":"","dem":"1094","timezone":"Europe/Istanbul","modification_date":"2013-08-06"},{"geonameid":"320392","name":"Burdur","asciiname":"Burdur","alternatenames":["Bourdour","Bourntour","Buldur","Burdur","Polydorion","ba er du er","brdwd","buleuduleu","burduri","burudo~uru","bwrdwr","Μπουρντούρ","Бурдур","بردود","بوردور","ბურდური","ブルドゥル","巴爾杜爾","부르두르"],"latitude":"37.72028","longitude":"30.29083","feature_class":"P","feature_code":"PPLA","country_code":"TR","cc2":"","admin1_code":"15","admin2_code":"","admin3_code":"","admin4_code":"","population":"66158","elevation":"","dem":"956","timezone":"Europe/Istanbul","modification_date":"2012-01-16"},{"geonameid":"320533","name":"Bucak","asciiname":"Bucak","alternatenames":["Bucak","Budzhak","Буджак"],"latitude":"37.45917","longitude":"30.595","feature_class":"P","feature_code":"PPLA2","country_code":"TR","cc2":"","admin1_code":"15","admin2_code":"","admin3_code":"","admin4_code":"","population":"29234","elevation":"","dem":"819","timezone":"Europe/Istanbul","modification_date":"2012-02-28"},{"geonameid":"323887","name":"Altınyayla","asciiname":"Altinyayla","alternatenames":["Altinyayla","Altınyayla","Dinmil","Dirmil"],"latitude":"36.99722","longitude":"29.54579","feature_class":"P","feature_code":"PPLA2","country_code":"TR","cc2":"","admin1_code":"15","admin2_code":"","admin3_code":"","admin4_code":"","population":"4158","elevation":"","dem":"1239","timezone":"Europe/Istanbul","modification_date":"2012-02-02"},{"geonameid":"325171","name":"Ağlasun","asciiname":"Aglasun","alternatenames":["Aglasun","Ağlasun","Belonu","Belönü"],"latitude":"37.64944","longitude":"30.53417","feature_class":"P","feature_code":"PPLA2","country_code":"TR","cc2":"","admin1_code":"15","admin2_code":"","admin3_code":"","admin4_code":"","population":"4469","elevation":"","dem":"1133","timezone":"Europe/Istanbul","modification_date":"2012-02-28"},{"geonameid":"314072","name":"Gölhisar","asciiname":"Golhisar","alternatenames":["Golhisar","Gölhisar","Horzom","Horzum"],"latitude":"37.1459","longitude":"29.50876","feature_class":"P","feature_code":"PPLA2","country_code":"TR","cc2":"","admin1_code":"15","admin2_code":"","admin3_code":"","admin4_code":"","population":"12721","elevation":"","dem":"1003","timezone":"Europe/Istanbul","modification_date":"2013-08-06"}]}