{"region_data":{"countryId":"298795","adminCode1":"24","countryName":"Turkey","fclName":"country, state, region,...","countryCode":"TR","lng":"39.5","fcodeName":"first-order administrative division","toponymName":"Erzincan","fcl":"A","numberOfChildren":8,"name":"Erzincan","fcode":"ADM1","geonameId":315372,"lat":"39.75","adminName1":"Erzincan","population":219996},"country_data":{"ISO":"TR","ISO3":"TUR","ISO_Numeric":"792","fips":"TU","country":"Turkey","capital":"Ankara","area":"780580","Population":"77804122","Continent":"AS","tld":".tr","CurrencyCode":"TRY","CurrencyName":"Lira","Phone":"90","Postal_Code_Format":"#####","Postal_Code_Regex":"^(\\d{5})$","Languages":"tr-TR,ku,diq,az,av","geonameid":"298795","neighbours":"SY,GE,IQ,IR,GR,AM,AZ,BG","EquivalentFipsCode":""},"cities":[{"geonameid":"298230","name":"Cimin","asciiname":"Cimin","alternatenames":["Cimin","Uzumlu","Üzümlü"],"latitude":"39.70947","longitude":"39.70015","feature_class":"P","feature_code":"PPLA2","country_code":"TR","cc2":"","admin1_code":"24","admin2_code":"","admin3_code":"","admin4_code":"","population":"39591","elevation":"","dem":"1422","timezone":"Europe/Istanbul","modification_date":"2015-02-07"},{"geonameid":"299268","name":"Tercan","asciiname":"Tercan","alternatenames":["Mamahatun","Mamhatun","Tercan","trjan","ترجان"],"latitude":"39.77709","longitude":"40.37783","feature_class":"P","feature_code":"PPLA2","country_code":"TR","cc2":"","admin1_code":"24","admin2_code":"","admin3_code":"","admin4_code":"","population":"12235","elevation":"","dem":"1412","timezone":"Europe/Istanbul","modification_date":"2015-02-07"},{"geonameid":"299858","name":"Tanyeri","asciiname":"Tanyeri","alternatenames":["Tanyeri"],"latitude":"39.61137","longitude":"39.83151","feature_class":"P","feature_code":"PPLA3","country_code":"TR","cc2":"","admin1_code":"24","admin2_code":"","admin3_code":"","admin4_code":"","population":"0","elevation":"","dem":"1221","timezone":"Europe/Istanbul","modification_date":"2013-09-08"},{"geonameid":"305429","name":"Kuruçay","asciiname":"Kurucay","alternatenames":["Kurucay","Kuruçay"],"latitude":"39.64024","longitude":"38.47422","feature_class":"P","feature_code":"PPLA3","country_code":"TR","cc2":"","admin1_code":"24","admin2_code":"","admin3_code":"","admin4_code":"","population":"0","elevation":"","dem":"1056","timezone":"Europe/Istanbul","modification_date":"2013-09-08"},{"geonameid":"308230","name":"Kemaliye","asciiname":"Kemaliye","alternatenames":["Egin","Kemaliye"],"latitude":"39.26288","longitude":"38.49674","feature_class":"P","feature_code":"PPLA2","country_code":"TR","cc2":"","admin1_code":"24","admin2_code":"","admin3_code":"","admin4_code":"","population":"2323","elevation":"","dem":"948","timezone":"Europe/Istanbul","modification_date":"2012-01-18"},{"geonameid":"308233","name":"Kemah","asciiname":"Kemah","alternatenames":["Camacha Theodosiopolis","Gamakh","Kemah","Kemakh","kmakh","کماخ"],"latitude":"39.59606","longitude":"39.02329","feature_class":"P","feature_code":"PPLA2","country_code":"TR","cc2":"","admin1_code":"24","admin2_code":"","admin3_code":"","admin4_code":"","population":"2549","elevation":"","dem":"1092","timezone":"Europe/Istanbul","modification_date":"2015-02-07"},{"geonameid":"311547","name":"İliç","asciiname":"Ilic","alternatenames":["Ilic","Pusadi","Puşadı","İliç"],"latitude":"39.45106","longitude":"38.55836","feature_class":"P","feature_code":"PPLA2","country_code":"TR","cc2":"","admin1_code":"24","admin2_code":"","admin3_code":"","admin4_code":"","population":"2151","elevation":"","dem":"1069","timezone":"Europe/Istanbul","modification_date":"2015-02-07"},{"geonameid":"316072","name":"Dutluca","asciiname":"Dutluca","alternatenames":["Asutka","Aşutka","Dutluca"],"latitude":"39.13586","longitude":"38.60662","feature_class":"P","feature_code":"PPLA3","country_code":"TR","cc2":"","admin1_code":"24","admin2_code":"","admin3_code":"","admin4_code":"","population":"0","elevation":"","dem":"1171","timezone":"Europe/Istanbul","modification_date":"2015-02-07"},{"geonameid":"316501","name":"Doğanbeyli","asciiname":"Doganbeyli","alternatenames":["Doganbeyli","Doğanbeyli"],"latitude":"39.69517","longitude":"39.03499","feature_class":"P","feature_code":"PPLA3","country_code":"TR","cc2":"","admin1_code":"24","admin2_code":"","admin3_code":"","admin4_code":"","population":"0","elevation":"","dem":"1517","timezone":"Europe/Istanbul","modification_date":"2015-02-07"},{"geonameid":"318829","name":"Cengerli","asciiname":"Cengerli","alternatenames":["Cengerli","Emirgah","Emirgâh","Esirgah","Esirgâh","Esirkah","Çengerli"],"latitude":"39.79426","longitude":"38.84814","feature_class":"P","feature_code":"PPLA3","country_code":"TR","cc2":"","admin1_code":"24","admin2_code":"","admin3_code":"","admin4_code":"","population":"0","elevation":"","dem":"1628","timezone":"Europe/Istanbul","modification_date":"2015-02-07"},{"geonameid":"319047","name":"Mans","asciiname":"Mans","alternatenames":["Cayirli","Mans","Çayırlı"],"latitude":"39.80775","longitude":"40.028","feature_class":"P","feature_code":"PPLA2","country_code":"TR","cc2":"","admin1_code":"24","admin2_code":"","admin3_code":"","admin4_code":"","population":"0","elevation":"","dem":"1532","timezone":"Europe/Istanbul","modification_date":"2015-02-07"},{"geonameid":"319295","name":"Çatalçam","asciiname":"Catalcam","alternatenames":["Catalcam","Zevker","Çatalçam"],"latitude":"39.97438","longitude":"38.84777","feature_class":"P","feature_code":"PPLA3","country_code":"TR","cc2":"","admin1_code":"24","admin2_code":"","admin3_code":"","admin4_code":"","population":"0","elevation":"","dem":"1632","timezone":"Europe/Istanbul","modification_date":"2015-02-07"},{"geonameid":"319305","name":"Çatalarmut","asciiname":"Catalarmut","alternatenames":["Catalarmut","Catalcam","Çatalarmut","Çatalcam"],"latitude":"39.80286","longitude":"39.31539","feature_class":"P","feature_code":"PPLA3","country_code":"TR","cc2":"","admin1_code":"24","admin2_code":"","admin3_code":"","admin4_code":"","population":"0","elevation":"","dem":"1431","timezone":"Europe/Istanbul","modification_date":"2015-02-07"},{"geonameid":"320007","name":"Çağlayan","asciiname":"Caglayan","alternatenames":["Caglayan","Çağlayan"],"latitude":"39.58502","longitude":"39.68702","feature_class":"P","feature_code":"PPLA3","country_code":"TR","cc2":"","admin1_code":"24","admin2_code":"","admin3_code":"","admin4_code":"","population":"0","elevation":"","dem":"1541","timezone":"Europe/Istanbul","modification_date":"2015-02-07"},{"geonameid":"320304","name":"Armutlu","asciiname":"Armutlu","alternatenames":["Armutlu","Buyuk Armudan","Buyukarmutlu","Büyük Armudan","Büyükarmutlu"],"latitude":"39.5755","longitude":"38.42722","feature_class":"P","feature_code":"PPLA3","country_code":"TR","cc2":"","admin1_code":"24","admin2_code":"","admin3_code":"","admin4_code":"","population":"0","elevation":"","dem":"1319","timezone":"Europe/Istanbul","modification_date":"2013-09-08"},{"geonameid":"320590","name":"Bozoğlak","asciiname":"Bozoglak","alternatenames":["Asagi Ihtik","Aşağı İhtik","Bozoglak","Bozoğlak","Ihtik","İhtik"],"latitude":"39.62292","longitude":"38.80194","feature_class":"P","feature_code":"PPLA3","country_code":"TR","cc2":"","admin1_code":"24","admin2_code":"","admin3_code":"","admin4_code":"","population":"0","elevation":"","dem":"1541","timezone":"Europe/Istanbul","modification_date":"2015-02-07"},{"geonameid":"321862","name":"Başpınar","asciiname":"Baspinar","alternatenames":["Baspinar","Basvartanik","Basvartenik","Basvartinik","Başpınar","Başvartanik","Başvartenik","Başvartinik"],"latitude":"39.19017","longitude":"38.68737","feature_class":"P","feature_code":"PPLA3","country_code":"TR","cc2":"","admin1_code":"24","admin2_code":"","admin3_code":"","admin4_code":"","population":"0","elevation":"","dem":"1374","timezone":"Europe/Istanbul","modification_date":"2015-02-07"},{"geonameid":"323965","name":"Alpköy","asciiname":"Alpkoy","alternatenames":["Alpkoy","Alpköy"],"latitude":"39.61393","longitude":"39.18639","feature_class":"P","feature_code":"PPLA3","country_code":"TR","cc2":"","admin1_code":"24","admin2_code":"","admin3_code":"","admin4_code":"","population":"0","elevation":"","dem":"1075","timezone":"Europe/Istanbul","modification_date":"2015-02-07"},{"geonameid":"325024","name":"Akarsu","asciiname":"Akarsu","alternatenames":["Akarsu","Alakilise"],"latitude":"39.92878","longitude":"38.61382","feature_class":"P","feature_code":"PPLA3","country_code":"TR","cc2":"","admin1_code":"24","admin2_code":"","admin3_code":"","admin4_code":"","population":"0","elevation":"","dem":"1531","timezone":"Europe/Istanbul","modification_date":"2015-02-07"},{"geonameid":"302401","name":"Refahiye","asciiname":"Refahiye","alternatenames":["Gercanis","Refahiye"],"latitude":"39.89315","longitude":"38.76607","feature_class":"P","feature_code":"PPLA2","country_code":"TR","cc2":"","admin1_code":"24","admin2_code":"","admin3_code":"","admin4_code":"","population":"5579","elevation":"","dem":"1598","timezone":"Europe/Istanbul","modification_date":"2015-02-07"},{"geonameid":"315373","name":"Erzincan","asciiname":"Erzincan","alternatenames":["Arzanjan","Aziris","ERC","Ehrzindzhan","Ersindjan","Ersingan","Ersingjan","Erzincam","Erzincan","Erzindjan","Erzindzan","Erzindzanas","Erzindzhan","Erzindžanas","Erzingan","Erzinjan","Erznka","Erzıngan","Ezirgan","Yerznka","ai er jin zhan","arznjan","arzynjan","eleujinjan","erajikana","eruzu~injan","erzinjani","xer sin can","Ərzincan","Ерзинджан","Ерзинџан","Ерзінджан","Эрзинджан","Երզնկա","أرزينجان","ئەرزگان","ارزنجان","ਏਰਜਿੰਕਾਨ","เอร์ซินจาน","ერზინჯანი","エルズィンジャン","埃尔津詹","에르진잔"],"latitude":"39.73919","longitude":"39.49015","feature_class":"P","feature_code":"PPLA","country_code":"TR","cc2":"","admin1_code":"24","admin2_code":"","admin3_code":"","admin4_code":"","population":"114027","elevation":"","dem":"1195","timezone":"Europe/Istanbul","modification_date":"2015-02-07"}]}