{"region_data":{"countryId":"298795","adminCode1":"70","countryName":"Turkey","fclName":"country, state, region,...","countryCode":"TR","lng":"44.16667","fcodeName":"first-order administrative division","toponymName":"Hakkari","fcl":"A","numberOfChildren":3,"name":"Hakkâri","fcode":"ADM1","geonameId":312888,"lat":"37.58333","adminName1":"Hakkâri","population":273041},"country_data":{"ISO":"TR","ISO3":"TUR","ISO_Numeric":"792","fips":"TU","country":"Turkey","capital":"Ankara","area":"780580","Population":"77804122","Continent":"AS","tld":".tr","CurrencyCode":"TRY","CurrencyName":"Lira","Phone":"90","Postal_Code_Format":"#####","Postal_Code_Regex":"^(\\d{5})$","Languages":"tr-TR,ku,diq,az,av","geonameid":"298795","neighbours":"SY,GE,IQ,IR,GR,AM,AZ,BG","EquivalentFipsCode":""},"cities":[{"geonameid":"296173","name":"Yüksekova","asciiname":"Yuksekova","alternatenames":["Dize","YKO","Yueksekova","Yuksekova","Yusekova","Yüksekova","Yüsekova"],"latitude":"37.57362","longitude":"44.28716","feature_class":"P","feature_code":"PPLA2","country_code":"TR","cc2":"","admin1_code":"70","admin2_code":"","admin3_code":"","admin4_code":"","population":"71729","elevation":"","dem":"1874","timezone":"Europe/Istanbul","modification_date":"2013-08-05"},{"geonameid":"317749","name":"Dağlıca","asciiname":"Daglica","alternatenames":["Daglica","Dağlıca"],"latitude":"37.36658","longitude":"44.08528","feature_class":"P","feature_code":"PPLA3","country_code":"TR","cc2":"","admin1_code":"70","admin2_code":"","admin3_code":"","admin4_code":"","population":"0","elevation":"","dem":"1527","timezone":"Europe/Istanbul","modification_date":"2014-11-05"},{"geonameid":"317953","name":"Çukurca","asciiname":"Cukurca","alternatenames":["Cal","Cokurca","Cukurca","Çal","Çokurca","Çukurca"],"latitude":"37.24806","longitude":"43.61361","feature_class":"P","feature_code":"PPLA2","country_code":"TR","cc2":"","admin1_code":"70","admin2_code":"","admin3_code":"","admin4_code":"","population":"8843","elevation":"","dem":"1294","timezone":"Europe/Istanbul","modification_date":"2012-01-18"},{"geonameid":"318137","name":"Hakkari","asciiname":"Hakkari","alternatenames":["Colemerik","Hakari","Hakkari","Hakâri","Julamerk","Khakkari","Çölemerik","Хаккари"],"latitude":"37.57444","longitude":"43.74083","feature_class":"P","feature_code":"PPLA","country_code":"TR","cc2":"","admin1_code":"70","admin2_code":"","admin3_code":"","admin4_code":"","population":"77699","elevation":"","dem":"1697","timezone":"Europe/Istanbul","modification_date":"2012-01-18"},{"geonameid":"318522","name":"Ashuta","asciiname":"Ashuta","alternatenames":["Ashuta","Asuta","Asutka","Aşuta","Aşutka","Cigli","Çığlı"],"latitude":"37.3229","longitude":"43.37482","feature_class":"P","feature_code":"PPLA3","country_code":"TR","cc2":"","admin1_code":"70","admin2_code":"","admin3_code":"","admin4_code":"","population":"0","elevation":"","dem":"1732","timezone":"Europe/Istanbul","modification_date":"2014-11-05"},{"geonameid":"322491","name":"Hazekyan","asciiname":"Hazekyan","alternatenames":["Bagisli","Bağışlı","Hanekiyan","Hazekyan","Sivelan","Şivelân"],"latitude":"37.71769","longitude":"44.0356","feature_class":"P","feature_code":"PPLA3","country_code":"TR","cc2":"","admin1_code":"70","admin2_code":"","admin3_code":"","admin4_code":"","population":"0","elevation":"","dem":"1757","timezone":"Europe/Istanbul","modification_date":"2014-11-05"},{"geonameid":"392071","name":"Karsani","asciiname":"Karsani","alternatenames":["Gundes","Guzeldere","Gündeş","Güzeldere","Karsani","Minyanis","Minyanysh","Minyanış"],"latitude":"37.30716","longitude":"43.4541","feature_class":"P","feature_code":"PPL","country_code":"TR","cc2":"","admin1_code":"70","admin2_code":"","admin3_code":"","admin4_code":"","population":"1323","elevation":"","dem":"1186","timezone":"Europe/Istanbul","modification_date":"2014-10-01"},{"geonameid":"301209","name":"Şemdinli","asciiname":"Semdinli","alternatenames":["Navsar","Navşar","Semdinli","Semdinni","Şemdinli","Şemdinni"],"latitude":"37.30514","longitude":"44.5742","feature_class":"P","feature_code":"PPLA2","country_code":"TR","cc2":"","admin1_code":"70","admin2_code":"","admin3_code":"","admin4_code":"","population":"18978","elevation":"","dem":"1388","timezone":"Europe/Istanbul","modification_date":"2012-01-18"}]}