{"region_data":{"countryId":"298795","adminCode1":"34","countryName":"Turkey","fclName":"country, state, region,...","countryCode":"TR","lng":"28.98331","fcodeName":"first-order administrative division","toponymName":"İstanbul","fcl":"A","numberOfChildren":40,"name":"Istanbul","fcode":"ADM1","geonameId":745042,"lat":"41.03508","adminName1":"Istanbul","population":14160467},"country_data":{"ISO":"TR","ISO3":"TUR","ISO_Numeric":"792","fips":"TU","country":"Turkey","capital":"Ankara","area":"780580","Population":"77804122","Continent":"AS","tld":".tr","CurrencyCode":"TRY","CurrencyName":"Lira","Phone":"90","Postal_Code_Format":"#####","Postal_Code_Regex":"^(\\d{5})$","Languages":"tr-TR,ku,diq,az,av","geonameid":"298795","neighbours":"SY,GE,IQ,IR,GR,AM,AZ,BG","EquivalentFipsCode":""},"cities":[{"geonameid":"737071","name":"Zeytinburnu","asciiname":"Zeytinburnu","alternatenames":[""],"latitude":"40.99441","longitude":"28.90417","feature_class":"P","feature_code":"PPL","country_code":"TR","cc2":"","admin1_code":"34","admin2_code":"","admin3_code":"","admin4_code":"","population":"288743","elevation":"","dem":"39","timezone":"Europe/Istanbul","modification_date":"2011-01-04"},{"geonameid":"737539","name":"Yeşilvadi","asciiname":"Yesilvadi","alternatenames":["Alacali","Alacalı","Heciz","Hiciz","Saffetiye","Yesilvadi","Yeşilvadi"],"latitude":"41.123","longitude":"29.47696","feature_class":"P","feature_code":"PPLA3","country_code":"TR","cc2":"","admin1_code":"34","admin2_code":"","admin3_code":"","admin4_code":"","population":"0","elevation":"","dem":"52","timezone":"Europe/Istanbul","modification_date":"2013-10-07"},{"geonameid":"738064","name":"Yakuplu","asciiname":"Yakuplu","alternatenames":["Tarakatya"],"latitude":"40.98894","longitude":"28.67582","feature_class":"P","feature_code":"PPL","country_code":"TR","cc2":"","admin1_code":"34","admin2_code":"","admin3_code":"","admin4_code":"","population":"28811","elevation":"","dem":"74","timezone":"Europe/Istanbul","modification_date":"2010-01-11"},{"geonameid":"738329","name":"Üsküdar","asciiname":"UEskuedar","alternatenames":["Chrysopolis","Scutari","Skutari","Uskjudar","Uskudar","askdar","Üsküdar","Ускюдар","اسکدار"],"latitude":"41.02252","longitude":"29.02369","feature_class":"P","feature_code":"PPL","country_code":"TR","cc2":"TR","admin1_code":"34","admin2_code":"","admin3_code":"","admin4_code":"","population":"582666","elevation":"","dem":"56","timezone":"Europe/Istanbul","modification_date":"2013-11-13"},{"geonameid":"738377","name":"Umraniye","asciiname":"Umraniye","alternatenames":[""],"latitude":"41.01643","longitude":"29.12476","feature_class":"P","feature_code":"PPL","country_code":"TR","cc2":"","admin1_code":"34","admin2_code":"","admin3_code":"","admin4_code":"","population":"573265","elevation":"","dem":"136","timezone":"Europe/Istanbul","modification_date":"2011-01-05"},{"geonameid":"738858","name":"Tepecik","asciiname":"Tepecik","alternatenames":["Playa","Tepecik"],"latitude":"41.02931","longitude":"28.54978","feature_class":"P","feature_code":"PPL","country_code":"TR","cc2":"","admin1_code":"34","admin2_code":"","admin3_code":"","admin4_code":"","population":"21699","elevation":"","dem":"26","timezone":"Europe/Istanbul","modification_date":"2014-02-09"},{"geonameid":"738941","name":"Teke","asciiname":"Teke","alternatenames":["Teke"],"latitude":"41.06861","longitude":"29.66417","feature_class":"P","feature_code":"PPLA3","country_code":"TR","cc2":"","admin1_code":"34","admin2_code":"","admin3_code":"","admin4_code":"","population":"0","elevation":"","dem":"154","timezone":"Europe/Istanbul","modification_date":"2013-09-08"},{"geonameid":"739549","name":"Şişli","asciiname":"Sisli","alternatenames":["Sisli","Şişli"],"latitude":"41.06046","longitude":"28.98717","feature_class":"P","feature_code":"PPL","country_code":"TR","cc2":"","admin1_code":"34","admin2_code":"","admin3_code":"","admin4_code":"","population":"314684","elevation":"","dem":"119","timezone":"Europe/Istanbul","modification_date":"2010-12-30"},{"geonameid":"739605","name":"Sinekli","asciiname":"Sinekli","alternatenames":["Sinekli"],"latitude":"41.22798","longitude":"28.19043","feature_class":"P","feature_code":"PPLA3","country_code":"TR","cc2":"","admin1_code":"34","admin2_code":"","admin3_code":"","admin4_code":"","population":"0","elevation":"","dem":"224","timezone":"Europe/Istanbul","modification_date":"2013-10-07"},{"geonameid":"739634","name":"Silivri","asciiname":"Silivri","alternatenames":["Selibria","Selymbria","Siliviri","Silivri","slwry","slywry","سلوری","سلیوری"],"latitude":"41.07393","longitude":"28.24644","feature_class":"P","feature_code":"PPLA2","country_code":"TR","cc2":"","admin1_code":"34","admin2_code":"","admin3_code":"","admin4_code":"","population":"53167","elevation":"","dem":"9","timezone":"Europe/Istanbul","modification_date":"2013-10-07"},{"geonameid":"739636","name":"Şile","asciiname":"Sile","alternatenames":["Artane","Chile","Kilia","Schile","Sile","Şile"],"latitude":"41.1754","longitude":"29.61333","feature_class":"P","feature_code":"PPLA2","country_code":"TR","cc2":"","admin1_code":"34","admin2_code":"","admin3_code":"","admin4_code":"","population":"11596","elevation":"","dem":"43","timezone":"Europe/Istanbul","modification_date":"2013-08-06"},{"geonameid":"739838","name":"Selimpaşa","asciiname":"Selimpasa","alternatenames":["Bigados","Bigadoş","Boados","Boghados","Epivates","Selimpasa","Selimpaşa"],"latitude":"41.05448","longitude":"28.36678","feature_class":"P","feature_code":"PPL","country_code":"TR","cc2":"","admin1_code":"34","admin2_code":"","admin3_code":"","admin4_code":"","population":"10563","elevation":"","dem":"17","timezone":"Europe/Istanbul","modification_date":"2013-10-07"},{"geonameid":"740286","name":"Samandıra","asciiname":"Samandira","alternatenames":["Samandira","Samandra","Samandıra"],"latitude":"40.999","longitude":"29.22565","feature_class":"P","feature_code":"PPLA3","country_code":"TR","cc2":"","admin1_code":"34","admin2_code":"","admin3_code":"","admin4_code":"","population":"0","elevation":"","dem":"118","timezone":"Europe/Istanbul","modification_date":"2013-10-07"},{"geonameid":"740616","name":"Pendik","asciiname":"Pendik","alternatenames":["Pendik"],"latitude":"40.8775","longitude":"29.2725","feature_class":"P","feature_code":"PPLA2","country_code":"TR","cc2":"","admin1_code":"34","admin2_code":"","admin3_code":"","admin4_code":"","population":"0","elevation":"","dem":"53","timezone":"Europe/Istanbul","modification_date":"2013-08-06"},{"geonameid":"740940","name":"Ortaköy","asciiname":"Ortakoy","alternatenames":[""],"latitude":"41.10154","longitude":"28.37588","feature_class":"P","feature_code":"PPL","country_code":"TR","cc2":"","admin1_code":"34","admin2_code":"","admin3_code":"","admin4_code":"","population":"3835","elevation":"","dem":"107","timezone":"Europe/Istanbul","modification_date":"2010-01-11"},{"geonameid":"741529","name":"Mimarsinan","asciiname":"Mimarsinan","alternatenames":["Kalikratya","Mimarsinan","Мимарсинан"],"latitude":"41.0179","longitude":"28.56176","feature_class":"P","feature_code":"PPL","country_code":"TR","cc2":"","admin1_code":"34","admin2_code":"","admin3_code":"","admin4_code":"","population":"31002","elevation":"","dem":"4","timezone":"Europe/Istanbul","modification_date":"2013-10-07"},{"geonameid":"741763","name":"Maltepe","asciiname":"Maltepe","alternatenames":[""],"latitude":"40.93567","longitude":"29.15507","feature_class":"P","feature_code":"PPL","country_code":"TR","cc2":"","admin1_code":"34","admin2_code":"","admin3_code":"","admin4_code":"","population":"427040","elevation":"","dem":"150","timezone":"Europe/Istanbul","modification_date":"2011-01-05"},{"geonameid":"741793","name":"Mahmut Şevket Paşa","asciiname":"Mahmut Sevket Pasa","alternatenames":["Arnavutkoy","Arnavutköy","Mahmut Sevket Pasa","Mahmut Şevket Paşa","Mahmutsevketpasa Koy","Mahmutşevketpaşa Köy"],"latitude":"41.15281","longitude":"29.18968","feature_class":"P","feature_code":"PPLA3","country_code":"TR","cc2":"","admin1_code":"34","admin2_code":"","admin3_code":"","admin4_code":"","population":"0","elevation":"","dem":"37","timezone":"Europe/Istanbul","modification_date":"2013-10-07"},{"geonameid":"741812","name":"Mahmutbey","asciiname":"Mahmutbey","alternatenames":["Mahmutbey"],"latitude":"41.05361","longitude":"28.82556","feature_class":"P","feature_code":"PPLA3","country_code":"TR","cc2":"","admin1_code":"34","admin2_code":"","admin3_code":"","admin4_code":"","population":"0","elevation":"","dem":"91","timezone":"Europe/Istanbul","modification_date":"2013-09-08"},{"geonameid":"742266","name":"Kumburgaz","asciiname":"Kumburgaz","alternatenames":["Kumburgaz"],"latitude":"41.02108","longitude":"28.48033","feature_class":"P","feature_code":"PPL","country_code":"TR","cc2":"","admin1_code":"34","admin2_code":"","admin3_code":"","admin4_code":"","population":"11949","elevation":"","dem":"42","timezone":"Europe/Istanbul","modification_date":"2013-10-07"},{"geonameid":"743316","name":"Kınalı","asciiname":"Kinali","alternatenames":["Kinali","Kinaliada","Kınalı","Kınalıada","Proti","Кинали"],"latitude":"40.90713","longitude":"29.05499","feature_class":"P","feature_code":"PPL","country_code":"TR","cc2":"","admin1_code":"34","admin2_code":"","admin3_code":"","admin4_code":"","population":"3318","elevation":"","dem":"6","timezone":"Europe/Istanbul","modification_date":"2012-10-11"},{"geonameid":"743506","name":"Kemerburgaz","asciiname":"Kemerburgaz","alternatenames":["Kemerburgaz","Pirgos"],"latitude":"41.15902","longitude":"28.91572","feature_class":"P","feature_code":"PPLA3","country_code":"TR","cc2":"","admin1_code":"34","admin2_code":"","admin3_code":"","admin4_code":"","population":"0","elevation":"","dem":"66","timezone":"Europe/Istanbul","modification_date":"2013-10-07"},{"geonameid":"743818","name":"Kavaklı","asciiname":"Kavakli","alternatenames":["Fetekoy","Feteköy","Kavakli","Kavakly","Kavaklı","Каваклы"],"latitude":"41.09258","longitude":"28.33172","feature_class":"P","feature_code":"PPL","country_code":"TR","cc2":"","admin1_code":"34","admin2_code":"","admin3_code":"","admin4_code":"","population":"50502","elevation":"","dem":"81","timezone":"Europe/Istanbul","modification_date":"2010-08-03"},{"geonameid":"744514","name":"Karacaköy","asciiname":"Karacakoy","alternatenames":["Karacakoy","Karacaköy"],"latitude":"41.40338","longitude":"28.38055","feature_class":"P","feature_code":"PPL","country_code":"TR","cc2":"","admin1_code":"34","admin2_code":"","admin3_code":"","admin4_code":"","population":"3105","elevation":"","dem":"23","timezone":"Europe/Istanbul","modification_date":"2013-10-07"},{"geonameid":"745044","name":"İstanbul","asciiname":"Istanbul","alternatenames":["Bizanc","Bizánc","Byzance","Byzantion","Byzantium","Byzanz","Constantinoble","Constantinopla","Constantinople","Constantinopoli","Constantinopolis","Costantinopoli","Estambul","IST","Istamboul","Istambul","Istambuł","Istampoul","Istanbul","Istanbúl","Isztambul","Konstantinapoly","Konstantinopel","Konstantinopolo","Konstantinoupole","Konstantinoupoli","Konstantinoupolis","Konstantinápoly","Kustantiniyah","Micklagard","Micklagård","Mikligardur","Mikligarður","Stamboul","Stambul","Stambula","Stambuł","Tsarigrad","Vizantija (Vizantija)","Vyzantio","astnbwl","bijantion","byuzantion","byzntywn","istambula","isutanburu","stin Poli [stimˈboli]","yi si tan bu er","İstanbul","Βυζάντιο","Βυζαντιο","Ισταμπουλ","Ισταμπούλ","Κωνσταντινουπολη","Κωνσταντινούπολη","Κωνσταντινούπολις","στην Πόλι [stimˈboli]","Византија (Vizantija)","Истанбул","Стамбул","ביזנטיון","اسطنبول","इस्तांबुल","イスタンブール","ビュザンティオン","伊斯坦布尔","비잔티온"],"latitude":"41.01384","longitude":"28.94966","feature_class":"P","feature_code":"PPLA","country_code":"TR","cc2":"","admin1_code":"34","admin2_code":"","admin3_code":"","admin4_code":"","population":"11174257","elevation":"","dem":"39","timezone":"Europe/Istanbul","modification_date":"2015-06-03"},{"geonameid":"749644","name":"Çatalca","asciiname":"Catalca","alternatenames":["Catalca","Chataldja","Chatalja","Tchataldja","Tschataldja","Çatalca"],"latitude":"41.14324","longitude":"28.46154","feature_class":"P","feature_code":"PPL","country_code":"TR","cc2":"","admin1_code":"34","admin2_code":"","admin3_code":"","admin4_code":"","population":"19316","elevation":"","dem":"88","timezone":"Europe/Istanbul","modification_date":"2010-12-30"},{"geonameid":"749740","name":"Çanta","asciiname":"Canta","alternatenames":["Canta","Cantakoy","Çanta","Çantaköy"],"latitude":"41.07897","longitude":"28.08323","feature_class":"P","feature_code":"PPL","country_code":"TR","cc2":"","admin1_code":"34","admin2_code":"","admin3_code":"","admin4_code":"","population":"5470","elevation":"","dem":"88","timezone":"Europe/Istanbul","modification_date":"2015-06-08"},{"geonameid":"750225","name":"Chekmejeh","asciiname":"Chekmejeh","alternatenames":["Buyuk Chekmejeh","Buyukcekmece","Büyükçekmece","Chekmejeh"],"latitude":"41.01284","longitude":"28.53824","feature_class":"P","feature_code":"PPLA2","country_code":"TR","cc2":"","admin1_code":"34","admin2_code":"","admin3_code":"","admin4_code":"","population":"0","elevation":"","dem":"68","timezone":"Europe/Istanbul","modification_date":"2013-10-07"},{"geonameid":"750228","name":"Büyükçavuşlu","asciiname":"Buyukcavuslu","alternatenames":["Buyukcavuslu","Büyükçavuşlu"],"latitude":"41.24002","longitude":"28.06331","feature_class":"P","feature_code":"PPL","country_code":"TR","cc2":"","admin1_code":"34","admin2_code":"","admin3_code":"","admin4_code":"","population":"3840","elevation":"","dem":"144","timezone":"Europe/Istanbul","modification_date":"2013-10-07"},{"geonameid":"750249","name":"Adalar","asciiname":"Adalar","alternatenames":["Adalar","Bujukada","Buyukada","Büyükada","Prinkipo","Буюкада"],"latitude":"40.86778","longitude":"29.13306","feature_class":"P","feature_code":"PPLA2","country_code":"TR","cc2":"","admin1_code":"34","admin2_code":"","admin3_code":"","admin4_code":"","population":"7335","elevation":"","dem":"65","timezone":"Europe/Istanbul","modification_date":"2013-08-06"},{"geonameid":"750446","name":"Boyalık","asciiname":"Boyalik","alternatenames":["Boyalik","Boyalık","Hadimkoy","Hadımköy"],"latitude":"41.26337","longitude":"28.63142","feature_class":"P","feature_code":"PPL","country_code":"TR","cc2":"","admin1_code":"34","admin2_code":"","admin3_code":"","admin4_code":"","population":"11835","elevation":"","dem":"83","timezone":"Europe/Istanbul","modification_date":"2010-08-03"},{"geonameid":"751324","name":"Bağcılar","asciiname":"Bagcilar","alternatenames":["Badzilaras rajons","Bagdzhylar","Bādžilaras rajons","Cifitburgaz","Ciftburgaz","Çiftburgaz","Çıfıtburgaz","Багджылар"],"latitude":"41.03903","longitude":"28.85671","feature_class":"P","feature_code":"PPL","country_code":"TR","cc2":"","admin1_code":"34","admin2_code":"","admin3_code":"","admin4_code":"","population":"724270","elevation":"","dem":"105","timezone":"Europe/Istanbul","modification_date":"2014-02-23"}]}