{"region_data":{"countryId":"298795","adminCode1":"71","countryName":"Turkey","fclName":"country, state, region,...","countryCode":"TR","lng":"32.5","fcodeName":"first-order administrative division","toponymName":"Konya","fcl":"A","numberOfChildren":31,"name":"Konya","fcode":"ADM1","geonameId":306569,"lat":"38.16667","adminName1":"Konya","population":2079225},"country_data":{"ISO":"TR","ISO3":"TUR","ISO_Numeric":"792","fips":"TU","country":"Turkey","capital":"Ankara","area":"780580","Population":"77804122","Continent":"AS","tld":".tr","CurrencyCode":"TRY","CurrencyName":"Lira","Phone":"90","Postal_Code_Format":"#####","Postal_Code_Regex":"^(\\d{5})$","Languages":"tr-TR,ku,diq,az,av","geonameid":"298795","neighbours":"SY,GE,IQ,IR,GR,AM,AZ,BG","EquivalentFipsCode":""},"cities":[{"geonameid":"296134","name":"Yunak","asciiname":"Yunak","alternatenames":["Yunak"],"latitude":"38.81418","longitude":"31.73223","feature_class":"P","feature_code":"PPLA2","country_code":"TR","cc2":"","admin1_code":"71","admin2_code":"","admin3_code":"","admin4_code":"","population":"14050","elevation":"","dem":"1088","timezone":"Europe/Istanbul","modification_date":"2012-01-18"},{"geonameid":"297125","name":"Yeniceoba","asciiname":"Yeniceoba","alternatenames":["Yeniceoba"],"latitude":"38.86972","longitude":"32.78833","feature_class":"P","feature_code":"PPLA3","country_code":"TR","cc2":"","admin1_code":"71","admin2_code":"","admin3_code":"","admin4_code":"","population":"0","elevation":"","dem":"964","timezone":"Europe/Istanbul","modification_date":"2013-09-08"},{"geonameid":"297628","name":"Yarma","asciiname":"Yarma","alternatenames":["Yarma"],"latitude":"37.81149","longitude":"32.88278","feature_class":"P","feature_code":"PPLA3","country_code":"TR","cc2":"","admin1_code":"71","admin2_code":"","admin3_code":"","admin4_code":"","population":"2601","elevation":"","dem":"1003","timezone":"Europe/Istanbul","modification_date":"2013-09-08"},{"geonameid":"297839","name":"Yalıhüyük","asciiname":"Yalihuyuk","alternatenames":["Yalihuyuk","Yalıhüyük"],"latitude":"37.30077","longitude":"32.08548","feature_class":"P","feature_code":"PPLA2","country_code":"TR","cc2":"","admin1_code":"71","admin2_code":"","admin3_code":"","admin4_code":"","population":"6116","elevation":"","dem":"1106","timezone":"Europe/Istanbul","modification_date":"2012-01-18"},{"geonameid":"298233","name":"Üzümlü","asciiname":"Uzumlu","alternatenames":["Manastir","Manastır","Uzumlu","Uzumlu Manastir","Uzumlu Manastır","Üzümlü"],"latitude":"37.54057","longitude":"31.6038","feature_class":"P","feature_code":"PPLA3","country_code":"TR","cc2":"","admin1_code":"71","admin2_code":"","admin3_code":"","admin4_code":"","population":"0","elevation":"","dem":"1303","timezone":"Europe/Istanbul","modification_date":"2013-09-08"},{"geonameid":"298552","name":"Üçpınar","asciiname":"Ucpinar","alternatenames":["Hocakoy","Hocaköy","Ucpinar","Üçpınar"],"latitude":"37.13413","longitude":"32.26146","feature_class":"P","feature_code":"PPLA3","country_code":"TR","cc2":"","admin1_code":"71","admin2_code":"","admin3_code":"","admin4_code":"","population":"0","elevation":"","dem":"1476","timezone":"Europe/Istanbul","modification_date":"2013-09-08"},{"geonameid":"298647","name":"Tuzlukçu","asciiname":"Tuzlukcu","alternatenames":["Tuzlukcu","Tuzlukçu"],"latitude":"38.47778","longitude":"31.62639","feature_class":"P","feature_code":"PPLA2","country_code":"TR","cc2":"","admin1_code":"71","admin2_code":"","admin3_code":"","admin4_code":"","population":"6008","elevation":"","dem":"993","timezone":"Europe/Istanbul","modification_date":"2012-01-18"},{"geonameid":"298815","name":"Turgut","asciiname":"Turgut","alternatenames":["Turgut"],"latitude":"38.62694","longitude":"31.81083","feature_class":"P","feature_code":"PPLA3","country_code":"TR","cc2":"","admin1_code":"71","admin2_code":"","admin3_code":"","admin4_code":"","population":"0","elevation":"","dem":"1004","timezone":"Europe/Istanbul","modification_date":"2013-09-08"},{"geonameid":"299755","name":"Taşkent","asciiname":"Taskent","alternatenames":["Pirlerkondu","Taskent","Taşkent"],"latitude":"36.9243","longitude":"32.49131","feature_class":"P","feature_code":"PPLA2","country_code":"TR","cc2":"","admin1_code":"71","admin2_code":"","admin3_code":"","admin4_code":"","population":"11838","elevation":"","dem":"1542","timezone":"Europe/Istanbul","modification_date":"2012-01-18"},{"geonameid":"300155","name":"Sülüklü","asciiname":"Suluklu","alternatenames":["Suluklu","Sülüklü"],"latitude":"38.88111","longitude":"32.3425","feature_class":"P","feature_code":"PPLA3","country_code":"TR","cc2":"","admin1_code":"71","admin2_code":"","admin3_code":"","admin4_code":"","population":"0","elevation":"","dem":"1031","timezone":"Europe/Istanbul","modification_date":"2013-09-08"},{"geonameid":"300799","name":"Sille","asciiname":"Sille","alternatenames":["Sille"],"latitude":"37.92731","longitude":"32.41995","feature_class":"P","feature_code":"PPLA3","country_code":"TR","cc2":"","admin1_code":"71","admin2_code":"","admin3_code":"","admin4_code":"","population":"0","elevation":"","dem":"1177","timezone":"Europe/Istanbul","modification_date":"2013-09-08"},{"geonameid":"301010","name":"Seydişehir","asciiname":"Seydisehir","alternatenames":["Seydisehir","Seydişehir"],"latitude":"37.41926","longitude":"31.84527","feature_class":"P","feature_code":"PPLA2","country_code":"TR","cc2":"","admin1_code":"71","admin2_code":"","admin3_code":"","admin4_code":"","population":"51089","elevation":"","dem":"1127","timezone":"Europe/Istanbul","modification_date":"2012-01-18"},{"geonameid":"305510","name":"Kurthasanlı","asciiname":"Kurthasanli","alternatenames":["Kurthasanli","Kurthasanlı"],"latitude":"38.32611","longitude":"32.17528","feature_class":"P","feature_code":"PPLA3","country_code":"TR","cc2":"","admin1_code":"71","admin2_code":"","admin3_code":"","admin4_code":"","population":"0","elevation":"","dem":"1029","timezone":"Europe/Istanbul","modification_date":"2013-09-08"},{"geonameid":"305742","name":"Kulu","asciiname":"Kulu","alternatenames":["Kulu"],"latitude":"39.09513","longitude":"33.07989","feature_class":"P","feature_code":"PPLA2","country_code":"TR","cc2":"","admin1_code":"71","admin2_code":"","admin3_code":"","admin4_code":"","population":"47037","elevation":"","dem":"983","timezone":"Europe/Istanbul","modification_date":"2012-01-18"},{"geonameid":"306571","name":"Konya","asciiname":"Konya","alternatenames":["Conia","Gorad Kon'ja","Iconio","Iconium","Ikonio","Ikoniow","KYA","Kon'ja","Koni","Konia","Konieh","Konija","Konja","Konjao","Konya","Kuniyah","Kuon'ja","Qonia","Qonya","Qonye","ke ni ya","kean'ya","kon'ya","konia","qwnyh","qwnyt","Ικόνιο","Горад Конья","Кония","Конија","Конья","Къонья","Կոնիա","קוניה","قونية","قونیه","قونیہ","कोन्या","കോന്യ","კონია","コンヤ","科尼亞","코니아"],"latitude":"37.87135","longitude":"32.48464","feature_class":"P","feature_code":"PPLA","country_code":"TR","cc2":"","admin1_code":"71","admin2_code":"","admin3_code":"","admin4_code":"","population":"875530","elevation":"","dem":"1030","timezone":"Europe/Istanbul","modification_date":"2012-09-04"},{"geonameid":"307132","name":"Kızılören","asciiname":"Kiziloren","alternatenames":["Kiziloren","Kizilviran","Kızılviran","Kızılören"],"latitude":"37.86847","longitude":"32.11618","feature_class":"P","feature_code":"PPLA3","country_code":"TR","cc2":"","admin1_code":"71","admin2_code":"","admin3_code":"","admin4_code":"","population":"0","elevation":"","dem":"1484","timezone":"Europe/Istanbul","modification_date":"2013-09-08"},{"geonameid":"309415","name":"Karapınar","asciiname":"Karapinar","alternatenames":["Karapinar","Karapınar","Sultaniye"],"latitude":"37.71596","longitude":"33.55064","feature_class":"P","feature_code":"PPLA2","country_code":"TR","cc2":"","admin1_code":"71","admin2_code":"","admin3_code":"","admin4_code":"","population":"49509","elevation":"","dem":"995","timezone":"Europe/Istanbul","modification_date":"2012-01-18"},{"geonameid":"311553","name":"Ilgın","asciiname":"Ilgin","alternatenames":["Ilgin","Ilgın","Tyriaeum"],"latitude":"38.27917","longitude":"31.91389","feature_class":"P","feature_code":"PPLA2","country_code":"TR","cc2":"","admin1_code":"71","admin2_code":"","admin3_code":"","admin4_code":"","population":"27423","elevation":"","dem":"1036","timezone":"Europe/Istanbul","modification_date":"2012-01-18"},{"geonameid":"316475","name":"Doğanhisar","asciiname":"Doganhisar","alternatenames":["Doganhisar","Doğanhisar"],"latitude":"38.1463","longitude":"31.67648","feature_class":"P","feature_code":"PPLA2","country_code":"TR","cc2":"","admin1_code":"71","admin2_code":"","admin3_code":"","admin4_code":"","population":"9857","elevation":"","dem":"1200","timezone":"Europe/Istanbul","modification_date":"2012-01-18"},{"geonameid":"316505","name":"Doğanbey","asciiname":"Doganbey","alternatenames":["Davgana","Doganbey","Doğanbey","Ipsile","Ipsıle"],"latitude":"37.8005","longitude":"31.8911","feature_class":"P","feature_code":"PPLA3","country_code":"TR","cc2":"","admin1_code":"71","admin2_code":"","admin3_code":"","admin4_code":"","population":"0","elevation":"","dem":"1266","timezone":"Europe/Istanbul","modification_date":"2013-09-08"},{"geonameid":"316625","name":"Dinek","asciiname":"Dinek","alternatenames":["Dinek"],"latitude":"37.32481","longitude":"32.61602","feature_class":"P","feature_code":"PPLA3","country_code":"TR","cc2":"","admin1_code":"71","admin2_code":"","admin3_code":"","admin4_code":"","population":"0","elevation":"","dem":"1194","timezone":"Europe/Istanbul","modification_date":"2013-09-08"},{"geonameid":"317049","name":"Derebucak","asciiname":"Derebucak","alternatenames":["Derebucak"],"latitude":"37.39179","longitude":"31.50918","feature_class":"P","feature_code":"PPLA2","country_code":"TR","cc2":"","admin1_code":"71","admin2_code":"","admin3_code":"","admin4_code":"","population":"5035","elevation":"","dem":"1229","timezone":"Europe/Istanbul","modification_date":"2012-01-18"},{"geonameid":"317095","name":"Derbent","asciiname":"Derbent","alternatenames":["Derbent"],"latitude":"38.01422","longitude":"32.01639","feature_class":"P","feature_code":"PPLA2","country_code":"TR","cc2":"","admin1_code":"71","admin2_code":"","admin3_code":"","admin4_code":"","population":"7919","elevation":"","dem":"1489","timezone":"Europe/Istanbul","modification_date":"2012-01-18"},{"geonameid":"317844","name":"Çumra","asciiname":"Cumra","alternatenames":["Cumra","Çumra"],"latitude":"37.5732","longitude":"32.77446","feature_class":"P","feature_code":"PPLA2","country_code":"TR","cc2":"","admin1_code":"71","admin2_code":"","admin3_code":"","admin4_code":"","population":"45657","elevation":"","dem":"1015","timezone":"Europe/Istanbul","modification_date":"2012-01-18"},{"geonameid":"318506","name":"Cihanbeyli","asciiname":"Cihanbeyli","alternatenames":["Cihanbeyli","Inevi","İnevi"],"latitude":"38.66072","longitude":"32.92437","feature_class":"P","feature_code":"PPLA2","country_code":"TR","cc2":"","admin1_code":"71","admin2_code":"","admin3_code":"","admin4_code":"","population":"13782","elevation":"","dem":"977","timezone":"Europe/Istanbul","modification_date":"2012-01-18"},{"geonameid":"318531","name":"Çiğil","asciiname":"Cigil","alternatenames":["Cigil","Çiğil"],"latitude":"37.47923","longitude":"33.31805","feature_class":"P","feature_code":"PPLA3","country_code":"TR","cc2":"","admin1_code":"71","admin2_code":"","admin3_code":"","admin4_code":"","population":"0","elevation":"","dem":"1009","timezone":"Europe/Istanbul","modification_date":"2013-09-08"},{"geonameid":"318885","name":"Çeltik","asciiname":"Celtik","alternatenames":["Celtik","Çeltik"],"latitude":"39.02444","longitude":"31.79056","feature_class":"P","feature_code":"PPLA2","country_code":"TR","cc2":"","admin1_code":"71","admin2_code":"","admin3_code":"","admin4_code":"","population":"0","elevation":"","dem":"852","timezone":"Europe/Istanbul","modification_date":"2012-05-06"},{"geonameid":"319149","name":"Çavuş","asciiname":"Cavus","alternatenames":["Cavus","Çavuş"],"latitude":"37.60963","longitude":"31.93135","feature_class":"P","feature_code":"PPLA3","country_code":"TR","cc2":"","admin1_code":"71","admin2_code":"","admin3_code":"","admin4_code":"","population":"0","elevation":"","dem":"1176","timezone":"Europe/Istanbul","modification_date":"2013-09-08"},{"geonameid":"320621","name":"Bozkır","asciiname":"Bozkir","alternatenames":["Bozkir","Bozkır","Silistat","Sitistat"],"latitude":"37.18963","longitude":"32.24736","feature_class":"P","feature_code":"PPLA2","country_code":"TR","cc2":"","admin1_code":"71","admin2_code":"","admin3_code":"","admin4_code":"","population":"10958","elevation":"","dem":"1135","timezone":"Europe/Istanbul","modification_date":"2012-01-18"},{"geonameid":"321191","name":"Beyşehir","asciiname":"Beysehir","alternatenames":["Bejshekhir","Beysehir","Beyşehir","bkshhry","Бейшехир","بکشهری"],"latitude":"37.67735","longitude":"31.72458","feature_class":"P","feature_code":"PPLA2","country_code":"TR","cc2":"","admin1_code":"71","admin2_code":"","admin3_code":"","admin4_code":"","population":"44460","elevation":"","dem":"1137","timezone":"Europe/Istanbul","modification_date":"2012-01-18"},{"geonameid":"321499","name":"Belören","asciiname":"Beloren","alternatenames":["Beloren","Belviran","Belören","Sarioglan","Sarioglanboyalisi","Sarıoğlan","Sarıoğlanboyalısı"],"latitude":"37.2148","longitude":"32.55363","feature_class":"P","feature_code":"PPLA3","country_code":"TR","cc2":"","admin1_code":"71","admin2_code":"","admin3_code":"","admin4_code":"","population":"0","elevation":"","dem":"1375","timezone":"Europe/Istanbul","modification_date":"2013-09-08"},{"geonameid":"323218","name":"Aşağıpınarbaşı","asciiname":"Asagipinarbasi","alternatenames":["Asagi Pinarbas","Asagipinarbasi","Aşağı Pınarbaş","Aşağıpınarbaşı","Tomek","Tömek"],"latitude":"38.03833","longitude":"32.60083","feature_class":"P","feature_code":"PPLA3","country_code":"TR","cc2":"","admin1_code":"71","admin2_code":"","admin3_code":"","admin4_code":"","population":"0","elevation":"","dem":"1004","timezone":"Europe/Istanbul","modification_date":"2013-09-08"},{"geonameid":"323427","name":"Aşağıçiğil","asciiname":"Asagicigil","alternatenames":["Asagicigil","Asagicigli","Aşağıçiğil","Aşağıçiğli"],"latitude":"38.0515","longitude":"31.86379","feature_class":"P","feature_code":"PPLA3","country_code":"TR","cc2":"","admin1_code":"71","admin2_code":"","admin3_code":"","admin4_code":"","population":"0","elevation":"","dem":"1243","timezone":"Europe/Istanbul","modification_date":"2013-09-08"},{"geonameid":"323661","name":"Argıthanı","asciiname":"Argithani","alternatenames":["Argithan","Argithani","Argıthan","Argıthanı"],"latitude":"38.29259","longitude":"31.71452","feature_class":"P","feature_code":"PPLA3","country_code":"TR","cc2":"","admin1_code":"71","admin2_code":"","admin3_code":"","admin4_code":"","population":"0","elevation":"","dem":"1094","timezone":"Europe/Istanbul","modification_date":"2013-09-08"},{"geonameid":"323930","name":"Altınekin","asciiname":"Altinekin","alternatenames":["Altinekin","Altınekin","Zivarik","Zıvarık"],"latitude":"38.30778","longitude":"32.86861","feature_class":"P","feature_code":"PPLA2","country_code":"TR","cc2":"","admin1_code":"71","admin2_code":"","admin3_code":"","admin4_code":"","population":"13090","elevation":"","dem":"985","timezone":"Europe/Istanbul","modification_date":"2012-01-18"},{"geonameid":"324490","name":"Akşehir","asciiname":"Aksehir","alternatenames":["Ak Shehr","Aksehir","Akşehir","Philomelium"],"latitude":"38.3575","longitude":"31.41639","feature_class":"P","feature_code":"PPLA2","country_code":"TR","cc2":"","admin1_code":"71","admin2_code":"","admin3_code":"","admin4_code":"","population":"64446","elevation":"","dem":"1033","timezone":"Europe/Istanbul","modification_date":"2012-01-18"},{"geonameid":"324577","name":"Akören","asciiname":"Akoren","alternatenames":["Akoren","Akviran","Akören"],"latitude":"37.45345","longitude":"32.3707","feature_class":"P","feature_code":"PPLA2","country_code":"TR","cc2":"","admin1_code":"71","admin2_code":"","admin3_code":"","admin4_code":"","population":"0","elevation":"","dem":"1106","timezone":"Europe/Istanbul","modification_date":"2012-01-18"},{"geonameid":"325109","name":"Ahırlı","asciiname":"Ahirli","alternatenames":["Ahirli","Ahırlı"],"latitude":"37.23874","longitude":"32.11881","feature_class":"P","feature_code":"PPLA2","country_code":"TR","cc2":"","admin1_code":"71","admin2_code":"","admin3_code":"","admin4_code":"","population":"0","elevation":"","dem":"1221","timezone":"Europe/Istanbul","modification_date":"2012-05-06"},{"geonameid":"301824","name":"Sarayönü","asciiname":"Sarayonu","alternatenames":["Sarayonu","Sarayönü"],"latitude":"38.26201","longitude":"32.40457","feature_class":"P","feature_code":"PPLA2","country_code":"TR","cc2":"","admin1_code":"71","admin2_code":"","admin3_code":"","admin4_code":"","population":"10198","elevation":"","dem":"1062","timezone":"Europe/Istanbul","modification_date":"2012-01-18"},{"geonameid":"310907","name":"Kadınhanı","asciiname":"Kadinhani","alternatenames":["Kadinhani","Kadınhanı","Saideli","Saiteli","syd ayly","سید ایلی"],"latitude":"38.23972","longitude":"32.21139","feature_class":"P","feature_code":"PPLA2","country_code":"TR","cc2":"","admin1_code":"71","admin2_code":"","admin3_code":"","admin4_code":"","population":"15301","elevation":"","dem":"1121","timezone":"Europe/Istanbul","modification_date":"2012-01-18"},{"geonameid":"311777","name":"Hüyük","asciiname":"Huyuk","alternatenames":["Hoyuk","Hoyuk Koyu","Huyuk","Höyük","Höyük Köyü","Hüyük"],"latitude":"37.95388","longitude":"31.59639","feature_class":"P","feature_code":"PPLA2","country_code":"TR","cc2":"","admin1_code":"71","admin2_code":"","admin3_code":"","admin4_code":"","population":"11502","elevation":"","dem":"1249","timezone":"Europe/Istanbul","modification_date":"2012-01-18"},{"geonameid":"312899","name":"Hadim","asciiname":"Hadim","alternatenames":["Hadim","Khadim","Yukari Hadim","Yukarı Hadım","Хадим"],"latitude":"36.98776","longitude":"32.45674","feature_class":"P","feature_code":"PPLA2","country_code":"TR","cc2":"","admin1_code":"71","admin2_code":"","admin3_code":"","admin4_code":"","population":"20110","elevation":"","dem":"1533","timezone":"Europe/Istanbul","modification_date":"2013-07-06"},{"geonameid":"315498","name":"Ereğli","asciiname":"Eregli","alternatenames":["Cybistra","Ehregli","Erakleia","Eregli","Ereğli","Heraclea","Heraclea Minoa","Heraclee","Heracleia Minoa","Héraclée","Konyaereglisi","Konyaereğlisi","Ηράκλεια","Эрегли"],"latitude":"37.51333","longitude":"34.04672","feature_class":"P","feature_code":"PPL","country_code":"TR","cc2":"","admin1_code":"71","admin2_code":"","admin3_code":"","admin4_code":"","population":"92117","elevation":"","dem":"1053","timezone":"Europe/Istanbul","modification_date":"2010-08-03"},{"geonameid":"315617","name":"Emirgazi","asciiname":"Emirgazi","alternatenames":["Emirgazi"],"latitude":"37.90222","longitude":"33.83722","feature_class":"P","feature_code":"PPLA2","country_code":"TR","cc2":"","admin1_code":"71","admin2_code":"","admin3_code":"","admin4_code":"","population":"8466","elevation":"","dem":"1090","timezone":"Europe/Istanbul","modification_date":"2012-05-06"}]}