{"region_data":{"countryId":"298795","adminCode1":"48","countryName":"Turkey","fclName":"country, state, region,...","countryCode":"TR","lng":"28.35571","fcodeName":"first-order administrative division","toponymName":"Muğla","fcl":"A","numberOfChildren":13,"name":"Muğla","fcode":"ADM1","geonameId":304183,"lat":"37.23033","adminName1":"Muğla","population":866665},"country_data":{"ISO":"TR","ISO3":"TUR","ISO_Numeric":"792","fips":"TU","country":"Turkey","capital":"Ankara","area":"780580","Population":"77804122","Continent":"AS","tld":".tr","CurrencyCode":"TRY","CurrencyName":"Lira","Phone":"90","Postal_Code_Format":"#####","Postal_Code_Regex":"^(\\d{5})$","Languages":"tr-TR,ku,diq,az,av","geonameid":"298795","neighbours":"SY,GE,IQ,IR,GR,AM,AZ,BG","EquivalentFipsCode":""},"cities":[{"geonameid":"296794","name":"Yeşilyurt","asciiname":"Yesilyurt","alternatenames":["Yesilyurt","Yeşilyurt"],"latitude":"37.19324","longitude":"28.27537","feature_class":"P","feature_code":"PPLA3","country_code":"TR","cc2":"","admin1_code":"48","admin2_code":"","admin3_code":"","admin4_code":"","population":"0","elevation":"","dem":"487","timezone":"Europe/Istanbul","modification_date":"2013-09-08"},{"geonameid":"296898","name":"Yerkesik","asciiname":"Yerkesik","alternatenames":["Yerkesik"],"latitude":"37.13625","longitude":"28.28403","feature_class":"P","feature_code":"PPLA3","country_code":"TR","cc2":"","admin1_code":"48","admin2_code":"","admin3_code":"","admin4_code":"","population":"0","elevation":"","dem":"664","timezone":"Europe/Istanbul","modification_date":"2015-05-06"},{"geonameid":"297564","name":"Yatağan","asciiname":"Yatagan","alternatenames":["Ahikoy","Ahiköy","Yatagan","Yatağan"],"latitude":"37.34025","longitude":"28.14279","feature_class":"P","feature_code":"PPLA2","country_code":"TR","cc2":"","admin1_code":"48","admin2_code":"","admin3_code":"","admin4_code":"","population":"19020","elevation":"","dem":"380","timezone":"Europe/Istanbul","modification_date":"2013-08-06"},{"geonameid":"298235","name":"Yeşilüzümlü","asciiname":"Yesiluzumlu","alternatenames":["Ozumlu","Uzumlu","Yesiluzumlu","Yeşilüzümlü","Özümlü","Üzümlü"],"latitude":"36.73361","longitude":"29.23333","feature_class":"P","feature_code":"PPLA3","country_code":"TR","cc2":"","admin1_code":"48","admin2_code":"","admin3_code":"","admin4_code":"","population":"0","elevation":"","dem":"505","timezone":"Europe/Istanbul","modification_date":"2015-05-06"},{"geonameid":"298485","name":"Ula","asciiname":"Ula","alternatenames":["Ula"],"latitude":"37.10491","longitude":"28.41667","feature_class":"P","feature_code":"PPLA2","country_code":"TR","cc2":"","admin1_code":"48","admin2_code":"","admin3_code":"","admin4_code":"","population":"5275","elevation":"","dem":"606","timezone":"Europe/Istanbul","modification_date":"2013-08-06"},{"geonameid":"298816","name":"Turgut","asciiname":"Turgut","alternatenames":["Leyna","Leyne","Turgut"],"latitude":"37.375","longitude":"28.03111","feature_class":"P","feature_code":"PPLA3","country_code":"TR","cc2":"","admin1_code":"48","admin2_code":"","admin3_code":"","admin4_code":"","population":"2065","elevation":"","dem":"529","timezone":"Europe/Istanbul","modification_date":"2013-09-08"},{"geonameid":"306859","name":"Göcek","asciiname":"Goecek","alternatenames":["Gocek","Gochek","Göcek","Kocek","Kucuk","Köçek","Küçük","Гочек"],"latitude":"36.75345","longitude":"28.94571","feature_class":"P","feature_code":"PPL","country_code":"TR","cc2":"","admin1_code":"48","admin2_code":"","admin3_code":"","admin4_code":"","population":"4500","elevation":"","dem":"7","timezone":"Europe/Istanbul","modification_date":"2015-05-06"},{"geonameid":"308219","name":"Kemer","asciiname":"Kemer","alternatenames":["Kemer"],"latitude":"36.6481","longitude":"29.3591","feature_class":"P","feature_code":"PPLA3","country_code":"TR","cc2":"","admin1_code":"48","admin2_code":"","admin3_code":"","admin4_code":"","population":"0","elevation":"","dem":"141","timezone":"Europe/Istanbul","modification_date":"2015-05-06"},{"geonameid":"308776","name":"Kavaklıdere","asciiname":"Kavaklidere","alternatenames":["Kavakdere","Kavaklidere","Kavaklıdere"],"latitude":"37.44463","longitude":"28.36276","feature_class":"P","feature_code":"PPLA2","country_code":"TR","cc2":"","admin1_code":"48","admin2_code":"","admin3_code":"","admin4_code":"","population":"3466","elevation":"","dem":"897","timezone":"Europe/Istanbul","modification_date":"2013-08-06"},{"geonameid":"309131","name":"Kargı","asciiname":"Kargi","alternatenames":["Kargifoca","Kargıfoca","Pirnaz","Pırnaz"],"latitude":"36.70132","longitude":"29.07557","feature_class":"P","feature_code":"PPL","country_code":"TR","cc2":"TR","admin1_code":"48","admin2_code":"","admin3_code":"","admin4_code":"","population":"1163","elevation":"","dem":"21","timezone":"Europe/Istanbul","modification_date":"2010-03-05"},{"geonameid":"309235","name":"Karatoprak","asciiname":"Karatoprak","alternatenames":["Karatoprak","Turgutreis"],"latitude":"37.01385","longitude":"27.25893","feature_class":"P","feature_code":"PPLA3","country_code":"TR","cc2":"","admin1_code":"48","admin2_code":"7733242","admin3_code":"","admin4_code":"","population":"0","elevation":"","dem":"4","timezone":"Europe/Istanbul","modification_date":"2013-11-10"},{"geonameid":"317543","name":"Datça","asciiname":"Datca","alternatenames":["Datca","Datça","Resadiye","Reşadiye"],"latitude":"36.73778","longitude":"27.68417","feature_class":"P","feature_code":"PPL","country_code":"TR","cc2":"","admin1_code":"48","admin2_code":"","admin3_code":"","admin4_code":"","population":"10121","elevation":"","dem":"31","timezone":"Europe/Istanbul","modification_date":"2010-08-27"},{"geonameid":"317681","name":"Dalyan","asciiname":"Dalyan","alternatenames":["Dal'jan","Dalyan","Dalyankoy","Dalyanköy","Дальян"],"latitude":"36.83429","longitude":"28.6446","feature_class":"P","feature_code":"PPL","country_code":"TR","cc2":"","admin1_code":"48","admin2_code":"","admin3_code":"","admin4_code":"","population":"5000","elevation":"","dem":"3","timezone":"Europe/Istanbul","modification_date":"2015-04-29"},{"geonameid":"320716","name":"Bozburun","asciiname":"Bozburun","alternatenames":["Bozburun"],"latitude":"36.69495","longitude":"28.04336","feature_class":"P","feature_code":"PPLA3","country_code":"TR","cc2":"","admin1_code":"48","admin2_code":"","admin3_code":"","admin4_code":"","population":"0","elevation":"","dem":"1","timezone":"Europe/Istanbul","modification_date":"2015-05-06"},{"geonameid":"320730","name":"Bozarmut","asciiname":"Bozarmut","alternatenames":["Asagi Bozarmut","Aşağı Bozarmut","Bozarmut"],"latitude":"37.30917","longitude":"28.16972","feature_class":"P","feature_code":"PPL","country_code":"TR","cc2":"","admin1_code":"48","admin2_code":"","admin3_code":"","admin4_code":"","population":"2168","elevation":"","dem":"386","timezone":"Europe/Istanbul","modification_date":"2015-05-06"},{"geonameid":"320995","name":"Bodrum","asciiname":"Bodrum","alternatenames":["Alikarnassos","BXN","Bodrum","Bodurum","Budrum","Halicarnassus","Petronium","bo de lu mu","bodeulum","bodorumu","bodrumi","bwdrwm","Αλικαρνασσός","Бодрум","בודרום","بودروم","ضلع بوڈرم","ბოდრუმი","ボドルム","博德鲁姆","보드룸"],"latitude":"37.03833","longitude":"27.42917","feature_class":"P","feature_code":"PPLA2","country_code":"TR","cc2":"","admin1_code":"48","admin2_code":"7733242","admin3_code":"","admin4_code":"","population":"39317","elevation":"","dem":"11","timezone":"Europe/Istanbul","modification_date":"2013-11-10"},{"geonameid":"321772","name":"Bayır","asciiname":"Bayir","alternatenames":["Bayir","Bayirkoy","Bayır","Bayırköy"],"latitude":"37.26774","longitude":"28.21677","feature_class":"P","feature_code":"PPL","country_code":"TR","cc2":"","admin1_code":"48","admin2_code":"","admin3_code":"","admin4_code":"","population":"4005","elevation":"","dem":"422","timezone":"Europe/Istanbul","modification_date":"2015-05-06"},{"geonameid":"447273","name":"Dalaman","asciiname":"Dalaman","alternatenames":["DLM","Dalaman"],"latitude":"36.76591","longitude":"28.8028","feature_class":"P","feature_code":"PPLA2","country_code":"TR","cc2":"","admin1_code":"48","admin2_code":"","admin3_code":"","admin4_code":"","population":"19292","elevation":"","dem":"16","timezone":"Europe/Istanbul","modification_date":"2014-07-18"},{"geonameid":"303354","name":"Ortaca","asciiname":"Ortaca","alternatenames":["Ortaca"],"latitude":"36.83915","longitude":"28.76457","feature_class":"P","feature_code":"PPLA2","country_code":"TR","cc2":"","admin1_code":"48","admin2_code":"","admin3_code":"","admin4_code":"","population":"19741","elevation":"","dem":"30","timezone":"Europe/Istanbul","modification_date":"2015-05-06"},{"geonameid":"304184","name":"Muğla","asciiname":"Mugla","alternatenames":["Mentese","Menteshe","Mobolla","Mougla","Mughla","Mughlah","Mugla","Muula","Muğla","mghla","mu la","mulla","mwghla","mwghlh","Μούγλα","Мугла","مغلا","موغلا","موغله","穆拉","물라"],"latitude":"37.21807","longitude":"28.3665","feature_class":"P","feature_code":"PPLA","country_code":"TR","cc2":"","admin1_code":"48","admin2_code":"","admin3_code":"","admin4_code":"","population":"48183","elevation":"","dem":"672","timezone":"Europe/Istanbul","modification_date":"2012-01-16"},{"geonameid":"304355","name":"Milas","asciiname":"Milas","alternatenames":["Milas","Mylasa","mi la si","mylas","Милас","ضلع ملاس","میلاس","米拉斯"],"latitude":"37.31639","longitude":"27.78389","feature_class":"P","feature_code":"PPLA2","country_code":"TR","cc2":"","admin1_code":"48","admin2_code":"","admin3_code":"","admin4_code":"","population":"43193","elevation":"","dem":"52","timezone":"Europe/Istanbul","modification_date":"2013-08-06"},{"geonameid":"304782","name":"Marmaris","asciiname":"Marmaris","alternatenames":["Mararis","Marmarice","Marmaris","Physcus","QRQ","ma er ma li si gang","maleumaliseu","marmaris","marmarys","marumarisu","mrmarys","mrmrys","Мармарис","מרמריס","ضلع مرمارس","مارماریس","مرماريس","マルマリス","马尔马里斯港","마르마리스"],"latitude":"36.855","longitude":"28.27417","feature_class":"P","feature_code":"PPLA2","country_code":"TR","cc2":"","admin1_code":"48","admin2_code":"7732942","admin3_code":"","admin4_code":"","population":"33731","elevation":"","dem":"8","timezone":"Europe/Istanbul","modification_date":"2015-02-07"},{"geonameid":"314967","name":"Fethiye","asciiname":"Fethiye","alternatenames":["Fethieh","Fethiye","Fethy","Fetiye","Fetkhie","Makri","Makry","Telmessus","fei te xi ye","fetohii~e","fthyh","fthyt","petiye","pthyyh","Μάκρη","Фетхие","Фетхіє","פטהייה","ضلع فتھیے","فتحية","فتحیه","フェトヒイェ","费特希耶","페티예"],"latitude":"36.64038","longitude":"29.12758","feature_class":"P","feature_code":"PPLA2","country_code":"TR","cc2":"","admin1_code":"48","admin2_code":"7732940","admin3_code":"","admin4_code":"","population":"60437","elevation":"","dem":"9","timezone":"Europe/Istanbul","modification_date":"2015-05-06"}]}