{"region_data":{"countryId":"298795","adminCode1":"49","countryName":"Turkey","fclName":"country, state, region,...","countryCode":"TR","lng":"41.75","fcodeName":"first-order administrative division","toponymName":"Muş","fcl":"A","numberOfChildren":6,"name":"Muş","fcode":"ADM1","geonameId":304041,"lat":"39","adminName1":"Muş","population":412553},"country_data":{"ISO":"TR","ISO3":"TUR","ISO_Numeric":"792","fips":"TU","country":"Turkey","capital":"Ankara","area":"780580","Population":"77804122","Continent":"AS","tld":".tr","CurrencyCode":"TRY","CurrencyName":"Lira","Phone":"90","Postal_Code_Format":"#####","Postal_Code_Regex":"^(\\d{5})$","Languages":"tr-TR,ku,diq,az,av","geonameid":"298795","neighbours":"SY,GE,IQ,IR,GR,AM,AZ,BG","EquivalentFipsCode":""},"cities":[{"geonameid":"297517","name":"Yaygın","asciiname":"Yaygin","alternatenames":["Migdi","Miğdi","Yaygin","Yaygın","Ziyaret"],"latitude":"38.89748","longitude":"41.30613","feature_class":"P","feature_code":"PPLA3","country_code":"TR","cc2":"","admin1_code":"49","admin2_code":"","admin3_code":"","admin4_code":"","population":"0","elevation":"","dem":"1280","timezone":"Europe/Istanbul","modification_date":"2015-02-07"},{"geonameid":"298088","name":"Varto","asciiname":"Varto","alternatenames":["Gumgum","Gümgüm","Varto"],"latitude":"39.17375","longitude":"41.45402","feature_class":"P","feature_code":"PPLA2","country_code":"TR","cc2":"","admin1_code":"49","admin2_code":"","admin3_code":"","admin4_code":"","population":"18691","elevation":"","dem":"1523","timezone":"Europe/Istanbul","modification_date":"2015-06-08"},{"geonameid":"306476","name":"Korkut","asciiname":"Korkut","alternatenames":[""],"latitude":"38.73908","longitude":"41.78216","feature_class":"P","feature_code":"PPLA2","country_code":"TR","cc2":"","admin1_code":"49","admin2_code":"","admin3_code":"","admin4_code":"","population":"8078","elevation":"","dem":"1319","timezone":"Europe/Istanbul","modification_date":"2006-01-17"},{"geonameid":"307379","name":"Kızılağaç","asciiname":"Kizilagac","alternatenames":["Kizilagac","Kızılağaç"],"latitude":"38.78019","longitude":"41.31385","feature_class":"P","feature_code":"PPLA3","country_code":"TR","cc2":"","admin1_code":"49","admin2_code":"","admin3_code":"","admin4_code":"","population":"0","elevation":"","dem":"1363","timezone":"Europe/Istanbul","modification_date":"2015-02-07"},{"geonameid":"309622","name":"Karaköy","asciiname":"Karakoy","alternatenames":["Karakoy","Karaköy"],"latitude":"39.09101","longitude":"41.68301","feature_class":"P","feature_code":"PPLA3","country_code":"TR","cc2":"","admin1_code":"49","admin2_code":"","admin3_code":"","admin4_code":"","population":"0","elevation":"","dem":"1850","timezone":"Europe/Istanbul","modification_date":"2015-04-08"},{"geonameid":"319015","name":"Çaylar","asciiname":"Caylar","alternatenames":["Caylar","Çaylar"],"latitude":"39.26731","longitude":"41.28344","feature_class":"P","feature_code":"PPLA3","country_code":"TR","cc2":"","admin1_code":"49","admin2_code":"","admin3_code":"","admin4_code":"","population":"0","elevation":"","dem":"1645","timezone":"Europe/Istanbul","modification_date":"2015-06-08"},{"geonameid":"320448","name":"Bulanık","asciiname":"Bulanik","alternatenames":["Bulanik","Bulanık"],"latitude":"39.08656","longitude":"42.27158","feature_class":"P","feature_code":"PPLA2","country_code":"TR","cc2":"","admin1_code":"49","admin2_code":"","admin3_code":"","admin4_code":"","population":"31430","elevation":"","dem":"1536","timezone":"Europe/Istanbul","modification_date":"2015-04-08"},{"geonameid":"324407","name":"Aktuzla","asciiname":"Aktuzla","alternatenames":["Aktuzla","Aktuzlamemlahasi","Aktuzlamemlahası","Aktuzlamemlehasi","Aktuzlamemlehası","Bayaztuzla"],"latitude":"39.33012","longitude":"42.28533","feature_class":"P","feature_code":"PPLA3","country_code":"TR","cc2":"","admin1_code":"49","admin2_code":"","admin3_code":"","admin4_code":"","population":"0","elevation":"","dem":"1475","timezone":"Europe/Istanbul","modification_date":"2015-04-08"},{"geonameid":"304081","name":"Muş","asciiname":"Mus","alternatenames":["MSR","Mus","Mush","Muş","Mûş","mu shen","mushu","musyu","mwsh","mwwsh","Муш","Մուշ","موش","مووش","ムシュ","穆什","무슈"],"latitude":"38.73163","longitude":"41.48482","feature_class":"P","feature_code":"PPLA","country_code":"TR","cc2":"","admin1_code":"49","admin2_code":"","admin3_code":"","admin4_code":"","population":"82536","elevation":"","dem":"1420","timezone":"Europe/Istanbul","modification_date":"2015-02-07"},{"geonameid":"304916","name":"Malazgirt","asciiname":"Malazgirt","alternatenames":["Kale","Malazgirt","Malazkirt","Malâzkirt"],"latitude":"39.1465","longitude":"42.53536","feature_class":"P","feature_code":"PPLA2","country_code":"TR","cc2":"","admin1_code":"49","admin2_code":"","admin3_code":"","admin4_code":"","population":"26108","elevation":"","dem":"1510","timezone":"Europe/Istanbul","modification_date":"2015-02-07"}]}