{"region_data":{"countryId":"298795","adminCode1":"52","countryName":"Turkey","fclName":"country, state, region,...","countryCode":"TR","lng":"37.68448","fcodeName":"first-order administrative division","toponymName":"Ordu","fcl":"A","numberOfChildren":20,"name":"Ordu","fcode":"ADM1","geonameId":741098,"lat":"40.90858","adminName1":"Ordu","population":731452},"country_data":{"ISO":"TR","ISO3":"TUR","ISO_Numeric":"792","fips":"TU","country":"Turkey","capital":"Ankara","area":"780580","Population":"77804122","Continent":"AS","tld":".tr","CurrencyCode":"TRY","CurrencyName":"Lira","Phone":"90","Postal_Code_Format":"#####","Postal_Code_Regex":"^(\\d{5})$","Languages":"tr-TR,ku,diq,az,av","geonameid":"298795","neighbours":"SY,GE,IQ,IR,GR,AM,AZ,BG","EquivalentFipsCode":""},"cities":[{"geonameid":"737573","name":"Yeşilce","asciiname":"Yesilce","alternatenames":["Evady","Yavadi","Yavadı","Yesilce","Yevadi","Yevadı","Yeşilce","Евады"],"latitude":"40.54028","longitude":"37.80556","feature_class":"P","feature_code":"PPLA3","country_code":"TR","cc2":"","admin1_code":"52","admin2_code":"","admin3_code":"","admin4_code":"","population":"0","elevation":"","dem":"1345","timezone":"Europe/Istanbul","modification_date":"2013-09-08"},{"geonameid":"738255","name":"Uzunisa","asciiname":"Uzunisa","alternatenames":["Uzunhisar","Uzunisa"],"latitude":"40.9254","longitude":"37.85552","feature_class":"P","feature_code":"PPLA3","country_code":"TR","cc2":"","admin1_code":"52","admin2_code":"","admin3_code":"","admin4_code":"","population":"0","elevation":"","dem":"75","timezone":"Europe/Istanbul","modification_date":"2013-09-08"},{"geonameid":"738349","name":"Ünye","asciiname":"UEnye","alternatenames":["Oenoe","Onieh","UEnye","Un'e","Unia","Unie","Unieh","Ünia","Ünye","Унье"],"latitude":"41.13139","longitude":"37.2825","feature_class":"P","feature_code":"PPLA2","country_code":"TR","cc2":"","admin1_code":"52","admin2_code":"","admin3_code":"","admin4_code":"","population":"77585","elevation":"","dem":"39","timezone":"Europe/Istanbul","modification_date":"2015-04-27"},{"geonameid":"738444","name":"Ulubey","asciiname":"Ulubey","alternatenames":["Gunduzlu","Gündüzlü","Ulubei","Ulubey","Улубеи"],"latitude":"40.87214","longitude":"37.75876","feature_class":"P","feature_code":"PPLA2","country_code":"TR","cc2":"","admin1_code":"52","admin2_code":"","admin3_code":"","admin4_code":"","population":"8626","elevation":"","dem":"599","timezone":"Europe/Istanbul","modification_date":"2014-06-26"},{"geonameid":"738583","name":"Gülyalı","asciiname":"Gulyali","alternatenames":["Gulyali","Gülyalı","Mustafaly","Turnasuyu","Мустафалы"],"latitude":"40.96648","longitude":"38.06101","feature_class":"P","feature_code":"PPLA2","country_code":"TR","cc2":"","admin1_code":"52","admin2_code":"","admin3_code":"","admin4_code":"","population":"0","elevation":"","dem":"9","timezone":"Europe/Istanbul","modification_date":"2012-01-18"},{"geonameid":"738707","name":"Topçam","asciiname":"Topcam","alternatenames":["Gebeme","Inalan","Topcam","Topchan","Topçam","İnalan","Топчан"],"latitude":"40.62194","longitude":"37.7775","feature_class":"P","feature_code":"PPLA3","country_code":"TR","cc2":"","admin1_code":"52","admin2_code":"","admin3_code":"","admin4_code":"","population":"0","elevation":"","dem":"761","timezone":"Europe/Istanbul","modification_date":"2013-09-08"},{"geonameid":"738902","name":"Tekkiraz","asciiname":"Tekkiraz","alternatenames":["Tekkiraz","Теккираз"],"latitude":"40.98588","longitude":"37.16028","feature_class":"P","feature_code":"PPLA3","country_code":"TR","cc2":"","admin1_code":"52","admin2_code":"","admin3_code":"","admin4_code":"","population":"0","elevation":"","dem":"539","timezone":"Europe/Istanbul","modification_date":"2013-09-08"},{"geonameid":"740605","name":"Perşembe","asciiname":"Persembe","alternatenames":["Persembe","Pershembe","Perşembe","Vona","Першембе"],"latitude":"41.06556","longitude":"37.77139","feature_class":"P","feature_code":"PPLA2","country_code":"TR","cc2":"","admin1_code":"52","admin2_code":"","admin3_code":"","admin4_code":"","population":"11808","elevation":"","dem":"45","timezone":"Europe/Istanbul","modification_date":"2014-06-26"},{"geonameid":"741100","name":"Ordu","asciiname":"Ordu","alternatenames":["Cotyora","Ordu","Орду"],"latitude":"40.98472","longitude":"37.87889","feature_class":"P","feature_code":"PPLA","country_code":"TR","cc2":"","admin1_code":"52","admin2_code":"","admin3_code":"","admin4_code":"","population":"116788","elevation":"","dem":"11","timezone":"Europe/Istanbul","modification_date":"2014-06-26"},{"geonameid":"741570","name":"Mesudiye","asciiname":"Mesudiye","alternatenames":["Hamidiye","Melet","Mesudie","Mesudiye","Месудие"],"latitude":"40.4625","longitude":"37.7725","feature_class":"P","feature_code":"PPLA2","country_code":"TR","cc2":"","admin1_code":"52","admin2_code":"","admin3_code":"","admin4_code":"","population":"6581","elevation":"","dem":"1121","timezone":"Europe/Istanbul","modification_date":"2014-06-26"},{"geonameid":"742238","name":"Kumru","asciiname":"Kumru","alternatenames":["Karacali","Karacalı","Kumru","Кумру"],"latitude":"40.87444","longitude":"37.26389","feature_class":"P","feature_code":"PPLA2","country_code":"TR","cc2":"","admin1_code":"52","admin2_code":"","admin3_code":"","admin4_code":"","population":"32174","elevation":"","dem":"457","timezone":"Europe/Istanbul","modification_date":"2014-06-27"},{"geonameid":"742658","name":"Korgan","asciiname":"Korgan","alternatenames":["Korgan","Корган"],"latitude":"40.82472","longitude":"37.34667","feature_class":"P","feature_code":"PPLA2","country_code":"TR","cc2":"","admin1_code":"52","admin2_code":"","admin3_code":"","admin4_code":"","population":"16733","elevation":"","dem":"789","timezone":"Europe/Istanbul","modification_date":"2014-06-27"},{"geonameid":"744958","name":"Kabataş","asciiname":"Kabatas","alternatenames":["Kabatas","Kabataş","Karay"],"latitude":"40.75","longitude":"37.45","feature_class":"P","feature_code":"PPLA2","country_code":"TR","cc2":"","admin1_code":"52","admin2_code":"","admin3_code":"","admin4_code":"","population":"9066","elevation":"","dem":"443","timezone":"Europe/Istanbul","modification_date":"2012-01-18"},{"geonameid":"745007","name":"Kabadüz","asciiname":"Kabaduz","alternatenames":["Kabadjuz","Kabaduez","Kabaduz","Kabadüz","Кабадюз"],"latitude":"40.85972","longitude":"37.89","feature_class":"P","feature_code":"PPLA2","country_code":"TR","cc2":"","admin1_code":"52","admin2_code":"","admin3_code":"","admin4_code":"","population":"3642","elevation":"","dem":"575","timezone":"Europe/Istanbul","modification_date":"2012-01-18"},{"geonameid":"749518","name":"Çaybaşı","asciiname":"Caybasi","alternatenames":["Caybasi","Çaybaşı"],"latitude":"41.01711","longitude":"37.09796","feature_class":"P","feature_code":"PPLA2","country_code":"TR","cc2":"","admin1_code":"52","admin2_code":"","admin3_code":"","admin4_code":"","population":"0","elevation":"","dem":"497","timezone":"Europe/Istanbul","modification_date":"2012-01-18"},{"geonameid":"749916","name":"Çamaş","asciiname":"Camas","alternatenames":["Camas","Urmeli","Çamaş","Ürmeli"],"latitude":"40.90167","longitude":"37.52884","feature_class":"P","feature_code":"PPLA2","country_code":"TR","cc2":"","admin1_code":"52","admin2_code":"","admin3_code":"","admin4_code":"","population":"10535","elevation":"","dem":"593","timezone":"Europe/Istanbul","modification_date":"2012-01-18"},{"geonameid":"750528","name":"Bolaman","asciiname":"Bolaman","alternatenames":["Bolaman","Boloman","Laleli","Lâleli"],"latitude":"41.03435","longitude":"37.59409","feature_class":"P","feature_code":"PPLA3","country_code":"TR","cc2":"","admin1_code":"52","admin2_code":"","admin3_code":"","admin4_code":"","population":"0","elevation":"","dem":"112","timezone":"Europe/Istanbul","modification_date":"2013-09-08"},{"geonameid":"751503","name":"Aybastı","asciiname":"Aybasti","alternatenames":["Ajbasty","Aybasti","Aybastı","Esenli","Айбасты"],"latitude":"40.68667","longitude":"37.39917","feature_class":"P","feature_code":"PPLA2","country_code":"TR","cc2":"","admin1_code":"52","admin2_code":"","admin3_code":"","admin4_code":"","population":"0","elevation":"","dem":"753","timezone":"Europe/Istanbul","modification_date":"2014-06-26"}]}