{"region_data":{"countryId":"298795","adminCode1":"60","countryName":"Turkey","fclName":"country, state, region,...","countryCode":"TR","lng":"36.58333","fcodeName":"first-order administrative division","toponymName":"Tokat","fcl":"A","numberOfChildren":11,"name":"Tokat","fcode":"ADM1","geonameId":738742,"lat":"40.41667","adminName1":"Tokat","population":598708},"country_data":{"ISO":"TR","ISO3":"TUR","ISO_Numeric":"792","fips":"TU","country":"Turkey","capital":"Ankara","area":"780580","Population":"77804122","Continent":"AS","tld":".tr","CurrencyCode":"TRY","CurrencyName":"Lira","Phone":"90","Postal_Code_Format":"#####","Postal_Code_Regex":"^(\\d{5})$","Languages":"tr-TR,ku,diq,az,av","geonameid":"298795","neighbours":"SY,GE,IQ,IR,GR,AM,AZ,BG","EquivalentFipsCode":""},"cities":[{"geonameid":"300141","name":"Sulusaray","asciiname":"Sulusaray","alternatenames":["Ciftlik","Sulusaray","Çiftlik"],"latitude":"39.99389","longitude":"36.08404","feature_class":"P","feature_code":"PPLA2","country_code":"TR","cc2":"","admin1_code":"60","admin2_code":"","admin3_code":"","admin4_code":"","population":"4037","elevation":"","dem":"1037","timezone":"Europe/Istanbul","modification_date":"2012-01-18"},{"geonameid":"323751","name":"Yeşilyurt","asciiname":"Yesilyurt","alternatenames":["Arabacimusa","Arabacımusa","Yesilyurt","Yeşilyurt"],"latitude":"40.0064","longitude":"36.22069","feature_class":"P","feature_code":"PPLA2","country_code":"TR","cc2":"","admin1_code":"60","admin2_code":"","admin3_code":"","admin4_code":"","population":"0","elevation":"","dem":"1080","timezone":"Europe/Istanbul","modification_date":"2012-01-18"},{"geonameid":"737054","name":"Zile","asciiname":"Zile","alternatenames":["Zil","Zile","Зил"],"latitude":"40.30306","longitude":"35.88639","feature_class":"P","feature_code":"PPLA2","country_code":"TR","cc2":"","admin1_code":"60","admin2_code":"","admin3_code":"","admin4_code":"","population":"55680","elevation":"","dem":"746","timezone":"Europe/Istanbul","modification_date":"2012-01-18"},{"geonameid":"737477","name":"Boztepe","asciiname":"Boztepe","alternatenames":["Boztepe","Yenimusluman","Yenimüslüman","Yildiztepe","Yıldıztepe"],"latitude":"40.18778","longitude":"35.8875","feature_class":"P","feature_code":"PPLA3","country_code":"TR","cc2":"","admin1_code":"60","admin2_code":"","admin3_code":"","admin4_code":"","population":"0","elevation":"","dem":"782","timezone":"Europe/Istanbul","modification_date":"2013-09-08"},{"geonameid":"738618","name":"Turhal","asciiname":"Turhal","alternatenames":["Turhal","Turkhal","Турхал"],"latitude":"40.3875","longitude":"36.08111","feature_class":"P","feature_code":"PPLA2","country_code":"TR","cc2":"","admin1_code":"60","admin2_code":"","admin3_code":"","admin4_code":"","population":"110884","elevation":"","dem":"538","timezone":"Europe/Istanbul","modification_date":"2014-06-27"},{"geonameid":"738743","name":"Tokat","asciiname":"Tokat","alternatenames":["Dazimon","Gorad Takat","Provincia de Tokat","TJK","Tocat","Tokat","Tokat Province","Tokatas","Tokatiaen","Tokatiän","Tokatska provincie","Tokatská provincie","Toqat","Tukat","tokateu","tokatto","tuo ka te","twkat","twqat","twqt","Τοκάτ","Горад Такат","Токат","טוקט","توقات","توکات","トカット","托卡特","토카트"],"latitude":"40.31389","longitude":"36.55444","feature_class":"P","feature_code":"PPLA","country_code":"TR","cc2":"","admin1_code":"60","admin2_code":"","admin3_code":"","admin4_code":"","population":"129702","elevation":"","dem":"627","timezone":"Europe/Istanbul","modification_date":"2014-06-26"},{"geonameid":"740490","name":"Reşadiye","asciiname":"Resadiye","alternatenames":["Resadiye","Reshadie","Reşadiye","Решадие"],"latitude":"40.39194","longitude":"37.3375","feature_class":"P","feature_code":"PPLA2","country_code":"TR","cc2":"","admin1_code":"60","admin2_code":"","admin3_code":"","admin4_code":"","population":"0","elevation":"","dem":"529","timezone":"Europe/Istanbul","modification_date":"2014-06-27"},{"geonameid":"740677","name":"Pazar","asciiname":"Pazar","alternatenames":["Pazar","Пазар"],"latitude":"40.27652","longitude":"36.28347","feature_class":"P","feature_code":"PPLA2","country_code":"TR","cc2":"","admin1_code":"60","admin2_code":"","admin3_code":"","admin4_code":"","population":"5105","elevation":"","dem":"576","timezone":"Europe/Istanbul","modification_date":"2012-01-18"},{"geonameid":"741304","name":"Niksar","asciiname":"Niksar","alternatenames":["Cabeira","Diospolis","Neocaesarea","Niksar","Sebaste","Никсар"],"latitude":"40.59167","longitude":"36.95167","feature_class":"P","feature_code":"PPLA2","country_code":"TR","cc2":"","admin1_code":"60","admin2_code":"","admin3_code":"","admin4_code":"","population":"49865","elevation":"","dem":"369","timezone":"Europe/Istanbul","modification_date":"2014-06-27"},{"geonameid":"742440","name":"Kozlu","asciiname":"Kozlu","alternatenames":["Kozlu","Козлу"],"latitude":"40.60878","longitude":"36.47858","feature_class":"P","feature_code":"PPLA3","country_code":"TR","cc2":"","admin1_code":"60","admin2_code":"","admin3_code":"","admin4_code":"","population":"0","elevation":"","dem":"928","timezone":"Europe/Istanbul","modification_date":"2013-09-08"},{"geonameid":"744051","name":"Karayaka","asciiname":"Karayaka","alternatenames":["Karajaka","Karakaya","Karayaka","Zidi","Zigdi","Zigri","Ziğdi","Ziğri","Караяка"],"latitude":"40.74402","longitude":"36.59018","feature_class":"P","feature_code":"PPLA3","country_code":"TR","cc2":"","admin1_code":"60","admin2_code":"","admin3_code":"","admin4_code":"","population":"0","elevation":"","dem":"355","timezone":"Europe/Istanbul","modification_date":"2013-09-08"},{"geonameid":"749857","name":"Çamlıbel","asciiname":"Camlibel","alternatenames":["Artova","Camlibel","Chamlybel'","Ciftlik","Ciftlik Koyu","Çamlıbel","Çiftlik","Çiftlik Köyü","Чамлыбель"],"latitude":"40.08639","longitude":"36.47722","feature_class":"P","feature_code":"PPLA3","country_code":"TR","cc2":"","admin1_code":"60","admin2_code":"","admin3_code":"","admin4_code":"","population":"0","elevation":"","dem":"1125","timezone":"Europe/Istanbul","modification_date":"2013-09-08"},{"geonameid":"750751","name":"Bereketli","asciiname":"Bereketli","alternatenames":["Bereketli","Busurum","Büşürüm","Берекетли"],"latitude":"40.51273","longitude":"37.28862","feature_class":"P","feature_code":"PPLA3","country_code":"TR","cc2":"","admin1_code":"60","admin2_code":"","admin3_code":"","admin4_code":"","population":"0","elevation":"","dem":"1275","timezone":"Europe/Istanbul","modification_date":"2013-09-08"},{"geonameid":"751036","name":"Başçiftlik","asciiname":"Basciftlik","alternatenames":["Basciftlik","Basciftlik Koyu","Başçiftlik","Başçiftlik Köyü"],"latitude":"40.54694","longitude":"37.16917","feature_class":"P","feature_code":"PPLA2","country_code":"TR","cc2":"","admin1_code":"60","admin2_code":"","admin3_code":"","admin4_code":"","population":"7410","elevation":"","dem":"1390","timezone":"Europe/Istanbul","modification_date":"2012-01-18"},{"geonameid":"751818","name":"Artova","asciiname":"Artova","alternatenames":["Artova","Kunduz","Артова"],"latitude":"40.11578","longitude":"36.3001","feature_class":"P","feature_code":"PPLA2","country_code":"TR","cc2":"","admin1_code":"60","admin2_code":"","admin3_code":"","admin4_code":"","population":"6231","elevation":"","dem":"1182","timezone":"Europe/Istanbul","modification_date":"2014-06-27"},{"geonameid":"751936","name":"Çamiçi","asciiname":"Camici","alternatenames":["Aguslu","Ardicli","Ardıçlı","Camici","Çamiçi"],"latitude":"40.6181","longitude":"37.00169","feature_class":"P","feature_code":"PPLA3","country_code":"TR","cc2":"","admin1_code":"60","admin2_code":"","admin3_code":"","admin4_code":"","population":"0","elevation":"","dem":"1133","timezone":"Europe/Istanbul","modification_date":"2013-09-08"},{"geonameid":"752083","name":"Almus","asciiname":"Almus","alternatenames":["Almis","Almus","Almıs","Tozanli","Tozanlı","Алмус"],"latitude":"40.37583","longitude":"36.90444","feature_class":"P","feature_code":"PPLA2","country_code":"TR","cc2":"","admin1_code":"60","admin2_code":"","admin3_code":"","admin4_code":"","population":"6303","elevation":"","dem":"848","timezone":"Europe/Istanbul","modification_date":"2014-06-27"}]}