{"region_data":{"countryId":"298795","adminCode1":"63","countryName":"Turkey","fclName":"country, state, region,...","countryCode":"TR","lng":"38.78174","fcodeName":"first-order administrative division","toponymName":"Şanlıurfa","fcl":"A","numberOfChildren":14,"name":"Şanlıurfa","fcode":"ADM1","geonameId":298332,"lat":"37.21283","adminName1":"Şanlıurfa","population":1801980},"country_data":{"ISO":"TR","ISO3":"TUR","ISO_Numeric":"792","fips":"TU","country":"Turkey","capital":"Ankara","area":"780580","Population":"77804122","Continent":"AS","tld":".tr","CurrencyCode":"TRY","CurrencyName":"Lira","Phone":"90","Postal_Code_Format":"#####","Postal_Code_Regex":"^(\\d{5})$","Languages":"tr-TR,ku,diq,az,av","geonameid":"298795","neighbours":"SY,GE,IQ,IR,GR,AM,AZ,BG","EquivalentFipsCode":""},"cities":[{"geonameid":"297456","name":"Yaylak","asciiname":"Yaylak","alternatenames":["Baziki","Hevenk","Yaylak"],"latitude":"37.38268","longitude":"38.33892","feature_class":"P","feature_code":"PPLA3","country_code":"TR","cc2":"","admin1_code":"63","admin2_code":"","admin3_code":"","admin4_code":"","population":"0","elevation":"","dem":"510","timezone":"Europe/Istanbul","modification_date":"2013-09-08"},{"geonameid":"297673","name":"Yardımcı","asciiname":"Yardimci","alternatenames":["Cabirulensar","Cabirülensar","Sumatar","Yardimci","Yardımcı"],"latitude":"37.02091","longitude":"39.00533","feature_class":"P","feature_code":"PPLA3","country_code":"TR","cc2":"","admin1_code":"63","admin2_code":"","admin3_code":"","admin4_code":"","population":"0","elevation":"","dem":"398","timezone":"Europe/Istanbul","modification_date":"2013-09-08"},{"geonameid":"298033","name":"Viranşehir","asciiname":"Viransehir","alternatenames":["Antoninopolis","Veeranshahr","Viransehir","Viranshekhire","Viranşehir","Wiranschehir","Вираншехире"],"latitude":"37.22349","longitude":"39.75519","feature_class":"P","feature_code":"PPLA2","country_code":"TR","cc2":"","admin1_code":"63","admin2_code":"","admin3_code":"","admin4_code":"","population":"154163","elevation":"","dem":"551","timezone":"Europe/Istanbul","modification_date":"2015-02-07"},{"geonameid":"298333","name":"Şanlıurfa","asciiname":"Sanliurfa","alternatenames":["Antiocheia","Edesa","Edessa","Ehdessa","Orfa","Ourfa","SFQ","Sanliurfa","Urfa","Urfeh","Şanlıurfa","Αντιόχεια","Эдесса"],"latitude":"37.16708","longitude":"38.79392","feature_class":"P","feature_code":"PPLA","country_code":"TR","cc2":"","admin1_code":"63","admin2_code":"","admin3_code":"","admin4_code":"","population":"449549","elevation":"","dem":"528","timezone":"Europe/Istanbul","modification_date":"2014-12-06"},{"geonameid":"300075","name":"Suruç","asciiname":"Suruc","alternatenames":["Suruc","Suruch","Suruç","Syuryuch","Суруч"],"latitude":"36.97612","longitude":"38.42533","feature_class":"P","feature_code":"PPLA2","country_code":"TR","cc2":"","admin1_code":"63","admin2_code":"","admin3_code":"","admin4_code":"","population":"46694","elevation":"","dem":"499","timezone":"Europe/Istanbul","modification_date":"2015-02-07"},{"geonameid":"300614","name":"Siverek","asciiname":"Siverek","alternatenames":["Severek","Siverek","Sivereke","Suverek","Сивереке"],"latitude":"37.75503","longitude":"39.31667","feature_class":"P","feature_code":"PPLA2","country_code":"TR","cc2":"","admin1_code":"63","admin2_code":"","admin3_code":"","admin4_code":"","population":"175341","elevation":"","dem":"787","timezone":"Europe/Istanbul","modification_date":"2012-01-18"},{"geonameid":"316270","name":"Dorumali","asciiname":"Dorumali","alternatenames":["Dorumali"],"latitude":"36.805","longitude":"38.85306","feature_class":"P","feature_code":"PPL","country_code":"TR","cc2":"","admin1_code":"63","admin2_code":"","admin3_code":"","admin4_code":"","population":"1243","elevation":"","dem":"392","timezone":"Europe/Istanbul","modification_date":"2015-02-07"},{"geonameid":"317786","name":"Karahan","asciiname":"Karahan","alternatenames":["Dagbasi","Dağbaşı","Karahan"],"latitude":"37.89825","longitude":"39.33366","feature_class":"P","feature_code":"PPLA3","country_code":"TR","cc2":"","admin1_code":"63","admin2_code":"","admin3_code":"","admin4_code":"","population":"0","elevation":"","dem":"851","timezone":"Europe/Istanbul","modification_date":"2013-09-08"},{"geonameid":"317868","name":"Akziyaret","asciiname":"Akziyaret","alternatenames":["Akziyaret","Culmen","Cülmen","Gulmen","Gülmen"],"latitude":"37.35328","longitude":"38.79609","feature_class":"P","feature_code":"PPLA3","country_code":"TR","cc2":"","admin1_code":"63","admin2_code":"","admin3_code":"","admin4_code":"","population":"0","elevation":"","dem":"662","timezone":"Europe/Istanbul","modification_date":"2015-02-07"},{"geonameid":"318668","name":"Ceylanpınar","asciiname":"Ceylanpinar","alternatenames":["Ceylanpinar","Ceylanpınar","Cylanpinar","Dzheylanpynar","Raselain","Rass-el-Ain","Rass-el-Aïn","Resulayn","Resülayn"],"latitude":"36.84722","longitude":"40.05","feature_class":"P","feature_code":"PPLA2","country_code":"TR","cc2":"","admin1_code":"63","admin2_code":"","admin3_code":"","admin4_code":"","population":"31488","elevation":"","dem":"362","timezone":"Europe/Istanbul","modification_date":"2012-02-28"},{"geonameid":"319014","name":"Çaylarbaşı","asciiname":"Caylarbasi","alternatenames":["Caylarbasi","Herheri","Çaylarbaşı"],"latitude":"37.7001","longitude":"39.00965","feature_class":"P","feature_code":"PPLA3","country_code":"TR","cc2":"","admin1_code":"63","admin2_code":"","admin3_code":"","admin4_code":"","population":"0","elevation":"","dem":"549","timezone":"Europe/Istanbul","modification_date":"2013-09-08"},{"geonameid":"319613","name":"Çamlıdere","asciiname":"Camlidere","alternatenames":["Camlidere","Mecrihan","Çamlıdere"],"latitude":"37.1544","longitude":"39.06697","feature_class":"P","feature_code":"PPLA3","country_code":"TR","cc2":"","admin1_code":"63","admin2_code":"","admin3_code":"","admin4_code":"","population":"0","elevation":"","dem":"469","timezone":"Europe/Istanbul","modification_date":"2013-09-08"},{"geonameid":"320581","name":"Bozova","asciiname":"Bozova","alternatenames":["Bozova","Hovenk","Huvek","Hövenk","Hüvek","Бозова"],"latitude":"37.3625","longitude":"38.52667","feature_class":"P","feature_code":"PPLA2","country_code":"TR","cc2":"","admin1_code":"63","admin2_code":"","admin3_code":"","admin4_code":"","population":"21502","elevation":"","dem":"583","timezone":"Europe/Istanbul","modification_date":"2012-01-18"},{"geonameid":"320924","name":"Böğürtlen","asciiname":"Bogurtlen","alternatenames":["Bogurtlen","Böğürtlen"],"latitude":"37.16632","longitude":"38.0811","feature_class":"P","feature_code":"PPLA3","country_code":"TR","cc2":"","admin1_code":"63","admin2_code":"","admin3_code":"","admin4_code":"","population":"0","elevation":"","dem":"715","timezone":"Europe/Istanbul","modification_date":"2013-09-08"},{"geonameid":"321062","name":"Birecik","asciiname":"Birecik","alternatenames":["Apamea","Birecik","Biredzhik","Birejik","Birijik","Биреджик"],"latitude":"37.02577","longitude":"37.97841","feature_class":"P","feature_code":"PPLA2","country_code":"TR","cc2":"","admin1_code":"63","admin2_code":"","admin3_code":"","admin4_code":"","population":"44284","elevation":"","dem":"351","timezone":"Europe/Istanbul","modification_date":"2015-02-07"},{"geonameid":"321678","name":"Bucak","asciiname":"Bucak","alternatenames":["Begdes","Beğdeş","Bucak","Fak","Fek"],"latitude":"37.8693","longitude":"39.06199","feature_class":"P","feature_code":"PPLA3","country_code":"TR","cc2":"","admin1_code":"63","admin2_code":"","admin3_code":"","admin4_code":"","population":"0","elevation":"","dem":"690","timezone":"Europe/Istanbul","modification_date":"2013-09-08"},{"geonameid":"323457","name":"Aşağı Beğdeş","asciiname":"Asagi Begdes","alternatenames":["Asagi Begdes","Asagi Telfidan","Ashagy-Tel'fidan","Ashagy-Tel’fidan","Aşağı Beğdeş","Aşağı Telfidan"],"latitude":"36.81472","longitude":"38.91917","feature_class":"P","feature_code":"PPL","country_code":"TR","cc2":"","admin1_code":"63","admin2_code":"","admin3_code":"","admin4_code":"","population":"1119","elevation":"","dem":"380","timezone":"Europe/Istanbul","modification_date":"2015-02-07"},{"geonameid":"324944","name":"Akçakale","asciiname":"Akcakale","alternatenames":["Akcakale","Akcekale","Akchakale","Akçakale"],"latitude":"36.71111","longitude":"38.9475","feature_class":"P","feature_code":"PPLA2","country_code":"TR","cc2":"","admin1_code":"63","admin2_code":"","admin3_code":"","admin4_code":"","population":"32114","elevation":"","dem":"361","timezone":"Europe/Istanbul","modification_date":"2012-01-18"},{"geonameid":"436324","name":"Küçükkendirci","asciiname":"Kucukkendirci","alternatenames":[""],"latitude":"36.90583","longitude":"38.34611","feature_class":"P","feature_code":"PPL","country_code":"TR","cc2":"","admin1_code":"63","admin2_code":"","admin3_code":"","admin4_code":"","population":"1535","elevation":"","dem":"523","timezone":"Europe/Istanbul","modification_date":"2004-07-02"},{"geonameid":"439098","name":"Akdiken","asciiname":"Akdiken","alternatenames":[""],"latitude":"36.725","longitude":"39.30861","feature_class":"P","feature_code":"PPL","country_code":"TR","cc2":"","admin1_code":"63","admin2_code":"","admin3_code":"","admin4_code":"","population":"1119","elevation":"","dem":"417","timezone":"Europe/Istanbul","modification_date":"2005-05-16"},{"geonameid":"439099","name":"Yalıntaş","asciiname":"Yalintas","alternatenames":[""],"latitude":"36.73583","longitude":"39.39389","feature_class":"P","feature_code":"PPL","country_code":"TR","cc2":"","admin1_code":"63","admin2_code":"","admin3_code":"","admin4_code":"","population":"1146","elevation":"","dem":"430","timezone":"Europe/Istanbul","modification_date":"2005-05-16"},{"geonameid":"439101","name":"Pekmezli","asciiname":"Pekmezli","alternatenames":[""],"latitude":"36.75361","longitude":"39.45","feature_class":"P","feature_code":"PPL","country_code":"TR","cc2":"","admin1_code":"63","admin2_code":"","admin3_code":"","admin4_code":"","population":"4300","elevation":"","dem":"434","timezone":"Europe/Istanbul","modification_date":"2005-05-16"},{"geonameid":"439119","name":"Koyunluca","asciiname":"Koyunluca","alternatenames":[""],"latitude":"36.82278","longitude":"39.34333","feature_class":"P","feature_code":"PPL","country_code":"TR","cc2":"","admin1_code":"63","admin2_code":"","admin3_code":"","admin4_code":"","population":"1028","elevation":"","dem":"494","timezone":"Europe/Istanbul","modification_date":"2005-05-16"},{"geonameid":"439215","name":"Yukarı Taşyalak","asciiname":"Yukari Tasyalak","alternatenames":["Yukari Tasyalak","Yukarı Taşyalak"],"latitude":"36.96306","longitude":"40.13194","feature_class":"P","feature_code":"PPL","country_code":"TR","cc2":"","admin1_code":"63","admin2_code":"","admin3_code":"","admin4_code":"","population":"1268","elevation":"","dem":"427","timezone":"Europe/Istanbul","modification_date":"2012-01-19"},{"geonameid":"439221","name":"Işıklar","asciiname":"Isiklar","alternatenames":["Isiklar","Işıklar"],"latitude":"36.99417","longitude":"40.12639","feature_class":"P","feature_code":"PPL","country_code":"TR","cc2":"","admin1_code":"63","admin2_code":"","admin3_code":"","admin4_code":"","population":"1164","elevation":"","dem":"440","timezone":"Europe/Istanbul","modification_date":"2012-01-19"},{"geonameid":"312134","name":"Hilvan","asciiname":"Hilvan","alternatenames":["Hilvan","Karacorun","Karacurum","Karacurun","Karaçürun"],"latitude":"37.58687","longitude":"38.95505","feature_class":"P","feature_code":"PPLA2","country_code":"TR","cc2":"","admin1_code":"63","admin2_code":"","admin3_code":"","admin4_code":"","population":"16990","elevation":"","dem":"590","timezone":"Europe/Istanbul","modification_date":"2012-01-18"},{"geonameid":"312531","name":"Harran","asciiname":"Harran","alternatenames":["Altinbasak","Altunbasak","Altunbaşak","Altynbashak","Altınbaşak","Charan","Haran","Harran","Kharran"],"latitude":"36.86","longitude":"39.03139","feature_class":"P","feature_code":"PPLA2","country_code":"TR","cc2":"","admin1_code":"63","admin2_code":"","admin3_code":"","admin4_code":"","population":"13640","elevation":"","dem":"369","timezone":"Europe/Istanbul","modification_date":"2012-02-28"}]}