{"region_data":{"countryId":"2300660","adminCode1":"02","countryName":"Ghana","fclName":"country, state, region,...","countryCode":"GH","lng":"-1.5","fcodeName":"first-order administrative division","toponymName":"Ashanti Region","fcl":"A","numberOfChildren":28,"name":"Ashanti Region","fcode":"ADM1","geonameId":2304116,"lat":"6.75","adminName1":"Ashanti","population":4105402},"country_data":{"ISO":"GH","ISO3":"GHA","ISO_Numeric":"288","fips":"GH","country":"Ghana","capital":"Accra","area":"239460","Population":"24339838","Continent":"AF","tld":".gh","CurrencyCode":"GHS","CurrencyName":"Cedi","Phone":"233","Postal_Code_Format":"","Postal_Code_Regex":"","Languages":"en-GH,ak,ee,tw","geonameid":"2300660","neighbours":"CI,TG,BF","EquivalentFipsCode":""},"cities":[{"geonameid":"2294938","name":"Tafo","asciiname":"Tafo","alternatenames":["Old Tafo","Tafo"],"latitude":"6.73453","longitude":"-1.61275","feature_class":"P","feature_code":"PPL","country_code":"GH","cc2":"","admin1_code":"02","admin2_code":"","admin3_code":"","admin4_code":"","population":"50457","elevation":"","dem":"291","timezone":"Africa/Accra","modification_date":"2013-07-22"},{"geonameid":"2296606","name":"Obuasi","asciiname":"Obuasi","alternatenames":["Oboase","Obuasi","Obuassi"],"latitude":"6.20602","longitude":"-1.66191","feature_class":"P","feature_code":"PPL","country_code":"GH","cc2":"","admin1_code":"02","admin2_code":"","admin3_code":"","admin4_code":"","population":"137856","elevation":"","dem":"233","timezone":"Africa/Accra","modification_date":"2013-07-22"},{"geonameid":"2298264","name":"Mampong","asciiname":"Mampong","alternatenames":["Mampon","Mampon Asante","Mampong"],"latitude":"7.06273","longitude":"-1.4001","feature_class":"P","feature_code":"PPL","country_code":"GH","cc2":"","admin1_code":"02","admin2_code":"","admin3_code":"","admin4_code":"","population":"42037","elevation":"","dem":"395","timezone":"Africa/Accra","modification_date":"2013-10-29"},{"geonameid":"2298890","name":"Kumasi","asciiname":"Kumasi","alternatenames":["Coomassie","Gorad Kumasi","KMS","Kumase","Kumasi","Kumasis","Kumassi","ku ma xi","kumashi","kumasi","kwmasy","Горад Кумасі","Кумаси","Кумасі","Կումասի","كوماسي","ਕੁਮਾਸੀ","クマシ","库马西","쿠마시"],"latitude":"6.68848","longitude":"-1.62443","feature_class":"P","feature_code":"PPLA","country_code":"GH","cc2":"","admin1_code":"02","admin2_code":"","admin3_code":"","admin4_code":"","population":"1468609","elevation":"","dem":"270","timezone":"Africa/Accra","modification_date":"2011-11-01"},{"geonameid":"2299349","name":"Konongo","asciiname":"Konongo","alternatenames":["Konongo","Konongo-Odumase"],"latitude":"6.61667","longitude":"-1.21667","feature_class":"P","feature_code":"PPL","country_code":"GH","cc2":"","admin1_code":"02","admin2_code":"","admin3_code":"","admin4_code":"","population":"41238","elevation":"","dem":"230","timezone":"Africa/Accra","modification_date":"2013-10-29"},{"geonameid":"2301217","name":"Ejura","asciiname":"Ejura","alternatenames":["Ejura"],"latitude":"7.38558","longitude":"-1.35617","feature_class":"P","feature_code":"PPL","country_code":"GH","cc2":"","admin1_code":"02","admin2_code":"","admin3_code":"","admin4_code":"","population":"70807","elevation":"","dem":"224","timezone":"Africa/Accra","modification_date":"2013-10-29"},{"geonameid":"2305537","name":"Agogo","asciiname":"Agogo","alternatenames":["Agogo"],"latitude":"6.80004","longitude":"-1.08193","feature_class":"P","feature_code":"PPL","country_code":"GH","cc2":"","admin1_code":"02","admin2_code":"","admin3_code":"","admin4_code":"","population":"31554","elevation":"","dem":"418","timezone":"Africa/Accra","modification_date":"2013-10-29"},{"geonameid":"8532058","name":"Mamponteng","asciiname":"Mamponteng","alternatenames":[""],"latitude":"6.73333","longitude":"-1.55","feature_class":"P","feature_code":"PPLA2","country_code":"GH","cc2":"","admin1_code":"02","admin2_code":"","admin3_code":"","admin4_code":"","population":"0","elevation":"","dem":"274","timezone":"Africa/Accra","modification_date":"2013-05-28"}]}