{"region_data":{"adminCode1":"04","lng":"10.1891","geonameId":3159665,"toponymName":"Buskerud fylke","countryId":"3144096","fcl":"A","population":253006,"numberOfChildren":21,"countryCode":"NO","name":"Buskerud","fclName":"country, state, region,...","countryName":"Norway","fcodeName":"first-order administrative division","adminName1":"Buskerud","lat":"59.7484","fcode":"ADM1"},"country_data":{"ISO":"NO","ISO3":"NOR","ISO_Numeric":"578","fips":"NO","country":"Norway","capital":"Oslo","area":"324220","Population":"5009150","Continent":"EU","tld":".no","CurrencyCode":"NOK","CurrencyName":"Krone","Phone":"47","Postal_Code_Format":"####","Postal_Code_Regex":"^(\\d{4})$","Languages":"no,nb,nn,se,fi","geonameid":"3144096","neighbours":"FI,RU,SE","EquivalentFipsCode":""},"cities":[{"geonameid":"3131684","name":"Vikersund","asciiname":"Vikersund","alternatenames":["Vikersund","Vikesund"],"latitude":"59.96838","longitude":"9.99107","feature_class":"P","feature_code":"PPLA2","country_code":"NO","cc2":"","admin1_code":"04","admin2_code":"0623","admin3_code":"","admin4_code":"","population":"2448","elevation":"","dem":"90","timezone":"Europe/Oslo","modification_date":"2014-08-19"},{"geonameid":"3134070","name":"Tranby","asciiname":"Tranby","alternatenames":["Tranby"],"latitude":"59.8085","longitude":"10.26114","feature_class":"P","feature_code":"PPL","country_code":"NO","cc2":"","admin1_code":"04","admin2_code":"0626","admin3_code":"","admin4_code":"","population":"5552","elevation":"","dem":"201","timezone":"Europe/Oslo","modification_date":"2013-05-24"},{"geonameid":"3134429","name":"Tofte","asciiname":"Tofte","alternatenames":["Tofte","Tofte i Hurum"],"latitude":"59.54275","longitude":"10.56138","feature_class":"P","feature_code":"PPLA2","country_code":"NO","cc2":"","admin1_code":"04","admin2_code":"0628","admin3_code":"","admin4_code":"","population":"3109","elevation":"","dem":"13","timezone":"Europe/Oslo","modification_date":"2010-12-07"},{"geonameid":"3138304","name":"Slemmestad","asciiname":"Slemmestad","alternatenames":["Slemmestad"],"latitude":"59.78074","longitude":"10.49701","feature_class":"P","feature_code":"PPLA2","country_code":"NO","cc2":"","admin1_code":"04","admin2_code":"0627","admin3_code":"","admin4_code":"","population":"0","elevation":"","dem":"8","timezone":"Europe/Oslo","modification_date":"2014-08-19"},{"geonameid":"3138713","name":"Skoger","asciiname":"Skoger","alternatenames":["Skoger"],"latitude":"59.71327","longitude":"10.25356","feature_class":"P","feature_code":"PPL","country_code":"NO","cc2":"","admin1_code":"04","admin2_code":"0602","admin3_code":"","admin4_code":"","population":"1082","elevation":"","dem":"95","timezone":"Europe/Oslo","modification_date":"2013-05-24"},{"geonameid":"3140636","name":"Sætre","asciiname":"Saetre","alternatenames":["Saetre","Saetre i Hurum","Setre","Sætre","Sætre i Hurum"],"latitude":"59.68129","longitude":"10.52749","feature_class":"P","feature_code":"PPL","country_code":"NO","cc2":"","admin1_code":"04","admin2_code":"0628","admin3_code":"","admin4_code":"","population":"3009","elevation":"","dem":"9","timezone":"Europe/Oslo","modification_date":"2013-05-24"},{"geonameid":"3141107","name":"Røyken","asciiname":"Royken","alternatenames":[""],"latitude":"59.74724","longitude":"10.38832","feature_class":"P","feature_code":"PPL","country_code":"NO","cc2":"","admin1_code":"04","admin2_code":"0627","admin3_code":"","admin4_code":"","population":"2775","elevation":"","dem":"147","timezone":"Europe/Oslo","modification_date":"2014-08-19"},{"geonameid":"3141469","name":"Rollag","asciiname":"Rollag","alternatenames":["Rollag","Rollang","Rolloug"],"latitude":"59.98431","longitude":"9.29644","feature_class":"P","feature_code":"PPLA2","country_code":"NO","cc2":"NO","admin1_code":"04","admin2_code":"0632","admin3_code":"","admin4_code":"","population":"0","elevation":"","dem":"208","timezone":"Europe/Oslo","modification_date":"2013-07-13"},{"geonameid":"3142623","name":"Prestfoss","asciiname":"Prestfoss","alternatenames":["Prestfoss"],"latitude":"60.04343","longitude":"9.6352","feature_class":"P","feature_code":"PPLA2","country_code":"NO","cc2":"","admin1_code":"04","admin2_code":"0621","admin3_code":"","admin4_code":"","population":"465","elevation":"","dem":"120","timezone":"Europe/Oslo","modification_date":"2014-08-19"},{"geonameid":"3144113","name":"Noresund","asciiname":"Noresund","alternatenames":["Nore Sundet"],"latitude":"60.17985","longitude":"9.62411","feature_class":"P","feature_code":"PPLA2","country_code":"NO","cc2":"","admin1_code":"04","admin2_code":"0622","admin3_code":"","admin4_code":"","population":"330","elevation":"","dem":"160","timezone":"Europe/Oslo","modification_date":"2014-08-19"},{"geonameid":"3144733","name":"Nesbyen","asciiname":"Nesbyen","alternatenames":["Nesbyen","XUL"],"latitude":"60.56809","longitude":"9.10274","feature_class":"P","feature_code":"PPLA2","country_code":"NO","cc2":"","admin1_code":"04","admin2_code":"0616","admin3_code":"","admin4_code":"","population":"2086","elevation":"","dem":"154","timezone":"Europe/Oslo","modification_date":"2010-12-07"},{"geonameid":"3145757","name":"Mjøndalen","asciiname":"Mjondalen","alternatenames":["Mjondalen","Mjøndalen"],"latitude":"59.75075","longitude":"10.02477","feature_class":"P","feature_code":"PPLA2","country_code":"NO","cc2":"","admin1_code":"04","admin2_code":"0625","admin3_code":"","admin4_code":"","population":"0","elevation":"","dem":"7","timezone":"Europe/Oslo","modification_date":"2014-08-19"},{"geonameid":"3149563","name":"Kongsberg","asciiname":"Kongsberg","alternatenames":["Kongsberg","Kongsberg kommun","XKB","Конгсберг"],"latitude":"59.66858","longitude":"9.65017","feature_class":"P","feature_code":"PPLA2","country_code":"NO","cc2":"","admin1_code":"04","admin2_code":"0604","admin3_code":"","admin4_code":"","population":"17667","elevation":"","dem":"161","timezone":"Europe/Oslo","modification_date":"2010-12-07"},{"geonameid":"3151288","name":"Hvittingfoss","asciiname":"Hvittingfoss","alternatenames":["Hvittingfoss","Vittingfos","Vittingfoss"],"latitude":"59.48572","longitude":"10.01173","feature_class":"P","feature_code":"PPL","country_code":"NO","cc2":"","admin1_code":"04","admin2_code":"0604","admin3_code":"","admin4_code":"","population":"1016","elevation":"","dem":"73","timezone":"Europe/Oslo","modification_date":"2013-05-24"},{"geonameid":"3151917","name":"Hønefoss","asciiname":"Honefoss","alternatenames":["Hionefosas","Honefoss","Hønefoss","Kh'onefos","Khenefos","Khjonefoss","he ne fu si","hoeneposeu","Хенефос","Хьонефос","Хёнефосс","赫讷福斯","회네포스"],"latitude":"60.16804","longitude":"10.25647","feature_class":"P","feature_code":"PPLA2","country_code":"NO","cc2":"","admin1_code":"04","admin2_code":"0605","admin3_code":"","admin4_code":"","population":"13678","elevation":"","dem":"70","timezone":"Europe/Oslo","modification_date":"2010-12-07"},{"geonameid":"3152327","name":"Hokksund","asciiname":"Hokksund","alternatenames":["Hokksund"],"latitude":"59.77077","longitude":"9.90987","feature_class":"P","feature_code":"PPLA2","country_code":"NO","cc2":"","admin1_code":"04","admin2_code":"0624","admin3_code":"","admin4_code":"","population":"0","elevation":"","dem":"13","timezone":"Europe/Oslo","modification_date":"2010-12-07"},{"geonameid":"3152989","name":"Hemsedal","asciiname":"Hemsedal","alternatenames":["Khemsedal'","Хемседаль"],"latitude":"60.86293","longitude":"8.55337","feature_class":"P","feature_code":"PPL","country_code":"NO","cc2":"","admin1_code":"04","admin2_code":"0618","admin3_code":"","admin4_code":"","population":"1876","elevation":"","dem":"620","timezone":"Europe/Oslo","modification_date":"2010-10-14"},{"geonameid":"3155422","name":"Gol","asciiname":"Gol","alternatenames":["GLL","Gol","Gol kommun"],"latitude":"60.7014","longitude":"8.94572","feature_class":"P","feature_code":"PPLA2","country_code":"NO","cc2":"","admin1_code":"04","admin2_code":"0617","admin3_code":"","admin4_code":"","population":"2530","elevation":"","dem":"235","timezone":"Europe/Oslo","modification_date":"2010-12-07"},{"geonameid":"3155913","name":"Geilo","asciiname":"Geilo","alternatenames":["Geilo","Gejlo","Gielo","Gjelo","Гейло"],"latitude":"60.53369","longitude":"8.20539","feature_class":"P","feature_code":"PPL","country_code":"NO","cc2":"","admin1_code":"04","admin2_code":"0620","admin3_code":"","admin4_code":"","population":"2276","elevation":"","dem":"800","timezone":"Europe/Oslo","modification_date":"2014-08-19"},{"geonameid":"3157238","name":"Flå","asciiname":"Fla","alternatenames":["Fla","Flaa","Flå"],"latitude":"60.43021","longitude":"9.46197","feature_class":"P","feature_code":"PPLA2","country_code":"NO","cc2":"NO","admin1_code":"04","admin2_code":"0615","admin3_code":"","admin4_code":"","population":"0","elevation":"","dem":"140","timezone":"Europe/Oslo","modification_date":"2010-12-07"},{"geonameid":"3159016","name":"Drammen","asciiname":"Drammen","alternatenames":["Dramen","Dramenas","Dramens","Drammen","Gorad Dramen","Kommun Drammen","Ntramen","XND","de la men","deulammen","doranmen","dram men","dramena","dramn","Ντράμεν","Горад Драмен","Драмен","Драммен","דראמן","درامن","ڈرامن","ড্রামেন","ดรัมเมน","ドランメン","德拉门","드람멘"],"latitude":"59.74389","longitude":"10.20449","feature_class":"P","feature_code":"PPLA","country_code":"NO","cc2":"","admin1_code":"04","admin2_code":"0602","admin3_code":"","admin4_code":"","population":"90722","elevation":"","dem":"11","timezone":"Europe/Oslo","modification_date":"2010-12-07"},{"geonameid":"3162884","name":"Åros","asciiname":"Aros","alternatenames":["Aros","Åros"],"latitude":"59.7061","longitude":"10.51092","feature_class":"P","feature_code":"PPL","country_code":"NO","cc2":"","admin1_code":"04","admin2_code":"0627","admin3_code":"","admin4_code":"","population":"1142","elevation":"","dem":"26","timezone":"Europe/Oslo","modification_date":"2013-05-24"},{"geonameid":"3163410","name":"Ål","asciiname":"Al","alternatenames":["Aal","Al","Ål"],"latitude":"60.63024","longitude":"8.56071","feature_class":"P","feature_code":"PPLA2","country_code":"NO","cc2":"","admin1_code":"04","admin2_code":"0619","admin3_code":"","admin4_code":"","population":"2278","elevation":"","dem":"440","timezone":"Europe/Oslo","modification_date":"2014-08-19"},{"geonameid":"7626338","name":"Vik","asciiname":"Vik","alternatenames":[""],"latitude":"60.07706","longitude":"10.27908","feature_class":"P","feature_code":"PPLA2","country_code":"NO","cc2":"","admin1_code":"04","admin2_code":"0612","admin3_code":"","admin4_code":"","population":"0","elevation":"","dem":"63","timezone":"Europe/Oslo","modification_date":"2014-08-19"},{"geonameid":"7626339","name":"Trøim","asciiname":"Troim","alternatenames":[""],"latitude":"60.86114","longitude":"8.56537","feature_class":"P","feature_code":"PPLA2","country_code":"NO","cc2":"","admin1_code":"04","admin2_code":"0618","admin3_code":"","admin4_code":"","population":"0","elevation":"","dem":"620","timezone":"Europe/Oslo","modification_date":"2010-12-07"},{"geonameid":"7626340","name":"Hol","asciiname":"Hol","alternatenames":["Hol kommune","Hols kommun","Huoles","Huolės","Khul'","Kommun Hol","hola","huo er","Хуль","হোল","霍爾"],"latitude":"60.61511","longitude":"8.29398","feature_class":"P","feature_code":"PPLA2","country_code":"NO","cc2":"","admin1_code":"04","admin2_code":"0620","admin3_code":"","admin4_code":"","population":"0","elevation":"","dem":"540","timezone":"Europe/Oslo","modification_date":"2010-12-07"},{"geonameid":"7626341","name":"Lierbyen","asciiname":"Lierbyen","alternatenames":[""],"latitude":"59.78651","longitude":"10.24447","feature_class":"P","feature_code":"PPLA2","country_code":"NO","cc2":"","admin1_code":"04","admin2_code":"0626","admin3_code":"","admin4_code":"","population":"0","elevation":"","dem":"17","timezone":"Europe/Oslo","modification_date":"2014-08-19"},{"geonameid":"7626342","name":"Lampeland","asciiname":"Lampeland","alternatenames":[""],"latitude":"59.83486","longitude":"9.57912","feature_class":"P","feature_code":"PPLA2","country_code":"NO","cc2":"","admin1_code":"04","admin2_code":"0631","admin3_code":"","admin4_code":"","population":"0","elevation":"","dem":"189","timezone":"Europe/Oslo","modification_date":"2010-12-07"},{"geonameid":"7626343","name":"Rødberg","asciiname":"Rodberg","alternatenames":[""],"latitude":"60.26722","longitude":"8.94721","feature_class":"P","feature_code":"PPLA2","country_code":"NO","cc2":"","admin1_code":"04","admin2_code":"0633","admin3_code":"","admin4_code":"","population":"0","elevation":"","dem":"477","timezone":"Europe/Oslo","modification_date":"2010-12-07"}]}