{"region_data":{"adminCode1":"19","lng":"7.9947","geonameId":3132064,"toponymName":"Vest-Agder Fylke","countryId":"3144096","fcl":"A","population":161276,"numberOfChildren":15,"countryCode":"NO","name":"Vest-Agder Fylke","fclName":"country, state, region,...","countryName":"Norway","fcodeName":"first-order administrative division","adminName1":"Vest-Agder","lat":"58.1513","fcode":"ADM1"},"country_data":{"ISO":"NO","ISO3":"NOR","ISO_Numeric":"578","fips":"NO","country":"Norway","capital":"Oslo","area":"324220","Population":"5009150","Continent":"EU","tld":".no","CurrencyCode":"NOK","CurrencyName":"Krone","Phone":"47","Postal_Code_Format":"####","Postal_Code_Regex":"^(\\d{4})$","Languages":"no,nb,nn,se,fi","geonameid":"3144096","neighbours":"FI,RU,SE","EquivalentFipsCode":""},"cities":[{"geonameid":"3131178","name":"Strai","asciiname":"Strai","alternatenames":["Strai","Ytre Strai"],"latitude":"58.1893","longitude":"7.92826","feature_class":"P","feature_code":"PPLL","country_code":"NO","cc2":"","admin1_code":"19","admin2_code":"1001","admin3_code":"","admin4_code":"","population":"1266","elevation":"","dem":"30","timezone":"Europe/Oslo","modification_date":"2013-07-05"},{"geonameid":"3131189","name":"Skålevik","asciiname":"Skalevik","alternatenames":["Skaalevig","Ytre Skalevik","Ytre Skålevik"],"latitude":"58.07955","longitude":"8.01602","feature_class":"P","feature_code":"PPLL","country_code":"NO","cc2":"","admin1_code":"19","admin2_code":"1001","admin3_code":"","admin4_code":"","population":"2599","elevation":"","dem":"7","timezone":"Europe/Oslo","modification_date":"2013-07-08"},{"geonameid":"3131848","name":"Vigeland","asciiname":"Vigeland","alternatenames":[""],"latitude":"58.08437","longitude":"7.30497","feature_class":"P","feature_code":"PPLA2","country_code":"NO","cc2":"","admin1_code":"19","admin2_code":"1029","admin3_code":"","admin4_code":"","population":"1258","elevation":"","dem":"5","timezone":"Europe/Oslo","modification_date":"2010-12-07"},{"geonameid":"3132051","name":"Vestbygd","asciiname":"Vestbygd","alternatenames":["Vestbygd","Vestbygda","Vestbygden"],"latitude":"58.09991","longitude":"6.58696","feature_class":"P","feature_code":"PPL","country_code":"NO","cc2":"","admin1_code":"19","admin2_code":"1003","admin3_code":"","admin4_code":"","population":"1083","elevation":"","dem":"8","timezone":"Europe/Oslo","modification_date":"2013-05-24"},{"geonameid":"3132208","name":"Vennesla","asciiname":"Vennesla","alternatenames":["Vennesla","Vennesla kommun","XXE"],"latitude":"58.26856","longitude":"7.97314","feature_class":"P","feature_code":"PPLA2","country_code":"NO","cc2":"","admin1_code":"19","admin2_code":"1014","admin3_code":"","admin4_code":"","population":"10931","elevation":"","dem":"53","timezone":"Europe/Oslo","modification_date":"2014-08-19"},{"geonameid":"3132720","name":"Vanse","asciiname":"Vanse","alternatenames":["Lista","Vanse"],"latitude":"58.09812","longitude":"6.69184","feature_class":"P","feature_code":"PPL","country_code":"NO","cc2":"","admin1_code":"19","admin2_code":"1003","admin3_code":"","admin4_code":"","population":"1953","elevation":"","dem":"10","timezone":"Europe/Oslo","modification_date":"2013-05-24"},{"geonameid":"3133663","name":"Tveit","asciiname":"Tveit","alternatenames":["Tveid"],"latitude":"58.23366","longitude":"8.12199","feature_class":"P","feature_code":"PPLX","country_code":"NO","cc2":"","admin1_code":"19","admin2_code":"1001","admin3_code":"","admin4_code":"","population":"1397","elevation":"","dem":"36","timezone":"Europe/Oslo","modification_date":"2010-10-15"},{"geonameid":"3134327","name":"Tonstad","asciiname":"Tonstad","alternatenames":["Sirdal","Siredalen","Tonstad","Tonstead"],"latitude":"58.66263","longitude":"6.71694","feature_class":"P","feature_code":"PPLA2","country_code":"NO","cc2":"","admin1_code":"19","admin2_code":"1046","admin3_code":"","admin4_code":"","population":"751","elevation":"","dem":"68","timezone":"Europe/Oslo","modification_date":"2010-12-07"},{"geonameid":"3134599","name":"Tingvatn","asciiname":"Tingvatn","alternatenames":["Tingpatn","Tingvatn","Tingvatne"],"latitude":"58.3757","longitude":"7.2197","feature_class":"P","feature_code":"PPLA2","country_code":"NO","cc2":"NO","admin1_code":"19","admin2_code":"1034","admin3_code":"","admin4_code":"","population":"0","elevation":"","dem":"168","timezone":"Europe/Oslo","modification_date":"2010-12-07"},{"geonameid":"3134827","name":"Tangvall","asciiname":"Tangvall","alternatenames":["Tangvall","Tufteland"],"latitude":"58.09781","longitude":"7.81529","feature_class":"P","feature_code":"PPLA2","country_code":"NO","cc2":"NO","admin1_code":"19","admin2_code":"1018","admin3_code":"","admin4_code":"","population":"0","elevation":"","dem":"15","timezone":"Europe/Oslo","modification_date":"2014-08-19"},{"geonameid":"3137971","name":"Søgne","asciiname":"Sogne","alternatenames":["Sogne","Sogne kommun","Søgne","Søgne kommun"],"latitude":"58.09328","longitude":"7.78294","feature_class":"P","feature_code":"PPL","country_code":"NO","cc2":"","admin1_code":"19","admin2_code":"1018","admin3_code":"","admin4_code":"","population":"9000","elevation":"10","dem":"8","timezone":"Europe/Oslo","modification_date":"2013-05-24"},{"geonameid":"3144534","name":"Nodeland","asciiname":"Nodeland","alternatenames":["Naadeland","Nadeland","Nodeland","Noteland","Nådeland"],"latitude":"58.15517","longitude":"7.83576","feature_class":"P","feature_code":"PPLA2","country_code":"NO","cc2":"","admin1_code":"19","admin2_code":"1017","admin3_code":"","admin4_code":"","population":"1834","elevation":"","dem":"23","timezone":"Europe/Oslo","modification_date":"2010-12-07"},{"geonameid":"3146463","name":"Mandal","asciiname":"Mandal","alternatenames":["Kommun Mandal","Mandal","Mandal kommune","Mandali vald","Mandalis","Mandals kommun","man da er","manadala","mandal","mandaru","Мандал","মানডাল","マンダール","曼达尔","만달"],"latitude":"58.0274","longitude":"7.45342","feature_class":"P","feature_code":"PPLA2","country_code":"NO","cc2":"","admin1_code":"19","admin2_code":"1002","admin3_code":"","admin4_code":"","population":"10143","elevation":"","dem":"11","timezone":"Europe/Oslo","modification_date":"2010-12-07"},{"geonameid":"3146684","name":"Lyngdal","asciiname":"Lyngdal","alternatenames":["Lyngdal","Lyngdal kommun"],"latitude":"58.1376","longitude":"7.07002","feature_class":"P","feature_code":"PPLA2","country_code":"NO","cc2":"","admin1_code":"19","admin2_code":"1032","admin3_code":"","admin4_code":"","population":"3671","elevation":"","dem":"10","timezone":"Europe/Oslo","modification_date":"2010-12-07"},{"geonameid":"3147498","name":"Liknes","asciiname":"Liknes","alternatenames":["Liknes"],"latitude":"58.31216","longitude":"6.9618","feature_class":"P","feature_code":"PPLA2","country_code":"NO","cc2":"","admin1_code":"19","admin2_code":"1037","admin3_code":"","admin4_code":"","population":"2141","elevation":"","dem":"16","timezone":"Europe/Oslo","modification_date":"2014-08-19"},{"geonameid":"3149318","name":"Kristiansand","asciiname":"Kristiansand","alternatenames":["Christiansand","KRS","Krisjansanna","Krisjānsanna","Kristiansand","Kristiansand Sor","Kristiansand Sør","Kristiansann","Kryscijansan","ke li si di an sang","Кристиансанд","Кристиансанн","Крысціянсан","כריסטיאנסנד","克里斯蒂安桑"],"latitude":"58.14671","longitude":"7.9956","feature_class":"P","feature_code":"PPLA","country_code":"NO","cc2":"","admin1_code":"19","admin2_code":"1001","admin3_code":"","admin4_code":"","population":"63814","elevation":"","dem":"12","timezone":"Europe/Oslo","modification_date":"2013-06-21"},{"geonameid":"3149525","name":"Konsmo","asciiname":"Konsmo","alternatenames":["Konsmo"],"latitude":"58.28529","longitude":"7.35598","feature_class":"P","feature_code":"PPLA2","country_code":"NO","cc2":"","admin1_code":"19","admin2_code":"1027","admin3_code":"","admin4_code":"","population":"0","elevation":"","dem":"80","timezone":"Europe/Oslo","modification_date":"2010-12-07"},{"geonameid":"3155567","name":"Justvik","asciiname":"Justvik","alternatenames":["Gjusvig"],"latitude":"58.19691","longitude":"8.03107","feature_class":"P","feature_code":"PPL","country_code":"NO","cc2":"","admin1_code":"19","admin2_code":"1001","admin3_code":"","admin4_code":"","population":"1630","elevation":"","dem":"8","timezone":"Europe/Oslo","modification_date":"2014-08-19"},{"geonameid":"3157090","name":"Flekkefjord","asciiname":"Flekkefjord","alternatenames":["Flekef'or","Flekkef'ord","Flekkefjord kommune","Flekkefjords kommun","Kommun Flekkefjord","fu lai ke fei you er","furekkefiyoru","phlekkephajorda","Флекефьор","Флеккефьорд","ফ্লেক্কেফজোর্ড","フレッケフィヨール","弗萊克菲尤爾"],"latitude":"58.29705","longitude":"6.66069","feature_class":"P","feature_code":"PPLA2","country_code":"NO","cc2":"","admin1_code":"19","admin2_code":"1004","admin3_code":"","admin4_code":"","population":"5615","elevation":"","dem":"7","timezone":"Europe/Oslo","modification_date":"2010-12-07"},{"geonameid":"3157799","name":"Farsund","asciiname":"Farsund","alternatenames":[""],"latitude":"58.09479","longitude":"6.80468","feature_class":"P","feature_code":"PPLA2","country_code":"NO","cc2":"","admin1_code":"19","admin2_code":"1003","admin3_code":"","admin4_code":"","population":"3151","elevation":"","dem":"5","timezone":"Europe/Oslo","modification_date":"2010-12-07"},{"geonameid":"7626352","name":"Helland","asciiname":"Helland","alternatenames":[""],"latitude":"58.19344","longitude":"7.52431","feature_class":"P","feature_code":"PPLA2","country_code":"NO","cc2":"","admin1_code":"19","admin2_code":"1021","admin3_code":"","admin4_code":"","population":"0","elevation":"","dem":"31","timezone":"Europe/Oslo","modification_date":"2014-05-29"},{"geonameid":"7626353","name":"Kyrkjebygda","asciiname":"Kyrkjebygda","alternatenames":[""],"latitude":"58.61523","longitude":"7.41391","feature_class":"P","feature_code":"PPLA2","country_code":"NO","cc2":"","admin1_code":"19","admin2_code":"1026","admin3_code":"","admin4_code":"","population":"0","elevation":"","dem":"262","timezone":"Europe/Oslo","modification_date":"2010-12-07"}]}