{"country_data":{"ISO":"BA","ISO3":"BIH","ISO_Numeric":"070","fips":"BK","country":"Bosnia and Herzegovina","capital":"Sarajevo","area":"51129","Population":"4590000","Continent":"EU","tld":".ba","CurrencyCode":"BAM","CurrencyName":"Marka","Phone":"387","Postal_Code_Format":"#####","Postal_Code_Regex":"^(\\d{5})$","Languages":"bs,hr-BA,sr-BA","geonameid":"3277605","neighbours":"HR,ME,RS","EquivalentFipsCode":""},"cities":[{"geonameid":"3186246","name":"Zvornik","asciiname":"Zvornik","alternatenames":["Zvonik","Zvornik","Zvornikas","jeuboleunikeu","zi wo er ni ke","zuvu~oruniku","Зворник","ズヴォルニク","茲沃爾尼克","즈보르니크"],"latitude":"44.38605","longitude":"19.10247","feature_class":"P","feature_code":"PPL","country_code":"BA","cc2":"","admin1_code":"02","admin2_code":"","admin3_code":"","admin4_code":"","population":"8026","elevation":"","dem":"163","timezone":"Europe/Sarajevo","modification_date":"2012-04-06"},{"geonameid":"3186422","name":"Živinice","asciiname":"Zivinice","alternatenames":["Zivinice","Živinice"],"latitude":"44.54765","longitude":"17.37357","feature_class":"P","feature_code":"PPLL","country_code":"BA","cc2":"","admin1_code":"02","admin2_code":"","admin3_code":"","admin4_code":"","population":"3718","elevation":"","dem":"778","timezone":"Europe/Sarajevo","modification_date":"2012-05-06"},{"geonameid":"3186423","name":"Živinice","asciiname":"Zivinice","alternatenames":["Zhivinice","Zhivinice Grad","Zivinice","ri wei ni cai","Živinice","Živinicė","Живинице","Живинице Град","日維尼采"],"latitude":"44.44929","longitude":"18.64978","feature_class":"P","feature_code":"PPL","country_code":"BA","cc2":"","admin1_code":"01","admin2_code":"","admin3_code":"","admin4_code":"","population":"13641","elevation":"","dem":"216","timezone":"Europe/Sarajevo","modification_date":"2012-04-06"},{"geonameid":"3186567","name":"Žepče","asciiname":"Zepce","alternatenames":["Zepce","Zhepche","re pu qie","Žepčė","Жепче","热普切"],"latitude":"44.42667","longitude":"18.03778","feature_class":"P","feature_code":"PPL","country_code":"BA","cc2":"","admin1_code":"01","admin2_code":"","admin3_code":"","admin4_code":"","population":"8502","elevation":"","dem":"231","timezone":"Europe/Sarajevo","modification_date":"2006-01-17"},{"geonameid":"3186573","name":"Zenica","asciiname":"Zenica","alternatenames":["Zenica","jenicha","se nit sa","ze ni cha","zenitsu~a","znyka","znytsa","znyzh","zynytsa","Зеница","Зеніца","זניצה","زنیتسا","زنیکا","زينيتسا","เซนีตซา","ゼニツァ","泽尼察","제니차"],"latitude":"44.20169","longitude":"17.90397","feature_class":"P","feature_code":"PPL","country_code":"BA","cc2":"","admin1_code":"01","admin2_code":"","admin3_code":"","admin4_code":"","population":"164423","elevation":"","dem":"325","timezone":"Europe/Sarajevo","modification_date":"2012-05-06"},{"geonameid":"3186588","name":"Željezno Polje","asciiname":"Zeljezno Polje","alternatenames":[""],"latitude":"44.39875","longitude":"17.94103","feature_class":"P","feature_code":"PPLL","country_code":"BA","cc2":"","admin1_code":"01","admin2_code":"","admin3_code":"","admin4_code":"","population":"5783","elevation":"","dem":"528","timezone":"Europe/Sarajevo","modification_date":"2012-05-06"},{"geonameid":"3186679","name":"Zborište","asciiname":"Zboriste","alternatenames":[""],"latitude":"45.14593","longitude":"16.01728","feature_class":"P","feature_code":"PPLL","country_code":"BA","cc2":"","admin1_code":"01","admin2_code":"","admin3_code":"","admin4_code":"","population":"4922","elevation":"","dem":"234","timezone":"Europe/Sarajevo","modification_date":"2012-02-28"},{"geonameid":"3186717","name":"Zavidovići","asciiname":"Zavidovici","alternatenames":["Zavidovichi","Zavidovici","Zavidovići","zha wei duo wei qi","Завидовичи","Завидовићи","扎維多維齊"],"latitude":"44.44583","longitude":"18.14972","feature_class":"P","feature_code":"PPL","country_code":"BA","cc2":"","admin1_code":"01","admin2_code":"","admin3_code":"","admin4_code":"","population":"14380","elevation":"","dem":"208","timezone":"Europe/Sarajevo","modification_date":"2012-01-19"},{"geonameid":"3186961","name":"Zabrišće","asciiname":"Zabrisce","alternatenames":["Zabrisce","Zabrišće"],"latitude":"43.79224","longitude":"16.94224","feature_class":"P","feature_code":"PPL","country_code":"BA","cc2":"","admin1_code":"01","admin2_code":"","admin3_code":"","admin4_code":"","population":"4261","elevation":"","dem":"743","timezone":"Europe/Sarajevo","modification_date":"2012-05-06"},{"geonameid":"3187040","name":"Vukovije Donje","asciiname":"Vukovije Donje","alternatenames":["Donje Vukovije","Vukovije Donje","Vukovje Donje"],"latitude":"44.46209","longitude":"18.74941","feature_class":"P","feature_code":"PPL","country_code":"BA","cc2":"","admin1_code":"01","admin2_code":"","admin3_code":"","admin4_code":"","population":"3535","elevation":"","dem":"251","timezone":"Europe/Sarajevo","modification_date":"2012-04-06"},{"geonameid":"3187162","name":"Vrnograč","asciiname":"Vrnograc","alternatenames":["Vrnograc","Vrnograč"],"latitude":"45.16369","longitude":"15.95444","feature_class":"P","feature_code":"PPL","country_code":"BA","cc2":"","admin1_code":"01","admin2_code":"","admin3_code":"","admin4_code":"","population":"6860","elevation":"","dem":"162","timezone":"Europe/Sarajevo","modification_date":"2012-02-28"},{"geonameid":"3187393","name":"Vozuća","asciiname":"Vozuca","alternatenames":[""],"latitude":"44.35878","longitude":"18.35397","feature_class":"P","feature_code":"PPLL","country_code":"BA","cc2":"","admin1_code":"00","admin2_code":"","admin3_code":"","admin4_code":"","population":"3209","elevation":"","dem":"326","timezone":"Europe/Sarajevo","modification_date":"2012-04-06"},{"geonameid":"3187419","name":"Voljevac","asciiname":"Voljevac","alternatenames":[""],"latitude":"43.87873","longitude":"17.65861","feature_class":"P","feature_code":"PPL","country_code":"BA","cc2":"","admin1_code":"01","admin2_code":"","admin3_code":"","admin4_code":"","population":"3764","elevation":"","dem":"767","timezone":"Europe/Sarajevo","modification_date":"2012-05-06"},{"geonameid":"3187464","name":"Vogošća","asciiname":"Vogosca","alternatenames":["Gornja Vogosca","Gornja Vogošća","Vogosca","Vogošća"],"latitude":"43.90225","longitude":"18.34438","feature_class":"P","feature_code":"PPL","country_code":"BA","cc2":"","admin1_code":"01","admin2_code":"","admin3_code":"","admin4_code":"","population":"8180","elevation":"","dem":"509","timezone":"Europe/Sarajevo","modification_date":"2012-04-06"},{"geonameid":"3187524","name":"Vlasenica","asciiname":"Vlasenica","alternatenames":["Vlasenica","Vlasenice","beullasenicha","vurasenitsu~a","Власеница","ヴラセニツァ","블라세니차"],"latitude":"44.18183","longitude":"18.94096","feature_class":"P","feature_code":"PPL","country_code":"BA","cc2":"","admin1_code":"02","admin2_code":"","admin3_code":"","admin4_code":"","population":"4508","elevation":"","dem":"660","timezone":"Europe/Sarajevo","modification_date":"2012-04-06"},{"geonameid":"3187588","name":"Vitina","asciiname":"Vitina","alternatenames":["Vitina"],"latitude":"43.2375","longitude":"17.48389","feature_class":"P","feature_code":"PPL","country_code":"BA","cc2":"","admin1_code":"01","admin2_code":"","admin3_code":"","admin4_code":"","population":"4384","elevation":"","dem":"84","timezone":"Europe/Sarajevo","modification_date":"2012-01-19"},{"geonameid":"3187590","name":"Vitez","asciiname":"Vitez","alternatenames":["Vitez","Vitezas","wei te zi","Витез","維特茲"],"latitude":"44.15424","longitude":"17.79009","feature_class":"P","feature_code":"PPL","country_code":"BA","cc2":"","admin1_code":"01","admin2_code":"","admin3_code":"","admin4_code":"","population":"8140","elevation":"","dem":"410","timezone":"Europe/Sarajevo","modification_date":"2012-05-06"},{"geonameid":"3187609","name":"Visoko","asciiname":"Visoko","alternatenames":["Visokas","Visoko","bisoko","vu~isoko","wei suo ke","Високо","ヴィソコ","维索科","비소코"],"latitude":"43.98889","longitude":"18.17806","feature_class":"P","feature_code":"PPL","country_code":"BA","cc2":"","admin1_code":"01","admin2_code":"","admin3_code":"","admin4_code":"","population":"17890","elevation":"","dem":"423","timezone":"Europe/Sarajevo","modification_date":"2012-01-19"},{"geonameid":"3187681","name":"Višegrad","asciiname":"Visegrad","alternatenames":["Visegrad","Visegradas","Visenkrant","Vishegrad","Vixegrad","Vişegrad","Višegrad","Višegradas","Wiszegrad","bisyegeuladeu","vishegrad","vu~ishegurado","wei she ge lei","Βίσεγκραντ","Вишеград","ヴィシェグラード","维舍格勒","비셰그라드"],"latitude":"43.7826","longitude":"19.29256","feature_class":"P","feature_code":"PPL","country_code":"BA","cc2":"","admin1_code":"02","admin2_code":"","admin3_code":"","admin4_code":"","population":"6087","elevation":"","dem":"311","timezone":"Europe/Sarajevo","modification_date":"2012-04-06"},{"geonameid":"3187799","name":"Vidoši","asciiname":"Vidosi","alternatenames":["Vidosi","Vidoši"],"latitude":"43.77139","longitude":"17.02833","feature_class":"P","feature_code":"PPL","country_code":"BA","cc2":"","admin1_code":"01","admin2_code":"","admin3_code":"","admin4_code":"","population":"3905","elevation":"","dem":"836","timezone":"Europe/Sarajevo","modification_date":"2012-01-19"},{"geonameid":"3188199","name":"Velika Obarska","asciiname":"Velika Obarska","alternatenames":["Obarska Velika","Velika Obarska"],"latitude":"44.80461","longitude":"19.16183","feature_class":"P","feature_code":"PPLL","country_code":"BA","cc2":"","admin1_code":"02","admin2_code":"","admin3_code":"","admin4_code":"","population":"5142","elevation":"","dem":"84","timezone":"Europe/Sarajevo","modification_date":"2012-04-06"},{"geonameid":"3188225","name":"Velika Kladuša","asciiname":"Velika Kladusa","alternatenames":["Velika Kladusa","Velika Kladusha","Velika Kladuša","Velika-Kladusha","da ke la du sha","wlyqh qldwsh","Велика Кладуша","Велика-Кладуша","וליקה קלדושה","ヴェリカ・クラドゥシャ","大克拉杜沙"],"latitude":"45.18497","longitude":"15.80579","feature_class":"P","feature_code":"PPL","country_code":"BA","cc2":"","admin1_code":"01","admin2_code":"","admin3_code":"","admin4_code":"","population":"19330","elevation":"","dem":"160","timezone":"Europe/Sarajevo","modification_date":"2012-02-28"},{"geonameid":"3188329","name":"Velagići","asciiname":"Velagici","alternatenames":["Velagici","Velagići"],"latitude":"44.55618","longitude":"16.73349","feature_class":"P","feature_code":"PPLL","country_code":"BA","cc2":"","admin1_code":"01","admin2_code":"","admin3_code":"","admin4_code":"","population":"4972","elevation":"","dem":"350","timezone":"Europe/Sarajevo","modification_date":"2013-04-04"},{"geonameid":"3188357","name":"Varoška Rijeka","asciiname":"Varoska Rijeka","alternatenames":["Varoska Rijeka","Varoška Rijeka"],"latitude":"45.08936","longitude":"16.01906","feature_class":"P","feature_code":"PPLL","country_code":"BA","cc2":"","admin1_code":"01","admin2_code":"","admin3_code":"","admin4_code":"","population":"6573","elevation":"","dem":"193","timezone":"Europe/Sarajevo","modification_date":"2012-02-28"},{"geonameid":"3188366","name":"Vareš","asciiname":"Vares","alternatenames":["Vares","Vares Grad","Varesh","Vareš","Vareš Grad","Вареш"],"latitude":"44.16444","longitude":"18.32833","feature_class":"P","feature_code":"PPL","country_code":"BA","cc2":"","admin1_code":"01","admin2_code":"","admin3_code":"","admin4_code":"","population":"7193","elevation":"","dem":"845","timezone":"Europe/Sarajevo","modification_date":"2012-01-19"},{"geonameid":"3188458","name":"Ustikolina","asciiname":"Ustikolina","alternatenames":[""],"latitude":"43.58338","longitude":"18.79106","feature_class":"P","feature_code":"PPL","country_code":"BA","cc2":"","admin1_code":"01","admin2_code":"3343726","admin3_code":"","admin4_code":"","population":"4446","elevation":"","dem":"392","timezone":"Europe/Sarajevo","modification_date":"2012-02-28"},{"geonameid":"3188532","name":"Ugljevik","asciiname":"Ugljevik","alternatenames":["Uglevik","Uglevikas","Угљевик"],"latitude":"44.66361","longitude":"19.02028","feature_class":"P","feature_code":"PPL","country_code":"BA","cc2":"","admin1_code":"02","admin2_code":"3294874","admin3_code":"","admin4_code":"","population":"3452","elevation":"","dem":"299","timezone":"Europe/Sarajevo","modification_date":"2011-12-22"},{"geonameid":"3188582","name":"Tuzla","asciiname":"Tuzla","alternatenames":["Donja Tuzla","Soli","TZL","Tuzla","to~uzura","tu ci la","tujeulla","twzla","tzla","Тузла","تزلا","توزلا","トゥズラ","图兹拉","투즐라"],"latitude":"44.53842","longitude":"18.66709","feature_class":"P","feature_code":"PPL","country_code":"BA","cc2":"","admin1_code":"01","admin2_code":"","admin3_code":"","admin4_code":"","population":"142486","elevation":"","dem":"225","timezone":"Europe/Sarajevo","modification_date":"2012-04-06"},{"geonameid":"3188633","name":"Turbe","asciiname":"Turbe","alternatenames":[""],"latitude":"44.24352","longitude":"17.57499","feature_class":"P","feature_code":"PPL","country_code":"BA","cc2":"","admin1_code":"01","admin2_code":"","admin3_code":"","admin4_code":"","population":"4767","elevation":"","dem":"597","timezone":"Europe/Sarajevo","modification_date":"2012-05-06"},{"geonameid":"3188691","name":"Tržačka Raštela","asciiname":"Trzacka Rastela","alternatenames":["Trzacka Rastela","Tržačka Raštela"],"latitude":"44.97597","longitude":"15.78489","feature_class":"P","feature_code":"PPL","country_code":"BA","cc2":"","admin1_code":"01","admin2_code":"","admin3_code":"","admin4_code":"","population":"6617","elevation":"","dem":"272","timezone":"Europe/Sarajevo","modification_date":"2012-02-28"},{"geonameid":"3188817","name":"Trn","asciiname":"Trn","alternatenames":[""],"latitude":"44.85829","longitude":"17.23583","feature_class":"P","feature_code":"PPL","country_code":"BA","cc2":"","admin1_code":"02","admin2_code":"","admin3_code":"","admin4_code":"","population":"7553","elevation":"","dem":"135","timezone":"Europe/Sarajevo","modification_date":"2012-05-06"},{"geonameid":"3188893","name":"Trebinje","asciiname":"Trebinje","alternatenames":["Trebigne","Trebin'e","Trebine","Trebinje","Trebinė","te lei bi nie","teulebine","torebinye","Требине","Требинье","Требиње","トレビニェ","特雷比涅","트레비네"],"latitude":"42.71197","longitude":"18.34362","feature_class":"P","feature_code":"PPL","country_code":"BA","cc2":"","admin1_code":"02","admin2_code":"","admin3_code":"","admin4_code":"","population":"33178","elevation":"","dem":"278","timezone":"Europe/Sarajevo","modification_date":"2012-04-06"},{"geonameid":"3188924","name":"Travnik","asciiname":"Travnik","alternatenames":["Traunik","Travnik","Travnikas","te la fu ni ke","teulabeunikeu","toravuniku","travnik","trawnyk","Травник","Траўнік","טראווניק","تراونیک","トラヴニク","特拉夫尼克","트라브니크"],"latitude":"44.22637","longitude":"17.66583","feature_class":"P","feature_code":"PPL","country_code":"BA","cc2":"","admin1_code":"01","admin2_code":"","admin3_code":"","admin4_code":"","population":"31127","elevation":"","dem":"507","timezone":"Europe/Sarajevo","modification_date":"2012-05-06"},{"geonameid":"3189046","name":"Tojšići","asciiname":"Tojsici","alternatenames":["Tojsici","Tojšići"],"latitude":"44.50133","longitude":"18.78523","feature_class":"P","feature_code":"PPL","country_code":"BA","cc2":"","admin1_code":"01","admin2_code":"","admin3_code":"","admin4_code":"","population":"6587","elevation":"","dem":"322","timezone":"Europe/Sarajevo","modification_date":"2012-04-06"},{"geonameid":"3189143","name":"Teslić","asciiname":"Teslic","alternatenames":["Teslic","Teslich","Teslicius","Teslić","Tesliĉ","Tesličius","tai si li qi","Теслич","Теслић","泰斯利奇"],"latitude":"44.60639","longitude":"17.85972","feature_class":"P","feature_code":"PPL","country_code":"BA","cc2":"","admin1_code":"02","admin2_code":"","admin3_code":"","admin4_code":"","population":"6405","elevation":"","dem":"202","timezone":"Europe/Sarajevo","modification_date":"2012-01-19"},{"geonameid":"3189146","name":"Tešanj","asciiname":"Tesanj","alternatenames":["Tesanis","Tesanj","Teshan","Teshan'","Tešanis","Tešanj","tai sha ni","Тешань","Тешањ","泰沙尼"],"latitude":"44.61191","longitude":"17.98552","feature_class":"P","feature_code":"PPL","country_code":"BA","cc2":"","admin1_code":"01","admin2_code":"","admin3_code":"","admin4_code":"","population":"7550","elevation":"","dem":"232","timezone":"Europe/Sarajevo","modification_date":"2012-05-06"},{"geonameid":"3189194","name":"Tasovčići","asciiname":"Tasovcici","alternatenames":["Tasovcici","Tasovčići"],"latitude":"43.11333","longitude":"17.72","feature_class":"P","feature_code":"PPL","country_code":"BA","cc2":"","admin1_code":"01","admin2_code":"","admin3_code":"","admin4_code":"","population":"2007","elevation":"","dem":"17","timezone":"Europe/Sarajevo","modification_date":"2013-05-05"},{"geonameid":"3189236","name":"Svodna","asciiname":"Svodna","alternatenames":["Svodna"],"latitude":"45.0377","longitude":"16.54019","feature_class":"P","feature_code":"PPL","country_code":"BA","cc2":"","admin1_code":"02","admin2_code":"","admin3_code":"","admin4_code":"","population":"4388","elevation":"","dem":"144","timezone":"Europe/Sarajevo","modification_date":"2012-02-28"},{"geonameid":"3189513","name":"Šumatac","asciiname":"Sumatac","alternatenames":[""],"latitude":"45.09743","longitude":"15.85818","feature_class":"P","feature_code":"PPLL","country_code":"BA","cc2":"","admin1_code":"01","admin2_code":"","admin3_code":"","admin4_code":"","population":"4987","elevation":"","dem":"175","timezone":"Europe/Sarajevo","modification_date":"2012-02-28"},{"geonameid":"3189602","name":"Šturlić","asciiname":"Sturlic","alternatenames":["Gradina Sturlic","Gradina Šturlić","Sturlic","Šturlić"],"latitude":"45.06389","longitude":"15.77806","feature_class":"P","feature_code":"PPLL","country_code":"BA","cc2":"","admin1_code":"01","admin2_code":"","admin3_code":"","admin4_code":"","population":"5014","elevation":"","dem":"275","timezone":"Europe/Sarajevo","modification_date":"2012-01-19"},{"geonameid":"3189621","name":"Stupari","asciiname":"Stupari","alternatenames":[""],"latitude":"44.31382","longitude":"18.68416","feature_class":"P","feature_code":"PPL","country_code":"BA","cc2":"","admin1_code":"00","admin2_code":"","admin3_code":"","admin4_code":"","population":"4424","elevation":"","dem":"398","timezone":"Europe/Sarajevo","modification_date":"2012-04-06"},{"geonameid":"3189823","name":"Stolac","asciiname":"Stolac","alternatenames":["Stolac","Stolacas","Столац"],"latitude":"43.084","longitude":"17.95995","feature_class":"P","feature_code":"PPL","country_code":"BA","cc2":"","admin1_code":"01","admin2_code":"","admin3_code":"","admin4_code":"","population":"7733","elevation":"","dem":"61","timezone":"Europe/Sarajevo","modification_date":"2012-04-06"},{"geonameid":"3189848","name":"Stjepan-Polje","asciiname":"Stjepan-Polje","alternatenames":["Stjepan-Polje"],"latitude":"44.71634","longitude":"18.25783","feature_class":"P","feature_code":"PPLL","country_code":"BA","cc2":"","admin1_code":"01","admin2_code":"","admin3_code":"","admin4_code":"","population":"4341","elevation":"","dem":"239","timezone":"Europe/Sarajevo","modification_date":"2012-04-06"},{"geonameid":"3189884","name":"Stijena","asciiname":"Stijena","alternatenames":[""],"latitude":"44.9363","longitude":"16.02224","feature_class":"P","feature_code":"PPLL","country_code":"BA","cc2":"","admin1_code":"01","admin2_code":"","admin3_code":"","admin4_code":"","population":"10844","elevation":"","dem":"354","timezone":"Europe/Sarajevo","modification_date":"2012-02-28"},{"geonameid":"3190158","name":"Srebrenik","asciiname":"Srebrenik","alternatenames":["Srebrenik","Srebrenikas","Srebrnica","Srebrnik","Сребреник"],"latitude":"44.70819","longitude":"18.48834","feature_class":"P","feature_code":"PPL","country_code":"BA","cc2":"","admin1_code":"01","admin2_code":"","admin3_code":"","admin4_code":"","population":"6723","elevation":"","dem":"181","timezone":"Europe/Sarajevo","modification_date":"2012-04-06"},{"geonameid":"3190159","name":"Srebrenica","asciiname":"Srebrenica","alternatenames":["Argentaria","Srebrenica","Srebrenicja","Srebrenitsa","Srebrnica","seulebeulenicha","si lei bu lei ni cha","srbnytsa","srbrnytsa","srybrynytsa","sureburenitsu~a","Сребреница","Сребрениця","سربرنيتسا","سربرنیتسا","سربنیتسا","سریبرینیتسا","スレブレニツァ","斯雷布雷尼察","스레브레니차"],"latitude":"44.10748","longitude":"19.29669","feature_class":"P","feature_code":"PPL","country_code":"BA","cc2":"","admin1_code":"02","admin2_code":"3294829","admin3_code":"","admin4_code":"","population":"2862","elevation":"","dem":"371","timezone":"Europe/Sarajevo","modification_date":"2013-01-03"},{"geonameid":"3190172","name":"Srbac","asciiname":"Srbac","alternatenames":["Srbac","Srbacas","Srpac","Srpak","Svinjar","Србац"],"latitude":"45.0973","longitude":"17.52331","feature_class":"P","feature_code":"PPL","country_code":"BA","cc2":"","admin1_code":"02","admin2_code":"","admin3_code":"","admin4_code":"","population":"7380","elevation":"","dem":"102","timezone":"Europe/Sarajevo","modification_date":"2012-05-06"},{"geonameid":"3190357","name":"Solina","asciiname":"Solina","alternatenames":[""],"latitude":"44.56226","longitude":"18.69322","feature_class":"P","feature_code":"PPLL","country_code":"BA","cc2":"","admin1_code":"01","admin2_code":"","admin3_code":"","admin4_code":"","population":"4780","elevation":"","dem":"272","timezone":"Europe/Sarajevo","modification_date":"2012-04-06"},{"geonameid":"3190385","name":"Sokolac","asciiname":"Sokolac","alternatenames":["Sokola","Sokolac","Sokolacas","sokollacheu","sokoratsu","Соколац","ソコラツ","소콜라츠"],"latitude":"43.93817","longitude":"18.80079","feature_class":"P","feature_code":"PPL","country_code":"BA","cc2":"","admin1_code":"02","admin2_code":"","admin3_code":"","admin4_code":"","population":"8842","elevation":"","dem":"876","timezone":"Europe/Sarajevo","modification_date":"2012-04-06"},{"geonameid":"3190652","name":"Sladna","asciiname":"Sladna","alternatenames":["Sladna"],"latitude":"44.72897","longitude":"18.42575","feature_class":"P","feature_code":"PPLL","country_code":"BA","cc2":"","admin1_code":"01","admin2_code":"","admin3_code":"","admin4_code":"","population":"4304","elevation":"","dem":"336","timezone":"Europe/Sarajevo","modification_date":"2012-05-06"},{"geonameid":"3190733","name":"Skender Vakuf","asciiname":"Skender Vakuf","alternatenames":["Knezevo","Skender Vakuf"],"latitude":"44.49071","longitude":"17.38161","feature_class":"P","feature_code":"PPL","country_code":"BA","cc2":"","admin1_code":"02","admin2_code":"","admin3_code":"","admin4_code":"","population":"6866","elevation":"","dem":"846","timezone":"Europe/Sarajevo","modification_date":"2012-05-06"},{"geonameid":"3190837","name":"Šipovo","asciiname":"Sipovo","alternatenames":["Shipovo","Sipovo","Šipovo","Шипово"],"latitude":"44.28237","longitude":"17.08597","feature_class":"P","feature_code":"PPL","country_code":"BA","cc2":"","admin1_code":"02","admin2_code":"","admin3_code":"","admin4_code":"","population":"10738","elevation":"","dem":"446","timezone":"Europe/Sarajevo","modification_date":"2012-05-06"},{"geonameid":"3190987","name":"Šerići","asciiname":"Serici","alternatenames":["Seric","Serici","Šerić","Šerići"],"latitude":"44.46674","longitude":"18.5637","feature_class":"P","feature_code":"PPLL","country_code":"BA","cc2":"","admin1_code":"01","admin2_code":"","admin3_code":"","admin4_code":"","population":"3663","elevation":"","dem":"221","timezone":"Europe/Sarajevo","modification_date":"2012-04-06"},{"geonameid":"3191156","name":"Šekovići","asciiname":"Sekovici","alternatenames":["Sejkovic","Sejkovici","Sekovici","Shekovichi","Shekovici","shekovu~ichi","Šejković","Šejkovići","Šekovići","Шековичи","Шековићи","シェコヴィチ"],"latitude":"44.29896","longitude":"18.85532","feature_class":"P","feature_code":"PPL","country_code":"BA","cc2":"","admin1_code":"02","admin2_code":"","admin3_code":"","admin4_code":"","population":"6315","elevation":"","dem":"340","timezone":"Europe/Sarajevo","modification_date":"2012-04-06"},{"geonameid":"3191281","name":"Sarajevo","asciiname":"Sarajevo","alternatenames":["Bosna-Sarai","Gorad Saraeva","SJJ","Saarayego","Saireavo","Sairéavó","Saraevo","Saragebo","Saragiebo","Saragievo","Saraievo","Sarajeva","Sarajevas","Sarajevo","Sarajevó","Sarajewo","Sarajèvo","Saraybosna","Sarayevo","Sarayevu","Seraium","Serayevo","Szarajevo","Szarajevó","Vrh Bosna","carayevo","sai la ye fu","salayebo","saraevo","saraevu~o","sarajyww","sarayebho","sarayevho","sarayevo","sarayewo","sarayww","sarayyfw","srayyfw","srayyww","Σαράγεβο","Σαράγιεβο","Σαραγιεβο","Горад Сараева","Сараево","Сараєво","Сарајево","Сараѥво","Սարաևո","סאראיעווא","סראייבו","ساراجیوو","ساراييفو","سارايېۋو","سارایوو","سارایێڤۆ","سرائیوو","سراييفو","सारायेव्हो","সারায়েভো","ਸਾਰਾਯੇਵੋ","சாரயேவோ","ซาราเยโว","ས་ར་ཇི་བོ།","სარაევო","ሳራዬቮ","サラエヴォ","塞拉耶佛","사라예보"],"latitude":"43.84864","longitude":"18.35644","feature_class":"P","feature_code":"PPLC","country_code":"BA","cc2":"","admin1_code":"01","admin2_code":"3343737","admin3_code":"","admin4_code":"","population":"696731","elevation":"","dem":"509","timezone":"Europe/Sarajevo","modification_date":"2012-11-15"},{"geonameid":"3191297","name":"Sanski Most","asciiname":"Sanski Most","alternatenames":["Sana","Sanski Most","Сански Мост"],"latitude":"44.7667","longitude":"16.667","feature_class":"P","feature_code":"PPL","country_code":"BA","cc2":"","admin1_code":"01","admin2_code":"","admin3_code":"","admin4_code":"","population":"13551","elevation":"","dem":"158","timezone":"Europe/Sarajevo","modification_date":"2012-02-28"},{"geonameid":"3191302","name":"Sanica","asciiname":"Sanica","alternatenames":["Pravoslavna Sanica","Sanica"],"latitude":"44.61354","longitude":"16.64062","feature_class":"P","feature_code":"PPL","country_code":"BA","cc2":"","admin1_code":"01","admin2_code":"","admin3_code":"","admin4_code":"","population":"5666","elevation":"","dem":"204","timezone":"Europe/Sarajevo","modification_date":"2012-02-28"},{"geonameid":"3191426","name":"Rumboci","asciiname":"Rumboci","alternatenames":[""],"latitude":"43.83154","longitude":"17.50273","feature_class":"P","feature_code":"PPL","country_code":"BA","cc2":"","admin1_code":"01","admin2_code":"","admin3_code":"","admin4_code":"","population":"3854","elevation":"","dem":"712","timezone":"Europe/Sarajevo","modification_date":"2012-05-06"},{"geonameid":"3191449","name":"Rudo","asciiname":"Rudo","alternatenames":["Rudo","Рудо"],"latitude":"43.61781","longitude":"19.36719","feature_class":"P","feature_code":"PPL","country_code":"BA","cc2":"","admin1_code":"02","admin2_code":"","admin3_code":"","admin4_code":"","population":"1760","elevation":"","dem":"407","timezone":"Europe/Sarajevo","modification_date":"2012-02-28"},{"geonameid":"3191576","name":"Rogatica","asciiname":"Rogatica","alternatenames":["Jelengrad","Rogatica","Rogaticja","rogatitsu~a","Рогатица","Рогатиця","ロガティツァ"],"latitude":"43.79894","longitude":"19.00363","feature_class":"P","feature_code":"PPL","country_code":"BA","cc2":"","admin1_code":"02","admin2_code":"","admin3_code":"","admin4_code":"","population":"4947","elevation":"","dem":"528","timezone":"Europe/Sarajevo","modification_date":"2012-04-06"},{"geonameid":"3191589","name":"Rodoč","asciiname":"Rodoc","alternatenames":["Rodoc","Rodoč"],"latitude":"43.31453","longitude":"17.8029","feature_class":"P","feature_code":"PPLL","country_code":"BA","cc2":"","admin1_code":"01","admin2_code":"","admin3_code":"","admin4_code":"","population":"5159","elevation":"","dem":"57","timezone":"Europe/Sarajevo","modification_date":"2013-04-04"},{"geonameid":"3192123","name":"Radišići","asciiname":"Radisici","alternatenames":["Radisici","Radišići"],"latitude":"43.22302","longitude":"17.54056","feature_class":"P","feature_code":"PPLL","country_code":"BA","cc2":"","admin1_code":"01","admin2_code":"","admin3_code":"","admin4_code":"","population":"4072","elevation":"","dem":"182","timezone":"Europe/Sarajevo","modification_date":"2012-05-06"},{"geonameid":"3192206","name":"Puračić","asciiname":"Puracic","alternatenames":["Puracic","Puračić"],"latitude":"44.54562","longitude":"18.47865","feature_class":"P","feature_code":"PPL","country_code":"BA","cc2":"","admin1_code":"01","admin2_code":"","admin3_code":"","admin4_code":"","population":"3461","elevation":"","dem":"188","timezone":"Europe/Sarajevo","modification_date":"2012-04-06"},{"geonameid":"3192236","name":"Novi Travnik","asciiname":"Novi Travnik","alternatenames":["Novi Travnik","Novi Travnikas","Pucarevo","xin te la fu ni ke","Нови Травник","新特拉夫尼克"],"latitude":"44.17133","longitude":"17.65816","feature_class":"P","feature_code":"PPL","country_code":"BA","cc2":"","admin1_code":"01","admin2_code":"","admin3_code":"","admin4_code":"","population":"10006","elevation":"","dem":"507","timezone":"Europe/Sarajevo","modification_date":"2015-01-09"},{"geonameid":"3192279","name":"Prozor","asciiname":"Prozor","alternatenames":["Prozor"],"latitude":"43.82222","longitude":"17.60917","feature_class":"P","feature_code":"PPL","country_code":"BA","cc2":"","admin1_code":"01","admin2_code":"","admin3_code":"","admin4_code":"","population":"10349","elevation":"","dem":"711","timezone":"Europe/Sarajevo","modification_date":"2012-04-06"},{"geonameid":"3192327","name":"Prnjavor","asciiname":"Prnjavor","alternatenames":[""],"latitude":"44.87021","longitude":"17.66256","feature_class":"P","feature_code":"PPL","country_code":"BA","cc2":"","admin1_code":"02","admin2_code":"","admin3_code":"","admin4_code":"","population":"7099","elevation":"","dem":"173","timezone":"Europe/Sarajevo","modification_date":"2012-05-06"},{"geonameid":"3192409","name":"Prijedor","asciiname":"Prijedor","alternatenames":["Grad Prijedor","Priedor","Priedora","Prijedor","Prijedoras","peuliyedoleu","pu li ye duo er","purii~edoru","Град Приједор","Приедор","Приедора","Прієдор","پریجیڈور","プリイェドル","普里耶多尔","프리예도르"],"latitude":"44.97991","longitude":"16.71401","feature_class":"P","feature_code":"PPL","country_code":"BA","cc2":"","admin1_code":"02","admin2_code":"","admin3_code":"","admin4_code":"","population":"36347","elevation":"","dem":"140","timezone":"Europe/Sarajevo","modification_date":"2012-02-28"},{"geonameid":"3192449","name":"Priboj","asciiname":"Priboj","alternatenames":[""],"latitude":"44.60233","longitude":"18.93165","feature_class":"P","feature_code":"PPL","country_code":"BA","cc2":"","admin1_code":"02","admin2_code":"","admin3_code":"","admin4_code":"","population":"4351","elevation":"","dem":"251","timezone":"Europe/Sarajevo","modification_date":"2012-04-06"},{"geonameid":"3192456","name":"Pribinić","asciiname":"Pribinic","alternatenames":[""],"latitude":"44.6101","longitude":"17.68981","feature_class":"P","feature_code":"PPL","country_code":"BA","cc2":"","admin1_code":"02","admin2_code":"","admin3_code":"","admin4_code":"","population":"3558","elevation":"","dem":"337","timezone":"Europe/Sarajevo","modification_date":"2012-05-06"},{"geonameid":"3192653","name":"Potoci","asciiname":"Potoci","alternatenames":[""],"latitude":"43.40953","longitude":"17.87855","feature_class":"P","feature_code":"PPLL","country_code":"BA","cc2":"","admin1_code":"01","admin2_code":"","admin3_code":"","admin4_code":"","population":"8312","elevation":"","dem":"91","timezone":"Europe/Sarajevo","modification_date":"2012-04-06"},{"geonameid":"3192718","name":"Popovi","asciiname":"Popovi","alternatenames":["Popovi"],"latitude":"44.76547","longitude":"19.28667","feature_class":"P","feature_code":"PPL","country_code":"BA","cc2":"","admin1_code":"02","admin2_code":"","admin3_code":"","admin4_code":"","population":"1145","elevation":"","dem":"91","timezone":"Europe/Sarajevo","modification_date":"2012-05-06"},{"geonameid":"3192793","name":"Polje-Bijela","asciiname":"Polje-Bijela","alternatenames":["Donje Bjela","Polje","Polje-Bijela"],"latitude":"43.63299","longitude":"17.97216","feature_class":"P","feature_code":"PPL","country_code":"BA","cc2":"","admin1_code":"01","admin2_code":"","admin3_code":"","admin4_code":"","population":"1078","elevation":"","dem":"339","timezone":"Europe/Sarajevo","modification_date":"2012-02-28"},{"geonameid":"3192878","name":"Podzvizd","asciiname":"Podzvizd","alternatenames":[""],"latitude":"45.17417","longitude":"15.87361","feature_class":"P","feature_code":"PPLL","country_code":"BA","cc2":"","admin1_code":"01","admin2_code":"","admin3_code":"","admin4_code":"","population":"6665","elevation":"","dem":"239","timezone":"Europe/Sarajevo","modification_date":"2006-01-17"},{"geonameid":"3193008","name":"Podhum","asciiname":"Podhum","alternatenames":[""],"latitude":"43.72295","longitude":"16.99887","feature_class":"P","feature_code":"PPL","country_code":"BA","cc2":"","admin1_code":"01","admin2_code":"","admin3_code":"","admin4_code":"","population":"5801","elevation":"","dem":"730","timezone":"Europe/Sarajevo","modification_date":"2012-05-06"},{"geonameid":"3193439","name":"Petkovci","asciiname":"Petkovci","alternatenames":[""],"latitude":"44.46849","longitude":"19.07466","feature_class":"P","feature_code":"PPLL","country_code":"BA","cc2":"","admin1_code":"02","admin2_code":"","admin3_code":"","admin4_code":"","population":"2212","elevation":"","dem":"257","timezone":"Europe/Sarajevo","modification_date":"2012-02-28"},{"geonameid":"3193542","name":"Pećigrad","asciiname":"Pecigrad","alternatenames":["Pecigrad","Pećigrad"],"latitude":"45.05444","longitude":"15.89694","feature_class":"P","feature_code":"PPL","country_code":"BA","cc2":"","admin1_code":"01","admin2_code":"","admin3_code":"","admin4_code":"","population":"6514","elevation":"","dem":"290","timezone":"Europe/Sarajevo","modification_date":"2012-01-19"},{"geonameid":"3193545","name":"Peći","asciiname":"Peci","alternatenames":["Peci","Peći"],"latitude":"44.63139","longitude":"16.7825","feature_class":"P","feature_code":"PPLL","country_code":"BA","cc2":"","admin1_code":"01","admin2_code":"","admin3_code":"","admin4_code":"","population":"3650","elevation":"","dem":"365","timezone":"Europe/Sarajevo","modification_date":"2012-05-06"},{"geonameid":"3193563","name":"Pazarić","asciiname":"Pazaric","alternatenames":["Pazaric","Pazarić"],"latitude":"43.78882","longitude":"18.16049","feature_class":"P","feature_code":"PPL","country_code":"BA","cc2":"","admin1_code":"01","admin2_code":"","admin3_code":"","admin4_code":"","population":"4787","elevation":"","dem":"643","timezone":"Europe/Sarajevo","modification_date":"2012-05-06"},{"geonameid":"3193692","name":"Pale","asciiname":"Pale","alternatenames":["Pale","Palė","palle","pare","Пале","パレ","팔레"],"latitude":"43.81664","longitude":"18.56949","feature_class":"P","feature_code":"PPL","country_code":"BA","cc2":"","admin1_code":"02","admin2_code":"","admin3_code":"","admin4_code":"","population":"7458","elevation":"","dem":"834","timezone":"Europe/Sarajevo","modification_date":"2012-04-06"},{"geonameid":"3193776","name":"Otoka","asciiname":"Otoka","alternatenames":["Otoka"],"latitude":"44.96","longitude":"16.17917","feature_class":"P","feature_code":"PPL","country_code":"BA","cc2":"","admin1_code":"01","admin2_code":"","admin3_code":"","admin4_code":"","population":"6595","elevation":"","dem":"141","timezone":"Europe/Sarajevo","modification_date":"2012-04-06"},{"geonameid":"3193821","name":"Ostrožac","asciiname":"Ostrozac","alternatenames":["Ostrazac","Ostražac","Ostrozac","Ostrožac"],"latitude":"44.90866","longitude":"15.94045","feature_class":"P","feature_code":"PPL","country_code":"BA","cc2":"","admin1_code":"01","admin2_code":"","admin3_code":"","admin4_code":"","population":"5456","elevation":"","dem":"385","timezone":"Europe/Sarajevo","modification_date":"2012-02-28"},{"geonameid":"3193855","name":"Oštra Luka","asciiname":"Ostra Luka","alternatenames":[""],"latitude":"44.99724","longitude":"18.58464","feature_class":"P","feature_code":"PPLL","country_code":"BA","cc2":"","admin1_code":"02","admin2_code":"","admin3_code":"","admin4_code":"","population":"3923","elevation":"","dem":"85","timezone":"Europe/Sarajevo","modification_date":"2012-04-06"},{"geonameid":"3194013","name":"Orguz","asciiname":"Orguz","alternatenames":["Orguz"],"latitude":"43.77414","longitude":"16.86329","feature_class":"P","feature_code":"PPL","country_code":"BA","cc2":"","admin1_code":"01","admin2_code":"","admin3_code":"","admin4_code":"","population":"4371","elevation":"","dem":"721","timezone":"Europe/Sarajevo","modification_date":"2012-05-06"},{"geonameid":"3194035","name":"Orašje","asciiname":"Orasje","alternatenames":["Orasje","Orašje"],"latitude":"45.03366","longitude":"18.69334","feature_class":"P","feature_code":"PPL","country_code":"BA","cc2":"","admin1_code":"01","admin2_code":"","admin3_code":"","admin4_code":"","population":"3613","elevation":"","dem":"82","timezone":"Europe/Sarajevo","modification_date":"2012-04-06"},{"geonameid":"3194041","name":"Orašac","asciiname":"Orasac","alternatenames":[""],"latitude":"44.63039","longitude":"16.07443","feature_class":"P","feature_code":"PPLL","country_code":"BA","cc2":"","admin1_code":"01","admin2_code":"","admin3_code":"","admin4_code":"","population":"3856","elevation":"","dem":"324","timezone":"Europe/Sarajevo","modification_date":"2012-02-28"},{"geonameid":"3194061","name":"Orahovica Donja","asciiname":"Orahovica Donja","alternatenames":["Donja Orahovica","Orahovica Donja"],"latitude":"44.65345","longitude":"18.36951","feature_class":"P","feature_code":"PPL","country_code":"BA","cc2":"","admin1_code":"01","admin2_code":"","admin3_code":"","admin4_code":"","population":"5612","elevation":"","dem":"195","timezone":"Europe/Sarajevo","modification_date":"2012-04-06"},{"geonameid":"3194120","name":"Omarska","asciiname":"Omarska","alternatenames":["Omarska","Омарска"],"latitude":"44.8917","longitude":"16.89814","feature_class":"P","feature_code":"PPL","country_code":"BA","cc2":"","admin1_code":"02","admin2_code":"","admin3_code":"","admin4_code":"","population":"6466","elevation":"","dem":"163","timezone":"Europe/Sarajevo","modification_date":"2012-05-06"},{"geonameid":"3194133","name":"Olovo","asciiname":"Olovo","alternatenames":["Olovo","Олово"],"latitude":"44.1277","longitude":"18.58065","feature_class":"P","feature_code":"PPL","country_code":"BA","cc2":"","admin1_code":"01","admin2_code":"","admin3_code":"","admin4_code":"","population":"3305","elevation":"","dem":"538","timezone":"Europe/Sarajevo","modification_date":"2012-04-06"},{"geonameid":"3194199","name":"Odžak","asciiname":"Odzak","alternatenames":["Odzak","Odžak","Vukosavlje"],"latitude":"45.01038","longitude":"18.32719","feature_class":"P","feature_code":"PPL","country_code":"BA","cc2":"","admin1_code":"01","admin2_code":"","admin3_code":"","admin4_code":"","population":"11621","elevation":"","dem":"96","timezone":"Europe/Sarajevo","modification_date":"2012-04-06"},{"geonameid":"3194231","name":"Obudovac","asciiname":"Obudovac","alternatenames":[""],"latitude":"44.95215","longitude":"18.59869","feature_class":"P","feature_code":"PPLL","country_code":"BA","cc2":"","admin1_code":"02","admin2_code":"","admin3_code":"","admin4_code":"","population":"2171","elevation":"","dem":"88","timezone":"Europe/Sarajevo","modification_date":"2012-04-06"},{"geonameid":"3194358","name":"Novi Šeher","asciiname":"Novi Seher","alternatenames":["Novi Seher","Novi Šeher"],"latitude":"44.51031","longitude":"18.02624","feature_class":"P","feature_code":"PPL","country_code":"BA","cc2":"","admin1_code":"01","admin2_code":"","admin3_code":"","admin4_code":"","population":"4416","elevation":"","dem":"237","timezone":"Europe/Sarajevo","modification_date":"2012-05-06"},{"geonameid":"3194510","name":"Nevesinje","asciiname":"Nevesinje","alternatenames":["Nevesinje"],"latitude":"43.25861","longitude":"18.11333","feature_class":"P","feature_code":"PPL","country_code":"BA","cc2":"","admin1_code":"02","admin2_code":"","admin3_code":"","admin4_code":"","population":"7313","elevation":"","dem":"891","timezone":"Europe/Sarajevo","modification_date":"2012-02-28"},{"geonameid":"3194514","name":"Neum","asciiname":"Neum","alternatenames":["Neum","Portus Noumensis","ne-um","neumu","nie mu","Неум","נאום","ネウム","涅姆","네움"],"latitude":"42.92333","longitude":"17.61556","feature_class":"P","feature_code":"PPL","country_code":"BA","cc2":"","admin1_code":"01","admin2_code":"3343740","admin3_code":"","admin4_code":"","population":"4200","elevation":"","dem":"70","timezone":"Europe/Sarajevo","modification_date":"2013-01-17"},{"geonameid":"3194724","name":"Mrkonjić Grad","asciiname":"Mrkonjic Grad","alternatenames":["Mrkonic Grad","Mrkonich-Grad","Mrkonjic Grad","Mrkonjić Grad","Murkonich grad","Varcar Vakuf","mrqwnyyz grʼd","Мрконич-Град","Мркоњић Град","Мърконич град","מרקונייץ גראד","ムルコニチ・グラード"],"latitude":"44.41729","longitude":"17.08288","feature_class":"P","feature_code":"PPL","country_code":"BA","cc2":"","admin1_code":"02","admin2_code":"","admin3_code":"","admin4_code":"","population":"14737","elevation":"","dem":"575","timezone":"Europe/Sarajevo","modification_date":"2012-05-06"},{"geonameid":"3194773","name":"Mramor","asciiname":"Mramor","alternatenames":[""],"latitude":"44.59234","longitude":"18.56458","feature_class":"P","feature_code":"PPL","country_code":"BA","cc2":"","admin1_code":"01","admin2_code":"","admin3_code":"","admin4_code":"","population":"3918","elevation":"","dem":"250","timezone":"Europe/Sarajevo","modification_date":"2012-04-06"},{"geonameid":"3194828","name":"Mostar","asciiname":"Mostar","alternatenames":["Mandetrium","Mostar","Mostara","Mostaras","Mostari","OMO","mo si ta er","moseutaleu","mosutaru","mwstar","mwstr","Μόσταρ","Мостар","מוסטר","موستار","モスタル","莫斯塔爾","모스타르"],"latitude":"43.34333","longitude":"17.80806","feature_class":"P","feature_code":"PPL","country_code":"BA","cc2":"","admin1_code":"01","admin2_code":"3343740","admin3_code":"","admin4_code":"","population":"104518","elevation":"","dem":"66","timezone":"Europe/Sarajevo","modification_date":"2012-11-27"},{"geonameid":"3195066","name":"Mionica","asciiname":"Mionica","alternatenames":["Donja Mionica","Mionica","Mionica Donja"],"latitude":"44.86646","longitude":"18.46603","feature_class":"P","feature_code":"PPLL","country_code":"BA","cc2":"","admin1_code":"01","admin2_code":"","admin3_code":"","admin4_code":"","population":"8701","elevation":"","dem":"193","timezone":"Europe/Sarajevo","modification_date":"2012-04-06"},{"geonameid":"3195128","name":"Milići","asciiname":"Milici","alternatenames":["Milici","Milići"],"latitude":"44.17016","longitude":"19.09195","feature_class":"P","feature_code":"PPLL","country_code":"BA","cc2":"","admin1_code":"02","admin2_code":"","admin3_code":"","admin4_code":"","population":"8210","elevation":"","dem":"426","timezone":"Europe/Sarajevo","modification_date":"2012-02-28"},{"geonameid":"3195399","name":"Maslovare","asciiname":"Maslovare","alternatenames":["Maslovare","Mastovare"],"latitude":"44.56594","longitude":"17.53216","feature_class":"P","feature_code":"PPL","country_code":"BA","cc2":"","admin1_code":"02","admin2_code":"","admin3_code":"","admin4_code":"","population":"4899","elevation":"","dem":"401","timezone":"Europe/Sarajevo","modification_date":"2012-05-06"},{"geonameid":"3195500","name":"Marićka","asciiname":"Maricka","alternatenames":[""],"latitude":"44.86801","longitude":"16.8551","feature_class":"P","feature_code":"PPLL","country_code":"BA","cc2":"","admin1_code":"02","admin2_code":"","admin3_code":"","admin4_code":"","population":"3707","elevation":"","dem":"152","timezone":"Europe/Sarajevo","modification_date":"2012-05-06"},{"geonameid":"3195839","name":"Mala Kladuša","asciiname":"Mala Kladusa","alternatenames":[""],"latitude":"45.13443","longitude":"15.85217","feature_class":"P","feature_code":"PPLL","country_code":"BA","cc2":"","admin1_code":"01","admin2_code":"","admin3_code":"","admin4_code":"","population":"6033","elevation":"","dem":"161","timezone":"Europe/Sarajevo","modification_date":"2012-02-28"},{"geonameid":"3195930","name":"Mahala","asciiname":"Mahala","alternatenames":["Mahala"],"latitude":"44.01194","longitude":"18.25528","feature_class":"P","feature_code":"PPL","country_code":"BA","cc2":"","admin1_code":"01","admin2_code":"","admin3_code":"","admin4_code":"","population":"5062","elevation":"","dem":"485","timezone":"Europe/Sarajevo","modification_date":"2012-01-19"},{"geonameid":"3195945","name":"Maglajani","asciiname":"Maglajani","alternatenames":["Bosanski Aleksandrovac","Maglajani"],"latitude":"44.94975","longitude":"17.35014","feature_class":"P","feature_code":"PPLL","country_code":"BA","cc2":"","admin1_code":"02","admin2_code":"","admin3_code":"","admin4_code":"","population":"4221","elevation":"","dem":"112","timezone":"Europe/Sarajevo","modification_date":"2012-05-06"},{"geonameid":"3195946","name":"Maglaj","asciiname":"Maglaj","alternatenames":["Maglaj","Maglajus","Маглај"],"latitude":"44.54771","longitude":"18.10003","feature_class":"P","feature_code":"PPL","country_code":"BA","cc2":"","admin1_code":"01","admin2_code":"","admin3_code":"","admin4_code":"","population":"7399","elevation":"","dem":"177","timezone":"Europe/Sarajevo","modification_date":"2012-05-06"},{"geonameid":"3196066","name":"Lukavica","asciiname":"Lukavica","alternatenames":["Lukavica"],"latitude":"44.76452","longitude":"18.16887","feature_class":"P","feature_code":"PPLL","country_code":"BA","cc2":"","admin1_code":"01","admin2_code":"","admin3_code":"","admin4_code":"","population":"4084","elevation":"","dem":"205","timezone":"Europe/Sarajevo","modification_date":"2012-05-06"},{"geonameid":"3196209","name":"Lopare","asciiname":"Lopare","alternatenames":["Lopare","Лопаре"],"latitude":"44.63498","longitude":"18.8434","feature_class":"P","feature_code":"PPL","country_code":"BA","cc2":"","admin1_code":"02","admin2_code":"","admin3_code":"","admin4_code":"","population":"3614","elevation":"","dem":"231","timezone":"Europe/Sarajevo","modification_date":"2012-04-06"},{"geonameid":"3196243","name":"Lokvine","asciiname":"Lokvine","alternatenames":["Lokrine","Lokvine"],"latitude":"44.20466","longitude":"17.85665","feature_class":"P","feature_code":"PPL","country_code":"BA","cc2":"","admin1_code":"01","admin2_code":"","admin3_code":"","admin4_code":"","population":"3928","elevation":"","dem":"399","timezone":"Europe/Sarajevo","modification_date":"2012-05-06"},{"geonameid":"3196324","name":"Ljubuški","asciiname":"Ljubuski","alternatenames":["Liubuskai","Liubuškai","Ljubushki","Ljubuski","Ljubuški","liu bu shen ji","Љубушки","Любушки","柳布什基"],"latitude":"43.19694","longitude":"17.545","feature_class":"P","feature_code":"PPL","country_code":"BA","cc2":"","admin1_code":"01","admin2_code":"","admin3_code":"","admin4_code":"","population":"9987","elevation":"","dem":"95","timezone":"Europe/Sarajevo","modification_date":"2012-01-19"},{"geonameid":"3196364","name":"Ljubinje","asciiname":"Ljubinje","alternatenames":["Ljubine","Ljubinje","Љубиње"],"latitude":"42.9512","longitude":"18.08702","feature_class":"P","feature_code":"PPL","country_code":"BA","cc2":"","admin1_code":"02","admin2_code":"","admin3_code":"","admin4_code":"","population":"4235","elevation":"","dem":"406","timezone":"Europe/Sarajevo","modification_date":"2012-04-06"},{"geonameid":"3196410","name":"Livno","asciiname":"Livno","alternatenames":["Cleuna","Livnas","Livno","li fu nuo","libeuno","livno","rivuno","Ливно","Лівно","リヴノ","利夫諾","리브노"],"latitude":"43.82695","longitude":"17.00746","feature_class":"P","feature_code":"PPL","country_code":"BA","cc2":"","admin1_code":"01","admin2_code":"","admin3_code":"","admin4_code":"","population":"11748","elevation":"","dem":"745","timezone":"Europe/Sarajevo","modification_date":"2012-05-06"},{"geonameid":"3196428","name":"Široki Brijeg","asciiname":"Siroki Brijeg","alternatenames":["Collis Amplus","Listica","Lištica","Shiroki Brieg","Shiroki Brijeg","Siroki Brijeg","Siroki Brijegas","silokibeuliyegeu","Široki Brijeg","Široki Brijegas","Широки Бриег","Широки Бријег","Широкі Брієг","シロキ・ブリイェグ","시로키브리예그"],"latitude":"43.3829","longitude":"17.59416","feature_class":"P","feature_code":"PPL","country_code":"BA","cc2":"","admin1_code":"01","admin2_code":"","admin3_code":"","admin4_code":"","population":"9370","elevation":"","dem":"281","timezone":"Europe/Sarajevo","modification_date":"2012-05-06"},{"geonameid":"3196792","name":"Laktaši","asciiname":"Laktasi","alternatenames":["Banja Laktasi","Banja Laktaši","Laktasai","Laktashi","Laktasi","Laktasi Ilidza","Laktašai","Laktaši","Laktaši Ilidža","la ke ta xi","Лакташи","拉克塔希"],"latitude":"44.90857","longitude":"17.30135","feature_class":"P","feature_code":"PPL","country_code":"BA","cc2":"","admin1_code":"02","admin2_code":"","admin3_code":"","admin4_code":"","population":"6464","elevation":"","dem":"124","timezone":"Europe/Sarajevo","modification_date":"2012-05-06"},{"geonameid":"3197532","name":"Kotor-Varoš","asciiname":"Kotor-Varos","alternatenames":[""],"latitude":"44.61831","longitude":"17.37204","feature_class":"P","feature_code":"PPL","country_code":"BA","cc2":"","admin1_code":"02","admin2_code":"","admin3_code":"","admin4_code":"","population":"5068","elevation":"","dem":"281","timezone":"Europe/Sarajevo","modification_date":"2012-05-06"},{"geonameid":"3197944","name":"Kočerin","asciiname":"Kocerin","alternatenames":["Kocerin","Kočerin"],"latitude":"43.39005","longitude":"17.48552","feature_class":"P","feature_code":"PPL","country_code":"BA","cc2":"","admin1_code":"01","admin2_code":"","admin3_code":"","admin4_code":"","population":"3516","elevation":"","dem":"322","timezone":"Europe/Sarajevo","modification_date":"2012-05-06"},{"geonameid":"3197964","name":"Kobilja Glava","asciiname":"Kobilja Glava","alternatenames":["Kobilja Glava"],"latitude":"43.88188","longitude":"18.38864","feature_class":"P","feature_code":"PPL","country_code":"BA","cc2":"","admin1_code":"01","admin2_code":"","admin3_code":"","admin4_code":"","population":"3666","elevation":"","dem":"605","timezone":"Europe/Sarajevo","modification_date":"2012-04-06"},{"geonameid":"3198050","name":"Ključ","asciiname":"Kljuc","alternatenames":["Kljuc","Ključ","Kluch","kuryuchi","Кључ","クリュチ"],"latitude":"44.53251","longitude":"16.77682","feature_class":"P","feature_code":"PPL","country_code":"BA","cc2":"","admin1_code":"01","admin2_code":"","admin3_code":"","admin4_code":"","population":"7245","elevation":"","dem":"258","timezone":"Europe/Sarajevo","modification_date":"2012-05-06"},{"geonameid":"3198126","name":"Kladanj","asciiname":"Kladanj","alternatenames":["Kladan'","Kladanj","Opshtina Kladan","kuradani","Кладань","Општина Кладањ","クラダニ"],"latitude":"44.22669","longitude":"18.69274","feature_class":"P","feature_code":"PPL","country_code":"BA","cc2":"","admin1_code":"01","admin2_code":"","admin3_code":"","admin4_code":"","population":"6783","elevation":"","dem":"572","timezone":"Europe/Sarajevo","modification_date":"2012-04-06"},{"geonameid":"3198137","name":"Kiseljak","asciiname":"Kiseljak","alternatenames":["Kiseljak"],"latitude":"44.48904","longitude":"18.56982","feature_class":"P","feature_code":"PPL","country_code":"BA","cc2":"","admin1_code":"01","admin2_code":"","admin3_code":"","admin4_code":"","population":"3447","elevation":"","dem":"210","timezone":"Europe/Sarajevo","modification_date":"2012-04-06"},{"geonameid":"3198138","name":"Kiseljak","asciiname":"Kiseljak","alternatenames":["Kiselak","Kiseliakas","Kiseljak","ji sai er ya ke","kiseryaku","Кисељак","キセリャク","基塞爾雅克"],"latitude":"43.94295","longitude":"18.08132","feature_class":"P","feature_code":"PPL","country_code":"BA","cc2":"","admin1_code":"01","admin2_code":"","admin3_code":"","admin4_code":"","population":"8475","elevation":"","dem":"471","timezone":"Europe/Sarajevo","modification_date":"2012-05-06"},{"geonameid":"3198293","name":"Karadaglije","asciiname":"Karadaglije","alternatenames":[""],"latitude":"44.57065","longitude":"18.01775","feature_class":"P","feature_code":"PPL","country_code":"BA","cc2":"","admin1_code":"01","admin2_code":"","admin3_code":"","admin4_code":"","population":"3700","elevation":"","dem":"276","timezone":"Europe/Sarajevo","modification_date":"2012-05-06"},{"geonameid":"3198462","name":"Kalenderovci Donji","asciiname":"Kalenderovci Donji","alternatenames":["Kalenderovci Donji"],"latitude":"44.94673","longitude":"17.83785","feature_class":"P","feature_code":"PPL","country_code":"BA","cc2":"","admin1_code":"02","admin2_code":"","admin3_code":"","admin4_code":"","population":"5890","elevation":"","dem":"168","timezone":"Europe/Sarajevo","modification_date":"2012-05-06"},{"geonameid":"3198490","name":"Kakanj","asciiname":"Kakanj","alternatenames":["Kakan","Kakanis","Kakanj","ka ka ni","Какањ","卡卡尼"],"latitude":"44.13311","longitude":"18.12292","feature_class":"P","feature_code":"PPL","country_code":"BA","cc2":"","admin1_code":"01","admin2_code":"","admin3_code":"","admin4_code":"","population":"12406","elevation":"","dem":"399","timezone":"Europe/Sarajevo","modification_date":"2012-10-07"},{"geonameid":"3198618","name":"Jezerski","asciiname":"Jezerski","alternatenames":["Jezerski","Jezersko"],"latitude":"44.98172","longitude":"16.09447","feature_class":"P","feature_code":"PPLL","country_code":"BA","cc2":"","admin1_code":"01","admin2_code":"","admin3_code":"","admin4_code":"","population":"4361","elevation":"","dem":"282","timezone":"Europe/Sarajevo","modification_date":"2012-02-28"},{"geonameid":"3198895","name":"Janja","asciiname":"Janja","alternatenames":["Janja"],"latitude":"44.66554","longitude":"19.24691","feature_class":"P","feature_code":"PPL","country_code":"BA","cc2":"","admin1_code":"02","admin2_code":"","admin3_code":"","admin4_code":"","population":"5544","elevation":"","dem":"105","timezone":"Europe/Sarajevo","modification_date":"2012-04-06"},{"geonameid":"3198934","name":"Jajce","asciiname":"Jajce","alternatenames":["Gorad Jajceh","Iaicia","Jaice","Jaicė","Jajca","Jajce","ya yi cai","yaiche","yaitsu~e","Јајце","Горад Яйцэ","Яйце","יאיצה","ヤイツェ","亞伊采","야이체"],"latitude":"44.34203","longitude":"17.27059","feature_class":"P","feature_code":"PPL","country_code":"BA","cc2":"","admin1_code":"01","admin2_code":"","admin3_code":"","admin4_code":"","population":"9763","elevation":"","dem":"388","timezone":"Europe/Sarajevo","modification_date":"2012-05-06"},{"geonameid":"3199027","name":"Izačić","asciiname":"Izacic","alternatenames":["Izacic","Izacic Grad","Izačić","Izačić Grad"],"latitude":"44.87485","longitude":"15.78256","feature_class":"P","feature_code":"PPL","country_code":"BA","cc2":"","admin1_code":"01","admin2_code":"","admin3_code":"","admin4_code":"","population":"4089","elevation":"","dem":"329","timezone":"Europe/Sarajevo","modification_date":"2012-02-28"},{"geonameid":"3199142","name":"Ilijaš","asciiname":"Ilijas","alternatenames":["Ilias","Iliaš","Ilijas","Ilijash","Ilijaš","iriyashu","Илијаш","イリヤシュ"],"latitude":"43.95128","longitude":"18.27128","feature_class":"P","feature_code":"PPL","country_code":"BA","cc2":"","admin1_code":"01","admin2_code":"","admin3_code":"","admin4_code":"","population":"5855","elevation":"","dem":"463","timezone":"Europe/Sarajevo","modification_date":"2012-04-06"},{"geonameid":"3199417","name":"Han Pijesak","asciiname":"Han Pijesak","alternatenames":["Han Pijesak"],"latitude":"44.08161","longitude":"18.95258","feature_class":"P","feature_code":"PPL","country_code":"BA","cc2":"","admin1_code":"02","admin2_code":"","admin3_code":"","admin4_code":"","population":"4206","elevation":"","dem":"1086","timezone":"Europe/Sarajevo","modification_date":"2012-04-06"},{"geonameid":"3199438","name":"Hadžići","asciiname":"Hadzici","alternatenames":["Hadzici","Hadziciai","Hadžići","Hadžičiai","Khadzici","hajichi","Хаџићи","ハジチ"],"latitude":"43.82222","longitude":"18.20667","feature_class":"P","feature_code":"PPL","country_code":"BA","cc2":"","admin1_code":"01","admin2_code":"","admin3_code":"","admin4_code":"","population":"7173","elevation":"","dem":"555","timezone":"Europe/Sarajevo","modification_date":"2012-01-19"},{"geonameid":"3199509","name":"Grude","asciiname":"Grude","alternatenames":["Grude"],"latitude":"43.38356","longitude":"17.39506","feature_class":"P","feature_code":"PPLL","country_code":"BA","cc2":"","admin1_code":"01","admin2_code":"","admin3_code":"","admin4_code":"","population":"4627","elevation":"","dem":"377","timezone":"Europe/Sarajevo","modification_date":"2012-05-06"},{"geonameid":"3199525","name":"Gromiljak","asciiname":"Gromiljak","alternatenames":["Gromiljak"],"latitude":"43.96668","longitude":"18.05504","feature_class":"P","feature_code":"PPL","country_code":"BA","cc2":"","admin1_code":"01","admin2_code":"","admin3_code":"","admin4_code":"","population":"6457","elevation":"","dem":"481","timezone":"Europe/Sarajevo","modification_date":"2012-05-06"},{"geonameid":"3199744","name":"Gradačac","asciiname":"Gradacac","alternatenames":["Gradacac","Gradacacas","Gradachac","Gradačac","Gradačacas","ge la da cha ci","guradachatsu","Градачац","グラダチャツ","格拉達查茨"],"latitude":"44.87851","longitude":"18.42764","feature_class":"P","feature_code":"PPL","country_code":"BA","cc2":"","admin1_code":"01","admin2_code":"","admin3_code":"","admin4_code":"","population":"15659","elevation":"","dem":"139","timezone":"Europe/Sarajevo","modification_date":"2012-04-06"},{"geonameid":"3199779","name":"Gračanica","asciiname":"Gracanica","alternatenames":["Gracanica","Gračanica"],"latitude":"44.70307","longitude":"18.3101","feature_class":"P","feature_code":"PPL","country_code":"BA","cc2":"","admin1_code":"01","admin2_code":"","admin3_code":"","admin4_code":"","population":"15758","elevation":"","dem":"188","timezone":"Europe/Sarajevo","modification_date":"2012-04-06"},{"geonameid":"3199784","name":"Gračanica","asciiname":"Gracanica","alternatenames":[""],"latitude":"43.73333","longitude":"18.28333","feature_class":"P","feature_code":"PPL","country_code":"BA","cc2":"","admin1_code":"01","admin2_code":"","admin3_code":"","admin4_code":"","population":"3871","elevation":"","dem":"1173","timezone":"Europe/Sarajevo","modification_date":"2007-05-30"},{"geonameid":"3199862","name":"Gostovići","asciiname":"Gostovici","alternatenames":["Gostovic","Gostovici","Gostović","Gostovići"],"latitude":"44.41124","longitude":"18.17029","feature_class":"P","feature_code":"PPLL","country_code":"BA","cc2":"","admin1_code":"01","admin2_code":"","admin3_code":"","admin4_code":"","population":"5802","elevation":"","dem":"338","timezone":"Europe/Sarajevo","modification_date":"2012-05-06"},{"geonameid":"3199904","name":"Gornji Vakuf","asciiname":"Gornji Vakuf","alternatenames":["Gornji Vakuf","Uskoplje","Vakuf Gornji"],"latitude":"43.93806","longitude":"17.58833","feature_class":"P","feature_code":"PPL","country_code":"BA","cc2":"","admin1_code":"01","admin2_code":"","admin3_code":"","admin4_code":"","population":"7014","elevation":"","dem":"671","timezone":"Europe/Sarajevo","modification_date":"2012-01-19"},{"geonameid":"3200059","name":"Gornje Živinice","asciiname":"Gornje Zivinice","alternatenames":["Gornje Zivinice","Gornje Živinice","Muslimanske Zivinice","Muslimanske Živinice","Zivinice Gornje","Živinice Gornje"],"latitude":"44.42921","longitude":"18.61667","feature_class":"P","feature_code":"PPLL","country_code":"BA","cc2":"","admin1_code":"01","admin2_code":"","admin3_code":"","admin4_code":"","population":"4661","elevation":"","dem":"285","timezone":"Europe/Sarajevo","modification_date":"2012-04-06"},{"geonameid":"3200108","name":"Gornje Moštre","asciiname":"Gornje Mostre","alternatenames":["Gornje Mostre","Gornje Moštre","Mostre Gornje","Moštre Gornje"],"latitude":"44.01911","longitude":"18.15477","feature_class":"P","feature_code":"PPL","country_code":"BA","cc2":"","admin1_code":"01","admin2_code":"","admin3_code":"","admin4_code":"","population":"4009","elevation":"","dem":"410","timezone":"Europe/Sarajevo","modification_date":"2012-10-07"},{"geonameid":"3200167","name":"Gornja Tuzla","asciiname":"Gornja Tuzla","alternatenames":[""],"latitude":"44.55659","longitude":"18.76159","feature_class":"P","feature_code":"PPL","country_code":"BA","cc2":"","admin1_code":"01","admin2_code":"","admin3_code":"","admin4_code":"","population":"4864","elevation":"","dem":"322","timezone":"Europe/Sarajevo","modification_date":"2012-04-06"},{"geonameid":"3200245","name":"Gornja Koprivna","asciiname":"Gornja Koprivna","alternatenames":["Gornja Koprivna"],"latitude":"45.01091","longitude":"15.95487","feature_class":"P","feature_code":"PPLL","country_code":"BA","cc2":"","admin1_code":"01","admin2_code":"","admin3_code":"","admin4_code":"","population":"4600","elevation":"","dem":"408","timezone":"Europe/Sarajevo","modification_date":"2013-04-04"},{"geonameid":"3200396","name":"Goražde","asciiname":"Gorazde","alternatenames":["Gorajde","Gorazde","Gorazhda","Gorazhde","Goražde","Goraždė","ge la ri dai","golajude","gorajude","grazhdh","Горажде","گراژده","ゴラジュデ","戈拉日代","고라주데"],"latitude":"43.66795","longitude":"18.97564","feature_class":"P","feature_code":"PPL","country_code":"BA","cc2":"","admin1_code":"01","admin2_code":"","admin3_code":"","admin4_code":"","population":"17650","elevation":"","dem":"348","timezone":"Europe/Sarajevo","modification_date":"2012-04-06"},{"geonameid":"3200538","name":"Gnojnica","asciiname":"Gnojnica","alternatenames":[""],"latitude":"44.62058","longitude":"18.44684","feature_class":"P","feature_code":"PPL","country_code":"BA","cc2":"","admin1_code":"01","admin2_code":"","admin3_code":"","admin4_code":"","population":"3985","elevation":"","dem":"238","timezone":"Europe/Sarajevo","modification_date":"2012-04-06"},{"geonameid":"3200651","name":"Glamoč","asciiname":"Glamoc","alternatenames":["Glamoc","Glamoch","Glamoč","Гламоч"],"latitude":"44.04583","longitude":"16.84861","feature_class":"P","feature_code":"PPL","country_code":"BA","cc2":"","admin1_code":"01","admin2_code":"","admin3_code":"","admin4_code":"","population":"4016","elevation":"","dem":"950","timezone":"Europe/Sarajevo","modification_date":"2012-01-19"},{"geonameid":"3200768","name":"Gacko","asciiname":"Gacko","alternatenames":["Gackas","Gacko","gatsuko","Гацко","ガツコ"],"latitude":"43.16722","longitude":"18.53528","feature_class":"P","feature_code":"PPL","country_code":"BA","cc2":"","admin1_code":"02","admin2_code":"","admin3_code":"","admin4_code":"","population":"3417","elevation":"","dem":"970","timezone":"Europe/Sarajevo","modification_date":"2012-01-19"},{"geonameid":"3200829","name":"Fojnica","asciiname":"Fojnica","alternatenames":["Fojnica","fwynchh","فوینچه"],"latitude":"43.95952","longitude":"17.90288","feature_class":"P","feature_code":"PPL","country_code":"BA","cc2":"","admin1_code":"01","admin2_code":"","admin3_code":"","admin4_code":"","population":"8244","elevation":"","dem":"578","timezone":"Europe/Sarajevo","modification_date":"2012-05-06"},{"geonameid":"3200837","name":"Foča","asciiname":"Foca","alternatenames":["Foca","Focha","Foça","Foča","Srbinje","focha","fu cha","pocha","Фоча","フォチャ","福查","포차"],"latitude":"43.50646","longitude":"18.77854","feature_class":"P","feature_code":"PPL","country_code":"BA","cc2":"","admin1_code":"02","admin2_code":"","admin3_code":"","admin4_code":"","population":"14615","elevation":"","dem":"393","timezone":"Europe/Sarajevo","modification_date":"2012-04-06"},{"geonameid":"3200930","name":"Tomislavgrad","asciiname":"Tomislavgrad","alternatenames":["Duvno","Tomislavgrad","Zupanjac","Županjac","Томиславград","Томіславград"],"latitude":"43.71849","longitude":"17.22515","feature_class":"P","feature_code":"PPL","country_code":"BA","cc2":"","admin1_code":"01","admin2_code":"","admin3_code":"","admin4_code":"","population":"7737","elevation":"","dem":"904","timezone":"Europe/Sarajevo","modification_date":"2012-05-06"},{"geonameid":"3201057","name":"Dubravica","asciiname":"Dubravica","alternatenames":[""],"latitude":"44.44131","longitude":"18.11883","feature_class":"P","feature_code":"PPL","country_code":"BA","cc2":"","admin1_code":"01","admin2_code":"","admin3_code":"","admin4_code":"","population":"3868","elevation":"","dem":"381","timezone":"Europe/Sarajevo","modification_date":"2012-05-06"},{"geonameid":"3201060","name":"Dubrave Gornje","asciiname":"Dubrave Gornje","alternatenames":["Dubrave Gornje","Gornje Dubrave"],"latitude":"44.47229","longitude":"18.72685","feature_class":"P","feature_code":"PPL","country_code":"BA","cc2":"","admin1_code":"01","admin2_code":"","admin3_code":"","admin4_code":"","population":"4821","elevation":"","dem":"287","timezone":"Europe/Sarajevo","modification_date":"2012-04-06"},{"geonameid":"3201061","name":"Dubrave Donje","asciiname":"Dubrave Donje","alternatenames":["Donje Dubrave","Dubrave Donje"],"latitude":"44.4806","longitude":"18.69709","feature_class":"P","feature_code":"PPL","country_code":"BA","cc2":"","admin1_code":"01","admin2_code":"","admin3_code":"","admin4_code":"","population":"3811","elevation":"","dem":"295","timezone":"Europe/Sarajevo","modification_date":"2012-04-06"},{"geonameid":"3201177","name":"Drinovci","asciiname":"Drinovci","alternatenames":["Drinovci"],"latitude":"43.35454","longitude":"17.32536","feature_class":"P","feature_code":"PPLL","country_code":"BA","cc2":"","admin1_code":"01","admin2_code":"","admin3_code":"","admin4_code":"","population":"3791","elevation":"","dem":"308","timezone":"Europe/Sarajevo","modification_date":"2012-05-06"},{"geonameid":"3201376","name":"Donji Vakuf","asciiname":"Donji Vakuf","alternatenames":["Don'i-Vakuf","Doni Vakuf","Donji Vakuf","Srbobran","Доньи-Вакуф","Доњи Вакуф","ドニ・ヴァクフ"],"latitude":"44.14361","longitude":"17.4","feature_class":"P","feature_code":"PPL","country_code":"BA","cc2":"","admin1_code":"01","admin2_code":"","admin3_code":"","admin4_code":"","population":"7955","elevation":"","dem":"515","timezone":"Europe/Sarajevo","modification_date":"2012-01-19"},{"geonameid":"3201660","name":"Donja Međiđa","asciiname":"Donja Medida","alternatenames":["Donja Mededa","Donja Medida","Donja Medjedja","Donja Medjidja","Donja Međeđa","Donja Međiđa"],"latitude":"44.80235","longitude":"18.40477","feature_class":"P","feature_code":"PPL","country_code":"BA","cc2":"","admin1_code":"01","admin2_code":"","admin3_code":"","admin4_code":"","population":"3782","elevation":"","dem":"208","timezone":"Europe/Sarajevo","modification_date":"2012-04-06"},{"geonameid":"3201662","name":"Donja Mahala","asciiname":"Donja Mahala","alternatenames":["Donja Mahala"],"latitude":"45.04327","longitude":"18.66996","feature_class":"P","feature_code":"PPL","country_code":"BA","cc2":"","admin1_code":"01","admin2_code":"","admin3_code":"","admin4_code":"","population":"5565","elevation":"","dem":"84","timezone":"Europe/Sarajevo","modification_date":"2013-04-04"},{"geonameid":"3201697","name":"Donja Dubica","asciiname":"Donja Dubica","alternatenames":[""],"latitude":"45.07559","longitude":"18.41023","feature_class":"P","feature_code":"PPL","country_code":"BA","cc2":"","admin1_code":"01","admin2_code":"","admin3_code":"","admin4_code":"","population":"3489","elevation":"","dem":"85","timezone":"Europe/Sarajevo","modification_date":"2012-04-06"},{"geonameid":"3201928","name":"Dobrljin","asciiname":"Dobrljin","alternatenames":["Dobrlin","Dobrljin"],"latitude":"45.15106","longitude":"16.47869","feature_class":"P","feature_code":"PPL","country_code":"BA","cc2":"","admin1_code":"02","admin2_code":"","admin3_code":"","admin4_code":"","population":"3582","elevation":"","dem":"121","timezone":"Europe/Sarajevo","modification_date":"2012-02-28"},{"geonameid":"3201931","name":"Dobrinje","asciiname":"Dobrinje","alternatenames":[""],"latitude":"44.05008","longitude":"18.11958","feature_class":"P","feature_code":"PPL","country_code":"BA","cc2":"","admin1_code":"01","admin2_code":"","admin3_code":"","admin4_code":"","population":"3987","elevation":"","dem":"425","timezone":"Europe/Sarajevo","modification_date":"2012-10-07"},{"geonameid":"3201984","name":"Doboj","asciiname":"Doboj","alternatenames":["Doboj","Dobojus","doboi","duo bo yi","dwbwj","Добой","Добој","دوبوج","ドボイ","多博伊","도보이"],"latitude":"44.73179","longitude":"18.08698","feature_class":"P","feature_code":"PPL","country_code":"BA","cc2":"","admin1_code":"02","admin2_code":"","admin3_code":"","admin4_code":"","population":"27235","elevation":"","dem":"144","timezone":"Europe/Sarajevo","modification_date":"2012-05-06"},{"geonameid":"3202014","name":"Divičani","asciiname":"Divicani","alternatenames":["Divicani","Divičani"],"latitude":"44.36682","longitude":"17.32678","feature_class":"P","feature_code":"PPL","country_code":"BA","cc2":"","admin1_code":"01","admin2_code":"","admin3_code":"","admin4_code":"","population":"7251","elevation":"","dem":"567","timezone":"Europe/Sarajevo","modification_date":"2012-05-06"},{"geonameid":"3202081","name":"Derventa","asciiname":"Derventa","alternatenames":["Derbend","Dervent","Derventa","dai er wen ta","deruvu~enta","drbnd","Дервента","دربند","デルヴェンタ","代爾文塔"],"latitude":"44.97839","longitude":"17.90779","feature_class":"P","feature_code":"PPL","country_code":"BA","cc2":"","admin1_code":"02","admin2_code":"","admin3_code":"","admin4_code":"","population":"9773","elevation":"","dem":"143","timezone":"Europe/Sarajevo","modification_date":"2012-05-06"},{"geonameid":"3202564","name":"Čitluk","asciiname":"Citluk","alternatenames":["Citluk","Citlukas","Opshtina Chitluk","Čitluk","Čitlukas","Општина Читлук"],"latitude":"43.22861","longitude":"17.70083","feature_class":"P","feature_code":"PPL","country_code":"BA","cc2":"","admin1_code":"01","admin2_code":"","admin3_code":"","admin4_code":"","population":"5718","elevation":"","dem":"225","timezone":"Europe/Sarajevo","modification_date":"2012-01-19"},{"geonameid":"3202589","name":"Cim","asciiname":"Cim","alternatenames":[""],"latitude":"43.35401","longitude":"17.78045","feature_class":"P","feature_code":"PPLL","country_code":"BA","cc2":"","admin1_code":"01","admin2_code":"","admin3_code":"","admin4_code":"","population":"3966","elevation":"","dem":"142","timezone":"Europe/Sarajevo","modification_date":"2012-04-06"},{"geonameid":"3202817","name":"Čečava","asciiname":"Cecava","alternatenames":["Cecava","Čečava"],"latitude":"44.67961","longitude":"17.7578","feature_class":"P","feature_code":"PPLL","country_code":"BA","cc2":"","admin1_code":"02","admin2_code":"","admin3_code":"","admin4_code":"","population":"3847","elevation":"","dem":"289","timezone":"Europe/Sarajevo","modification_date":"2012-05-06"},{"geonameid":"3202822","name":"Cazin","asciiname":"Cazin","alternatenames":["Cazin","Cazinas","cha jin","tsu~ajin","Цазин","ツァジン","察津"],"latitude":"44.96694","longitude":"15.94306","feature_class":"P","feature_code":"PPL","country_code":"BA","cc2":"","admin1_code":"01","admin2_code":"","admin3_code":"","admin4_code":"","population":"21741","elevation":"","dem":"325","timezone":"Europe/Sarajevo","modification_date":"2012-01-19"},{"geonameid":"3202873","name":"Čapljina","asciiname":"Capljina","alternatenames":[""],"latitude":"43.12139","longitude":"17.68444","feature_class":"P","feature_code":"PPL","country_code":"BA","cc2":"","admin1_code":"01","admin2_code":"","admin3_code":"","admin4_code":"","population":"7923","elevation":"","dem":"38","timezone":"Europe/Sarajevo","modification_date":"2006-01-17"},{"geonameid":"3202895","name":"Čajniče","asciiname":"Cajnice","alternatenames":["Cajnice","Čajniče"],"latitude":"43.55712","longitude":"19.07186","feature_class":"P","feature_code":"PPL","country_code":"BA","cc2":"","admin1_code":"02","admin2_code":"","admin3_code":"","admin4_code":"","population":"3909","elevation":"","dem":"827","timezone":"Europe/Sarajevo","modification_date":"2012-04-06"},{"geonameid":"3202935","name":"Bužim","asciiname":"Buzim","alternatenames":["Buzim","Bužim"],"latitude":"45.05361","longitude":"16.03254","feature_class":"P","feature_code":"PPLL","country_code":"BA","cc2":"","admin1_code":"01","admin2_code":"","admin3_code":"","admin4_code":"","population":"7229","elevation":"","dem":"218","timezone":"Europe/Sarajevo","modification_date":"2012-02-28"},{"geonameid":"3202955","name":"Busovača","asciiname":"Busovaca","alternatenames":["Busovaca","Busovača"],"latitude":"44.09769","longitude":"17.8783","feature_class":"P","feature_code":"PPL","country_code":"BA","cc2":"","admin1_code":"01","admin2_code":"","admin3_code":"","admin4_code":"","population":"4776","elevation":"","dem":"393","timezone":"Europe/Sarajevo","modification_date":"2012-05-06"},{"geonameid":"3203099","name":"Bugojno","asciiname":"Bugojno","alternatenames":["Bugoinas","Bugojne","Bugojno","Bugoyno","bugoino","Бугойно","Бугојно","Բուգոյնո","ブゴイノ"],"latitude":"44.05722","longitude":"17.45083","feature_class":"P","feature_code":"PPL","country_code":"BA","cc2":"","admin1_code":"01","admin2_code":"","admin3_code":"","admin4_code":"","population":"41378","elevation":"","dem":"565","timezone":"Europe/Sarajevo","modification_date":"2012-01-19"},{"geonameid":"3203227","name":"Bronzani Majdan","asciiname":"Bronzani Majdan","alternatenames":["Bronzani Majdan"],"latitude":"44.79237","longitude":"16.94039","feature_class":"P","feature_code":"PPLL","country_code":"BA","cc2":"","admin1_code":"02","admin2_code":"","admin3_code":"","admin4_code":"","population":"3945","elevation":"","dem":"275","timezone":"Europe/Sarajevo","modification_date":"2013-04-04"},{"geonameid":"3203280","name":"Brka","asciiname":"Brka","alternatenames":[""],"latitude":"44.82837","longitude":"18.7242","feature_class":"P","feature_code":"PPL","country_code":"BA","cc2":"","admin1_code":"BRC","admin2_code":"","admin3_code":"","admin4_code":"","population":"2800","elevation":"","dem":"105","timezone":"Europe/Sarajevo","modification_date":"2013-07-06"},{"geonameid":"3203521","name":"Brčko","asciiname":"Brcko","alternatenames":["Brchko","Брчко"],"latitude":"44.87278","longitude":"18.80833","feature_class":"P","feature_code":"PPLA","country_code":"BA","cc2":"","admin1_code":"BRC","admin2_code":"","admin3_code":"","admin4_code":"","population":"38968","elevation":"","dem":"95","timezone":"Europe/Sarajevo","modification_date":"2013-06-26"},{"geonameid":"3203533","name":"Bratunac","asciiname":"Bratunac","alternatenames":["Bratinac","Bratunac"],"latitude":"44.18455","longitude":"19.33085","feature_class":"P","feature_code":"PPL","country_code":"BA","cc2":"","admin1_code":"02","admin2_code":"","admin3_code":"","admin4_code":"","population":"4717","elevation":"","dem":"190","timezone":"Europe/Sarajevo","modification_date":"2012-04-06"},{"geonameid":"3203644","name":"Bosansko Grahovo","asciiname":"Bosansko Grahovo","alternatenames":["Bosansko Grahovo","Bosansko Grakhovo","Bosansko Graxovo","Bosansko-Grakhovo","Grahovo","Hrvatsko Grahovo","Босанско Грахово","Босанско-Грахово","Босанско-Ґрахово","Բոսանսկո Գրախովո"],"latitude":"44.17944","longitude":"16.36389","feature_class":"P","feature_code":"PPL","country_code":"BA","cc2":"","admin1_code":"01","admin2_code":"","admin3_code":"","admin4_code":"","population":"5643","elevation":"","dem":"855","timezone":"Europe/Sarajevo","modification_date":"2012-01-19"},{"geonameid":"3203645","name":"Bosanski Šamac","asciiname":"Bosanski Samac","alternatenames":["Bosanski Samac","Bosanski Shamac","Bosanski Šamac","Samac","Shamac","Šamac","Босански Шамац","Шамац"],"latitude":"45.05987","longitude":"18.46756","feature_class":"P","feature_code":"PPL","country_code":"BA","cc2":"","admin1_code":"02","admin2_code":"","admin3_code":"","admin4_code":"","population":"3599","elevation":"","dem":"86","timezone":"Europe/Sarajevo","modification_date":"2012-04-06"},{"geonameid":"3203647","name":"Bosanski Novi","asciiname":"Bosanski Novi","alternatenames":["Bosanski Novi","Novi","Novi Grad"],"latitude":"45.04643","longitude":"16.37782","feature_class":"P","feature_code":"PPL","country_code":"BA","cc2":"","admin1_code":"02","admin2_code":"","admin3_code":"","admin4_code":"","population":"8920","elevation":"","dem":"127","timezone":"Europe/Sarajevo","modification_date":"2012-02-28"},{"geonameid":"3203651","name":"Bosanski Brod","asciiname":"Bosanski Brod","alternatenames":["Bosanski Brod","Brod","Brodas","Srpski Brod","bo si ni ya bu luo de","burodo","Брод","ブロド","波斯尼亞布羅德"],"latitude":"45.13747","longitude":"17.98722","feature_class":"P","feature_code":"PPL","country_code":"BA","cc2":"","admin1_code":"02","admin2_code":"","admin3_code":"","admin4_code":"","population":"9249","elevation":"","dem":"85","timezone":"Europe/Sarajevo","modification_date":"2012-05-06"},{"geonameid":"3203653","name":"Bosanska Krupa","asciiname":"Bosanska Krupa","alternatenames":["Bosanska Krupa","Krupa","Krupa na Uni","bo si ni ya ke lu pa","Босанска Крупа","ボサンスカ・クルパ","波斯尼亞克魯帕"],"latitude":"44.8825","longitude":"16.15139","feature_class":"P","feature_code":"PPL","country_code":"BA","cc2":"","admin1_code":"01","admin2_code":"","admin3_code":"","admin4_code":"","population":"15193","elevation":"","dem":"153","timezone":"Europe/Sarajevo","modification_date":"2012-02-28"},{"geonameid":"3203655","name":"Kostajnica","asciiname":"Kostajnica","alternatenames":["Bosanska Kostajnica","Kostajnica","Srpska Kostajnica"],"latitude":"45.21956","longitude":"16.53929","feature_class":"P","feature_code":"PPL","country_code":"BA","cc2":"","admin1_code":"02","admin2_code":"","admin3_code":"","admin4_code":"","population":"4739","elevation":"","dem":"112","timezone":"Europe/Sarajevo","modification_date":"2012-02-28"},{"geonameid":"3203656","name":"Bosanska Gradiška","asciiname":"Bosanska Gradiska","alternatenames":["Bosanska Gradiska","Bosanska Gradiška","Gradiska","Gradiska na Savi","Gradiška","Gradiška na Savi"],"latitude":"45.14484","longitude":"17.25453","feature_class":"P","feature_code":"PPL","country_code":"BA","cc2":"","admin1_code":"02","admin2_code":"","admin3_code":"","admin4_code":"","population":"13346","elevation":"","dem":"91","timezone":"Europe/Sarajevo","modification_date":"2012-05-06"},{"geonameid":"3203657","name":"Bosanska Dubica","asciiname":"Bosanska Dubica","alternatenames":["Bosanska Dubica","Kozarska Dubica"],"latitude":"45.17667","longitude":"16.80944","feature_class":"P","feature_code":"PPL","country_code":"BA","cc2":"","admin1_code":"02","admin2_code":"","admin3_code":"","admin4_code":"","population":"9959","elevation":"","dem":"99","timezone":"Europe/Sarajevo","modification_date":"2012-01-19"},{"geonameid":"3203950","name":"Blatnica","asciiname":"Blatnica","alternatenames":[""],"latitude":"44.48677","longitude":"17.82278","feature_class":"P","feature_code":"PPL","country_code":"BA","cc2":"","admin1_code":"02","admin2_code":"","admin3_code":"","admin4_code":"","population":"5676","elevation":"","dem":"324","timezone":"Europe/Sarajevo","modification_date":"2012-05-06"},{"geonameid":"3203970","name":"Blagaj","asciiname":"Blagaj","alternatenames":["Blagaj"],"latitude":"43.25822","longitude":"17.8897","feature_class":"P","feature_code":"PPL","country_code":"BA","cc2":"","admin1_code":"01","admin2_code":"","admin3_code":"","admin4_code":"","population":"4715","elevation":"","dem":"59","timezone":"Europe/Sarajevo","modification_date":"2012-04-06"},{"geonameid":"3204161","name":"Bileća","asciiname":"Bileca","alternatenames":["Bileca","Bilece","Bilecha","Bilegja","Bileća","Bileće","bylzh","Билеча","Билећа","Բիլեչա","בילצה"],"latitude":"42.87645","longitude":"18.42967","feature_class":"P","feature_code":"PPL","country_code":"BA","cc2":"","admin1_code":"02","admin2_code":"3294539","admin3_code":"","admin4_code":"","population":"13257","elevation":"","dem":"468","timezone":"Europe/Sarajevo","modification_date":"2012-12-03"},{"geonameid":"3204168","name":"Bila","asciiname":"Bila","alternatenames":[""],"latitude":"43.78265","longitude":"16.92676","feature_class":"P","feature_code":"PPLL","country_code":"BA","cc2":"","admin1_code":"01","admin2_code":"","admin3_code":"","admin4_code":"","population":"4397","elevation":"","dem":"732","timezone":"Europe/Sarajevo","modification_date":"2012-05-06"},{"geonameid":"3204186","name":"Bijeljina","asciiname":"Bijeljina","alternatenames":["Beline","Bielina","Bieline","Bijelina","Bijeljina","bi ye li na","bii~erina","biyellina","bjljyna","blnh","byylynh","Биелина","Биелине","Бијељина","Бієліна","ביילינה","بجلجینا","بلنه","بیه‌لینا","ビイェリナ","比耶利納","비옐리나"],"latitude":"44.75874","longitude":"19.21437","feature_class":"P","feature_code":"PPL","country_code":"BA","cc2":"","admin1_code":"02","admin2_code":"","admin3_code":"","admin4_code":"","population":"37692","elevation":"","dem":"91","timezone":"Europe/Sarajevo","modification_date":"2012-04-06"},{"geonameid":"3204222","name":"Bihać","asciiname":"Bihac","alternatenames":["Bichacas","Bichačas","Bihac","Bihacs","Bihaç","Bihać","Bihács","Bikhach","Bikhak","Raetinium","bi ha qi","bi hach","bihachi","byhʼz","Бихач","Бихаћ","Бихаќ","Біхач","ביחאץ","بیہاج","บีฮาช","ビハチ","比哈奇","비하치"],"latitude":"44.81694","longitude":"15.87083","feature_class":"P","feature_code":"PPL","country_code":"BA","cc2":"","admin1_code":"01","admin2_code":"","admin3_code":"","admin4_code":"","population":"75641","elevation":"","dem":"223","timezone":"Europe/Sarajevo","modification_date":"2012-01-19"},{"geonameid":"3204520","name":"Banovići","asciiname":"Banovici","alternatenames":["Banovic","Banovichi","Banovici","Banoviciai","Banoviki","Banović","Banovići","Banovičiai","Litva","Stara Litva","ba nuo wei qi","banovu~ichi","Бановичи","Бановићи","Бановиќи","Բանովիչի","バノヴィチ","巴諾維契"],"latitude":"44.40596","longitude":"18.52648","feature_class":"P","feature_code":"PPL","country_code":"BA","cc2":"","admin1_code":"00","admin2_code":"","admin3_code":"","admin4_code":"","population":"7211","elevation":"","dem":"335","timezone":"Europe/Sarajevo","modification_date":"2012-04-06"},{"geonameid":"3204541","name":"Banja Luka","asciiname":"Banja Luka","alternatenames":["BNX","Bana Luka","Bania Louka","Bania Luka","Banialuca","Banja Luka","Banja Luka - Bana Luka","Banja Luka - Бања Лука","Banja-Luka","Banja-Lukae","Banjaluko","Banya Luka","ba ni ya lu ka","ban ya luk a","banja luka","banja lwka","banya lwka","banyaluka","Μπάνια Λούκα","Баня Лука","Баня-Лукæ","Баня-Лука","Бања Лука","Բանյա Լուկա","באניה לוקה","بانجا لوکا","بانيا لوكا","بانیا لوکا","बंजा लुका","บันยาลูกา","ბანია-ლუკა","バニャ・ルカ","巴尼亚卢卡","바냐루카"],"latitude":"44.77583","longitude":"17.18556","feature_class":"P","feature_code":"PPLA","country_code":"BA","cc2":"","admin1_code":"02","admin2_code":"","admin3_code":"","admin4_code":"","population":"221106","elevation":"","dem":"166","timezone":"Europe/Sarajevo","modification_date":"2008-03-14"},{"geonameid":"3204590","name":"Balatun","asciiname":"Balatun","alternatenames":["Balatun"],"latitude":"44.86332","longitude":"19.33931","feature_class":"P","feature_code":"PPL","country_code":"BA","cc2":"","admin1_code":"02","admin2_code":"","admin3_code":"","admin4_code":"","population":"1400","elevation":"","dem":"81","timezone":"Europe/Sarajevo","modification_date":"2012-05-06"},{"geonameid":"3206012","name":"Koran","asciiname":"Koran","alternatenames":[""],"latitude":"43.81038","longitude":"18.56999","feature_class":"P","feature_code":"PPL","country_code":"BA","cc2":"","admin1_code":"02","admin2_code":"","admin3_code":"","admin4_code":"","population":"3395","elevation":"","dem":"853","timezone":"Europe/Sarajevo","modification_date":"2012-04-06"},{"geonameid":"3210439","name":"Jelah","asciiname":"Jelah","alternatenames":["Jelah"],"latitude":"44.654","longitude":"17.95897","feature_class":"P","feature_code":"PPL","country_code":"BA","cc2":"","admin1_code":"01","admin2_code":"","admin3_code":"","admin4_code":"","population":"5291","elevation":"","dem":"184","timezone":"Europe/Sarajevo","modification_date":"2012-05-06"},{"geonameid":"3210448","name":"Stanari","asciiname":"Stanari","alternatenames":["Stanari"],"latitude":"44.74475","longitude":"17.82714","feature_class":"P","feature_code":"PPLL","country_code":"BA","cc2":"","admin1_code":"02","admin2_code":"","admin3_code":"","admin4_code":"","population":"3590","elevation":"","dem":"230","timezone":"Europe/Sarajevo","modification_date":"2012-05-06"},{"geonameid":"3210593","name":"Podbrdo","asciiname":"Podbrdo","alternatenames":[""],"latitude":"44.44189","longitude":"17.01495","feature_class":"P","feature_code":"PPLL","country_code":"BA","cc2":"","admin1_code":"02","admin2_code":"","admin3_code":"","admin4_code":"","population":"4028","elevation":"","dem":"780","timezone":"Europe/Sarajevo","modification_date":"2012-05-06"},{"geonameid":"3210920","name":"Malešići","asciiname":"Malesici","alternatenames":["Malesici","Malešići"],"latitude":"44.73824","longitude":"18.27335","feature_class":"P","feature_code":"PPLL","country_code":"BA","cc2":"","admin1_code":"01","admin2_code":"","admin3_code":"","admin4_code":"","population":"3764","elevation":"","dem":"382","timezone":"Europe/Sarajevo","modification_date":"2012-04-06"},{"geonameid":"3211287","name":"Svojat","asciiname":"Svojat","alternatenames":[""],"latitude":"44.39548","longitude":"18.73849","feature_class":"P","feature_code":"PPL","country_code":"BA","cc2":"","admin1_code":"00","admin2_code":"","admin3_code":"","admin4_code":"","population":"3516","elevation":"","dem":"307","timezone":"Europe/Sarajevo","modification_date":"2012-04-06"},{"geonameid":"3211537","name":"Dvorovi","asciiname":"Dvorovi","alternatenames":["Dvorovi"],"latitude":"44.80753","longitude":"19.25999","feature_class":"P","feature_code":"PPL","country_code":"BA","cc2":"","admin1_code":"02","admin2_code":"","admin3_code":"","admin4_code":"","population":"1710","elevation":"","dem":"85","timezone":"Europe/Sarajevo","modification_date":"2012-04-06"},{"geonameid":"3211929","name":"Knežica","asciiname":"Knezica","alternatenames":["Knezica","Knežica"],"latitude":"45.10548","longitude":"16.67668","feature_class":"P","feature_code":"PPL","country_code":"BA","cc2":"","admin1_code":"02","admin2_code":"","admin3_code":"","admin4_code":"","population":"4792","elevation":"","dem":"152","timezone":"Europe/Sarajevo","modification_date":"2012-02-28"},{"geonameid":"3212301","name":"Pjanići","asciiname":"Pjanici","alternatenames":["Pjanici","Pjanići"],"latitude":"44.98568","longitude":"15.82304","feature_class":"P","feature_code":"PPLL","country_code":"BA","cc2":"","admin1_code":"01","admin2_code":"","admin3_code":"","admin4_code":"","population":"3537","elevation":"","dem":"305","timezone":"Europe/Sarajevo","modification_date":"2012-08-05"},{"geonameid":"3212590","name":"Polje","asciiname":"Polje","alternatenames":[""],"latitude":"43.88014","longitude":"18.07452","feature_class":"P","feature_code":"PPL","country_code":"BA","cc2":"","admin1_code":"01","admin2_code":"","admin3_code":"","admin4_code":"","population":"3799","elevation":"","dem":"566","timezone":"Europe/Sarajevo","modification_date":"2012-05-06"},{"geonameid":"3213083","name":"Ilići","asciiname":"Ilici","alternatenames":["Ilici","Ilići"],"latitude":"43.34765","longitude":"17.76848","feature_class":"P","feature_code":"PPL","country_code":"BA","cc2":"","admin1_code":"01","admin2_code":"","admin3_code":"","admin4_code":"","population":"3688","elevation":"","dem":"98","timezone":"Europe/Sarajevo","modification_date":"2013-04-04"},{"geonameid":"3245419","name":"Careva Ćuprija","asciiname":"Careva Cuprija","alternatenames":[""],"latitude":"44.2663","longitude":"18.42961","feature_class":"P","feature_code":"PPL","country_code":"BA","cc2":"","admin1_code":"00","admin2_code":"","admin3_code":"","admin4_code":"","population":"3954","elevation":"","dem":"384","timezone":"Europe/Sarajevo","modification_date":"2012-04-06"},{"geonameid":"3246028","name":"Starcevica","asciiname":"Starcevica","alternatenames":[""],"latitude":"44.75708","longitude":"17.21178","feature_class":"P","feature_code":"PPL","country_code":"BA","cc2":"","admin1_code":"02","admin2_code":"","admin3_code":"","admin4_code":"","population":"2300","elevation":"","dem":"206","timezone":"Europe/Sarajevo","modification_date":"2012-07-12"},{"geonameid":"3247554","name":"Čelinac","asciiname":"Celinac","alternatenames":["Celinac","Čelinac"],"latitude":"44.72453","longitude":"17.32431","feature_class":"P","feature_code":"PPL","country_code":"BA","cc2":"","admin1_code":"02","admin2_code":"","admin3_code":"","admin4_code":"","population":"6670","elevation":"","dem":"194","timezone":"Europe/Sarajevo","modification_date":"2012-05-06"},{"geonameid":"3248643","name":"Hiseti","asciiname":"Hiseti","alternatenames":["Kocicev Vijenac","Kočićev Vijenac"],"latitude":"44.76111","longitude":"17.17944","feature_class":"P","feature_code":"PPLX","country_code":"BA","cc2":"","admin1_code":"02","admin2_code":"","admin3_code":"","admin4_code":"","population":"5000","elevation":"","dem":"172","timezone":"Europe/Sarajevo","modification_date":"2011-06-12"},{"geonameid":"3248645","name":"Piskavica","asciiname":"Piskavica","alternatenames":[""],"latitude":"44.86717","longitude":"16.97464","feature_class":"P","feature_code":"PPL","country_code":"BA","cc2":"","admin1_code":"02","admin2_code":"","admin3_code":"","admin4_code":"","population":"3797","elevation":"","dem":"175","timezone":"Europe/Sarajevo","modification_date":"2012-05-06"},{"geonameid":"3249941","name":"Lamovita","asciiname":"Lamovita","alternatenames":[""],"latitude":"44.92018","longitude":"16.89933","feature_class":"P","feature_code":"PPLL","country_code":"BA","cc2":"","admin1_code":"02","admin2_code":"","admin3_code":"","admin4_code":"","population":"4582","elevation":"","dem":"191","timezone":"Europe/Sarajevo","modification_date":"2012-05-06"},{"geonameid":"3253010","name":"Tešanjka","asciiname":"Tesanjka","alternatenames":[""],"latitude":"44.67228","longitude":"18.01109","feature_class":"P","feature_code":"PPL","country_code":"BA","cc2":"","admin1_code":"01","admin2_code":"","admin3_code":"","admin4_code":"","population":"5666","elevation":"","dem":"157","timezone":"Europe/Sarajevo","modification_date":"2012-05-06"},{"geonameid":"3257948","name":"Kovači","asciiname":"Kovaci","alternatenames":[""],"latitude":"44.44874","longitude":"18.20521","feature_class":"P","feature_code":"PPL","country_code":"BA","cc2":"","admin1_code":"01","admin2_code":"","admin3_code":"","admin4_code":"","population":"6410","elevation":"","dem":"364","timezone":"Europe/Sarajevo","modification_date":"2012-05-06"},{"geonameid":"3258022","name":"Liješnica","asciiname":"Lijesnica","alternatenames":["Lijesnica","Liješnica"],"latitude":"44.49497","longitude":"18.07644","feature_class":"P","feature_code":"PPL","country_code":"BA","cc2":"","admin1_code":"01","admin2_code":"","admin3_code":"","admin4_code":"","population":"3559","elevation":"","dem":"281","timezone":"Europe/Sarajevo","modification_date":"2012-05-06"},{"geonameid":"3259075","name":"Ćoralići","asciiname":"Coralici","alternatenames":[""],"latitude":"45.00694","longitude":"15.87194","feature_class":"P","feature_code":"PPLL","country_code":"BA","cc2":"","admin1_code":"01","admin2_code":"","admin3_code":"","admin4_code":"","population":"5223","elevation":"","dem":"286","timezone":"Europe/Sarajevo","modification_date":"2006-01-17"},{"geonameid":"3262021","name":"Crnići","asciiname":"Crnici","alternatenames":[""],"latitude":"43.13156","longitude":"17.86452","feature_class":"P","feature_code":"PPLL","country_code":"BA","cc2":"","admin1_code":"01","admin2_code":"","admin3_code":"","admin4_code":"","population":"5789","elevation":"","dem":"239","timezone":"Europe/Sarajevo","modification_date":"2012-04-06"},{"geonameid":"3262877","name":"Barice","asciiname":"Barice","alternatenames":[""],"latitude":"44.54065","longitude":"18.48069","feature_class":"P","feature_code":"PPL","country_code":"BA","cc2":"","admin1_code":"01","admin2_code":"","admin3_code":"","admin4_code":"","population":"3697","elevation":"","dem":"221","timezone":"Europe/Sarajevo","modification_date":"2012-04-06"},{"geonameid":"3268187","name":"Hotonj","asciiname":"Hotonj","alternatenames":["Hotonj"],"latitude":"43.89341","longitude":"18.37751","feature_class":"P","feature_code":"PPLL","country_code":"BA","cc2":"","admin1_code":"01","admin2_code":"","admin3_code":"","admin4_code":"","population":"4013","elevation":"","dem":"571","timezone":"Europe/Sarajevo","modification_date":"2012-04-06"},{"geonameid":"3278045","name":"Skokovi","asciiname":"Skokovi","alternatenames":["Skokovi"],"latitude":"45.03139","longitude":"15.91444","feature_class":"P","feature_code":"PPL","country_code":"BA","cc2":"","admin1_code":"01","admin2_code":"","admin3_code":"","admin4_code":"","population":"3553","elevation":"","dem":"462","timezone":"Europe/Sarajevo","modification_date":"2012-01-19"},{"geonameid":"3283848","name":"Drežnica","asciiname":"Dreznica","alternatenames":[""],"latitude":"43.52891","longitude":"17.2812","feature_class":"P","feature_code":"PPL","country_code":"BA","cc2":"","admin1_code":"01","admin2_code":"","admin3_code":"","admin4_code":"","population":"3908","elevation":"","dem":"841","timezone":"Europe/Sarajevo","modification_date":"2012-05-06"},{"geonameid":"3289093","name":"Kačuni","asciiname":"Kacuni","alternatenames":["Kacuni","Kačuni"],"latitude":"44.06433","longitude":"17.93894","feature_class":"P","feature_code":"PPL","country_code":"BA","cc2":"","admin1_code":"01","admin2_code":"","admin3_code":"","admin4_code":"","population":"5042","elevation":"","dem":"442","timezone":"Europe/Sarajevo","modification_date":"2012-05-06"},{"geonameid":"3293429","name":"Pajić Polje","asciiname":"Pajic Polje","alternatenames":["Pajic Polje","Pajić Polje"],"latitude":"43.97583","longitude":"17.5275","feature_class":"P","feature_code":"PPL","country_code":"BA","cc2":"","admin1_code":"01","admin2_code":"","admin3_code":"","admin4_code":"","population":"4026","elevation":"","dem":"620","timezone":"Europe/Sarajevo","modification_date":"2012-01-19"},{"geonameid":"3295485","name":"Gornja Breza","asciiname":"Gornja Breza","alternatenames":["Breza","Gornja Breza"],"latitude":"44.03758","longitude":"18.24564","feature_class":"P","feature_code":"PPL","country_code":"BA","cc2":"","admin1_code":"01","admin2_code":"","admin3_code":"","admin4_code":"","population":"3732","elevation":"","dem":"677","timezone":"Europe/Sarajevo","modification_date":"2012-10-07"},{"geonameid":"3301568","name":"Todorovo","asciiname":"Todorovo","alternatenames":[""],"latitude":"45.08833","longitude":"15.93083","feature_class":"P","feature_code":"PPLL","country_code":"BA","cc2":"","admin1_code":"01","admin2_code":"","admin3_code":"","admin4_code":"","population":"9560","elevation":"","dem":"331","timezone":"Europe/Sarajevo","modification_date":"2006-01-17"},{"geonameid":"3337476","name":"Konjic","asciiname":"Konjic","alternatenames":["Konjic"],"latitude":"43.65126","longitude":"17.96082","feature_class":"P","feature_code":"PPL","country_code":"BA","cc2":"","admin1_code":"01","admin2_code":"","admin3_code":"","admin4_code":"","population":"15950","elevation":"","dem":"286","timezone":"Europe/Sarajevo","modification_date":"2012-02-29"},{"geonameid":"3344411","name":"Jablanica","asciiname":"Jablanica","alternatenames":["Jablanica","ya bu la ni cha","Јабланица","Ябланица","亞布拉尼察"],"latitude":"43.66028","longitude":"17.76167","feature_class":"P","feature_code":"PPL","country_code":"BA","cc2":"","admin1_code":"01","admin2_code":"","admin3_code":"","admin4_code":"","population":"6209","elevation":"","dem":"199","timezone":"Europe/Sarajevo","modification_date":"2012-01-20"},{"geonameid":"3344788","name":"Bijela","asciiname":"Bijela","alternatenames":["Bijela"],"latitude":"43.60871","longitude":"17.95078","feature_class":"P","feature_code":"PPLL","country_code":"BA","cc2":"","admin1_code":"01","admin2_code":"","admin3_code":"","admin4_code":"","population":"3484","elevation":"","dem":"446","timezone":"Europe/Sarajevo","modification_date":"2012-02-29"},{"geonameid":"8335444","name":"Mejdan - Obilićevo","asciiname":"Mejdan - Obilicevo","alternatenames":[""],"latitude":"44.76324","longitude":"17.19012","feature_class":"P","feature_code":"PPLX","country_code":"BA","cc2":"","admin1_code":"02","admin2_code":"","admin3_code":"","admin4_code":"","population":"5400","elevation":"","dem":"161","timezone":"Europe/Sarajevo","modification_date":"2012-06-30"},{"geonameid":"3186246","name":"Zvornik","asciiname":"Zvornik","alternatenames":["Zvonik","Zvornik","Zvornikas","jeuboleunikeu","zi wo er ni ke","zuvu~oruniku","Зворник","ズヴォルニク","茲沃爾尼克","즈보르니크"],"latitude":"44.38605","longitude":"19.10247","feature_class":"P","feature_code":"PPL","country_code":"BA","cc2":"","admin1_code":"02","admin2_code":"","admin3_code":"","admin4_code":"","population":"8026","elevation":"","dem":"163","timezone":"Europe/Sarajevo","modification_date":"2012-04-06"},{"geonameid":"3186423","name":"Živinice","asciiname":"Zivinice","alternatenames":["Zhivinice","Zhivinice Grad","Zivinice","ri wei ni cai","Živinice","Živinicė","Живинице","Живинице Град","日維尼采"],"latitude":"44.44929","longitude":"18.64978","feature_class":"P","feature_code":"PPL","country_code":"BA","cc2":"","admin1_code":"01","admin2_code":"","admin3_code":"","admin4_code":"","population":"13641","elevation":"","dem":"216","timezone":"Europe/Sarajevo","modification_date":"2012-04-06"},{"geonameid":"3186567","name":"Žepče","asciiname":"Zepce","alternatenames":["Zepce","Zhepche","re pu qie","Žepčė","Жепче","热普切"],"latitude":"44.42667","longitude":"18.03778","feature_class":"P","feature_code":"PPL","country_code":"BA","cc2":"","admin1_code":"01","admin2_code":"","admin3_code":"","admin4_code":"","population":"8502","elevation":"","dem":"231","timezone":"Europe/Sarajevo","modification_date":"2006-01-17"},{"geonameid":"3186573","name":"Zenica","asciiname":"Zenica","alternatenames":["Zenica","jenicha","se nit sa","ze ni cha","zenitsu~a","znyka","znytsa","znyzh","zynytsa","Зеница","Зеніца","זניצה","زنیتسا","زنیکا","زينيتسا","เซนีตซา","ゼニツァ","泽尼察","제니차"],"latitude":"44.20169","longitude":"17.90397","feature_class":"P","feature_code":"PPL","country_code":"BA","cc2":"","admin1_code":"01","admin2_code":"","admin3_code":"","admin4_code":"","population":"164423","elevation":"","dem":"325","timezone":"Europe/Sarajevo","modification_date":"2012-05-06"},{"geonameid":"3186588","name":"Željezno Polje","asciiname":"Zeljezno Polje","alternatenames":[""],"latitude":"44.39875","longitude":"17.94103","feature_class":"P","feature_code":"PPLL","country_code":"BA","cc2":"","admin1_code":"01","admin2_code":"","admin3_code":"","admin4_code":"","population":"5783","elevation":"","dem":"528","timezone":"Europe/Sarajevo","modification_date":"2012-05-06"},{"geonameid":"3186717","name":"Zavidovići","asciiname":"Zavidovici","alternatenames":["Zavidovichi","Zavidovici","Zavidovići","zha wei duo wei qi","Завидовичи","Завидовићи","扎維多維齊"],"latitude":"44.44583","longitude":"18.14972","feature_class":"P","feature_code":"PPL","country_code":"BA","cc2":"","admin1_code":"01","admin2_code":"","admin3_code":"","admin4_code":"","population":"14380","elevation":"","dem":"208","timezone":"Europe/Sarajevo","modification_date":"2012-01-19"},{"geonameid":"3187162","name":"Vrnograč","asciiname":"Vrnograc","alternatenames":["Vrnograc","Vrnograč"],"latitude":"45.16369","longitude":"15.95444","feature_class":"P","feature_code":"PPL","country_code":"BA","cc2":"","admin1_code":"01","admin2_code":"","admin3_code":"","admin4_code":"","population":"6860","elevation":"","dem":"162","timezone":"Europe/Sarajevo","modification_date":"2012-02-28"},{"geonameid":"3187464","name":"Vogošća","asciiname":"Vogosca","alternatenames":["Gornja Vogosca","Gornja Vogošća","Vogosca","Vogošća"],"latitude":"43.90225","longitude":"18.34438","feature_class":"P","feature_code":"PPL","country_code":"BA","cc2":"","admin1_code":"01","admin2_code":"","admin3_code":"","admin4_code":"","population":"8180","elevation":"","dem":"509","timezone":"Europe/Sarajevo","modification_date":"2012-04-06"},