{"country_data":{"ISO":"KM","ISO3":"COM","ISO_Numeric":"174","fips":"CN","country":"Comoros","capital":"Moroni","area":"2170","Population":"773407","Continent":"AF","tld":".km","CurrencyCode":"KMF","CurrencyName":"Franc","Phone":"269","Postal_Code_Format":"","Postal_Code_Regex":"","Languages":"ar,fr-KM","geonameid":"921929","neighbours":"","EquivalentFipsCode":""},"cities":[{"geonameid":"921675","name":"Sima","asciiname":"Sima","alternatenames":["Sima"],"latitude":"-12.19556","longitude":"44.27667","feature_class":"P","feature_code":"PPL","country_code":"KM","cc2":"","admin1_code":"01","admin2_code":"","admin3_code":"","admin4_code":"","population":"10374","elevation":"","dem":"120","timezone":"Indian/Comoro","modification_date":"2012-05-05"},{"geonameid":"921721","name":"Ouani","asciiname":"Ouani","alternatenames":["AJN","Oani","Ouani","Ouany"],"latitude":"-12.13554","longitude":"44.42493","feature_class":"P","feature_code":"PPL","country_code":"KM","cc2":"","admin1_code":"01","admin2_code":"","admin3_code":"","admin4_code":"","population":"10179","elevation":"","dem":"18","timezone":"Indian/Comoro","modification_date":"2013-10-26"},{"geonameid":"921753","name":"Moutsamoudou","asciiname":"Moutsamoudou","alternatenames":["Matsamudu","Moutsamoudou","Mutsamudu"],"latitude":"-12.16672","longitude":"44.39944","feature_class":"P","feature_code":"PPLA","country_code":"KM","cc2":"","admin1_code":"01","admin2_code":"","admin3_code":"","admin4_code":"","population":"23594","elevation":"","dem":"61","timezone":"Indian/Comoro","modification_date":"2013-05-05"},{"geonameid":"921763","name":"Mramani","asciiname":"Mramani","alternatenames":["M'Ramoni","M'ramoni","Mramani","M’Ramoni","M’ramoni"],"latitude":"-12.34639","longitude":"44.52861","feature_class":"P","feature_code":"PPL","country_code":"KM","cc2":"","admin1_code":"01","admin2_code":"","admin3_code":"","admin4_code":"","population":"5126","elevation":"","dem":"83","timezone":"Indian/Comoro","modification_date":"2012-01-18"},{"geonameid":"921764","name":"Moya","asciiname":"Moya","alternatenames":["Moya"],"latitude":"-12.30667","longitude":"44.43778","feature_class":"P","feature_code":"PPL","country_code":"KM","cc2":"","admin1_code":"01","admin2_code":"","admin3_code":"","admin4_code":"","population":"7529","elevation":"","dem":"142","timezone":"Indian/Comoro","modification_date":"2012-01-18"},{"geonameid":"921772","name":"Moroni","asciiname":"Moroni","alternatenames":["Gorad Maroni","Moroni","Moronio","Moronis","Morony","Moròni","Muruni","Móróní","YVA","mo luo ni","mo ro ni","moloni","moroni","mwrwny","Μορονί","Горад Мароні","Морони","Мороні","Մորոնի","מורוני","موروني","مورونی","مۆرۆنی","मोरोनी","ਮੋਰੋਨੀ","மொரோனி","โมโรนี","མོ་རོ་ནི།","მორონი","ሞሮኒ","モロニ","莫洛尼","모로니"],"latitude":"-11.70216","longitude":"43.25506","feature_class":"P","feature_code":"PPLC","country_code":"KM","cc2":"","admin1_code":"02","admin2_code":"","admin3_code":"","admin4_code":"","population":"42872","elevation":"","dem":"27","timezone":"Indian/Comoro","modification_date":"2010-05-28"},{"geonameid":"921786","name":"Mitsamiouli","asciiname":"Mitsamiouli","alternatenames":["Mitsamihouh","Mitsamiouli","Mitsumiuli","Mtamuhuli"],"latitude":"-11.38472","longitude":"43.28444","feature_class":"P","feature_code":"PPL","country_code":"KM","cc2":"","admin1_code":"02","admin2_code":"","admin3_code":"","admin4_code":"","population":"6102","elevation":"","dem":"48","timezone":"Indian/Comoro","modification_date":"2012-01-18"},{"geonameid":"921806","name":"Mbéni","asciiname":"Mbeni","alternatenames":["Mbeni","Mbéni"],"latitude":"-11.50139","longitude":"43.3775","feature_class":"P","feature_code":"PPL","country_code":"KM","cc2":"","admin1_code":"02","admin2_code":"","admin3_code":"","admin4_code":"","population":"6516","elevation":"","dem":"480","timezone":"Indian/Comoro","modification_date":"2012-01-18"},{"geonameid":"921834","name":"Koni-Djodjo","asciiname":"Koni-Djodjo","alternatenames":["Koni","Koni-Djodjo"],"latitude":"-12.22972","longitude":"44.48167","feature_class":"P","feature_code":"PPL","country_code":"KM","cc2":"","admin1_code":"01","admin2_code":"","admin3_code":"","admin4_code":"","population":"8109","elevation":"","dem":"662","timezone":"Indian/Comoro","modification_date":"2012-01-18"},{"geonameid":"921889","name":"Fomboni","asciiname":"Fomboni","alternatenames":["Fomboni","Fumboni"],"latitude":"-12.28","longitude":"43.7425","feature_class":"P","feature_code":"PPLA","country_code":"KM","cc2":"","admin1_code":"03","admin2_code":"","admin3_code":"","admin4_code":"","population":"14966","elevation":"","dem":"8","timezone":"Indian/Comoro","modification_date":"2012-01-14"},{"geonameid":"921906","name":"Domoni","asciiname":"Domoni","alternatenames":["Deumoni","Domoni"],"latitude":"-12.25694","longitude":"44.53194","feature_class":"P","feature_code":"PPL","country_code":"KM","cc2":"","admin1_code":"01","admin2_code":"","admin3_code":"","admin4_code":"","population":"14509","elevation":"","dem":"18","timezone":"Indian/Comoro","modification_date":"2012-01-18"},{"geonameid":"921946","name":"Chandra","asciiname":"Chandra","alternatenames":["Chanda","Chandra"],"latitude":"-12.195","longitude":"44.46472","feature_class":"P","feature_code":"PPL","country_code":"KM","cc2":"","admin1_code":"01","admin2_code":"","admin3_code":"","admin4_code":"","population":"5645","elevation":"","dem":"469","timezone":"Indian/Comoro","modification_date":"2012-01-18"},{"geonameid":"1091088","name":"Barakani","asciiname":"Barakani","alternatenames":["Barakani"],"latitude":"-12.13861","longitude":"44.43026","feature_class":"P","feature_code":"PPLX","country_code":"KM","cc2":"","admin1_code":"01","admin2_code":"","admin3_code":"","admin4_code":"","population":"6089","elevation":"","dem":"57","timezone":"Indian/Comoro","modification_date":"2013-10-12"},{"geonameid":"1091117","name":"Mirontsi","asciiname":"Mirontsi","alternatenames":["Mirontsi"],"latitude":"-12.15667","longitude":"44.40806","feature_class":"P","feature_code":"PPL","country_code":"KM","cc2":"","admin1_code":"01","admin2_code":"","admin3_code":"","admin4_code":"","population":"10168","elevation":"","dem":"-9999","timezone":"Indian/Comoro","modification_date":"2012-01-19"},{"geonameid":"1091401","name":"Adda-Douéni","asciiname":"Adda-Doueni","alternatenames":["Adda-Doueni","Adda-Douéni"],"latitude":"-12.2925","longitude":"44.49722","feature_class":"P","feature_code":"PPL","country_code":"KM","cc2":"","admin1_code":"01","admin2_code":"","admin3_code":"","admin4_code":"","population":"10858","elevation":"","dem":"706","timezone":"Indian/Comoro","modification_date":"2013-05-05"},{"geonameid":"1092157","name":"Ouella","asciiname":"Ouella","alternatenames":[""],"latitude":"-11.65361","longitude":"43.28056","feature_class":"P","feature_code":"PPL","country_code":"KM","cc2":"","admin1_code":"02","admin2_code":"","admin3_code":"","admin4_code":"","population":"5478","elevation":"","dem":"300","timezone":"Indian/Comoro","modification_date":"2006-01-27"},{"geonameid":"8030185","name":"Mkiriwadjumoi","asciiname":"Mkiriwadjumoi","alternatenames":[""],"latitude":"-12.31086","longitude":"44.43702","feature_class":"P","feature_code":"PPLR","country_code":"KM","cc2":"","admin1_code":"","admin2_code":"","admin3_code":"","admin4_code":"","population":"8749","elevation":"300","dem":"40","timezone":"Indian/Comoro","modification_date":"2011-09-27"},{"geonameid":"921753","name":"Moutsamoudou","asciiname":"Moutsamoudou","alternatenames":["Matsamudu","Moutsamoudou","Mutsamudu"],"latitude":"-12.16672","longitude":"44.39944","feature_class":"P","feature_code":"PPLA","country_code":"KM","cc2":"","admin1_code":"01","admin2_code":"","admin3_code":"","admin4_code":"","population":"23594","elevation":"","dem":"61","timezone":"Indian/Comoro","modification_date":"2013-05-05"},{"geonameid":"921772","name":"Moroni","asciiname":"Moroni","alternatenames":["Gorad Maroni","Moroni","Moronio","Moronis","Morony","Moròni","Muruni","Móróní","YVA","mo luo ni","mo ro ni","moloni","moroni","mwrwny","Μορονί","Горад Мароні","Морони","Мороні","Մորոնի","מורוני","موروني","مورونی","مۆرۆنی","मोरोनी","ਮੋਰੋਨੀ","மொரோனி","โมโรนี","མོ་རོ་ནི།","მორონი","ሞሮኒ","モロニ","莫洛尼","모로니"],"latitude":"-11.70216","longitude":"43.25506","feature_class":"P","feature_code":"PPLC","country_code":"KM","cc2":"","admin1_code":"02","admin2_code":"","admin3_code":"","admin4_code":"","population":"42872","elevation":"","dem":"27","timezone":"Indian/Comoro","modification_date":"2010-05-28"}]}