{"country_data":{"ISO":"DO","ISO3":"DOM","ISO_Numeric":"214","fips":"DR","country":"Dominican Republic","capital":"Santo Domingo","area":"48730","Population":"9823821","Continent":"NA","tld":".do","CurrencyCode":"DOP","CurrencyName":"Peso","Phone":"+1-809 and 1-829","Postal_Code_Format":"#####","Postal_Code_Regex":"^(\\d{5})$","Languages":"es-DO","geonameid":"3508796","neighbours":"HT","EquivalentFipsCode":""},"cities":[{"geonameid":"3491736","name":"Yayas de Viajama","asciiname":"Yayas de Viajama","alternatenames":["Las Yayas","Las Yayas de Viajama","Yayas de Viajama"],"latitude":"18.6071","longitude":"-70.92753","feature_class":"P","feature_code":"PPL","country_code":"DO","cc2":"","admin1_code":"01","admin2_code":"","admin3_code":"","admin4_code":"","population":"5669","elevation":"","dem":"317","timezone":"America/Santo_Domingo","modification_date":"2012-01-16"},{"geonameid":"3491796","name":"Yamasá","asciiname":"Yamasa","alternatenames":["Villa de Yamasa","Villa de Yamasá","Yamasa","Yamasá"],"latitude":"18.77315","longitude":"-70.02583","feature_class":"P","feature_code":"PPL","country_code":"DO","cc2":"","admin1_code":"32","admin2_code":"3491797","admin3_code":"","admin4_code":"","population":"11595","elevation":"","dem":"89","timezone":"America/Santo_Domingo","modification_date":"2014-08-08"},{"geonameid":"3491807","name":"Yaguate","asciiname":"Yaguate","alternatenames":["Villa de Yaguate","Yaguate"],"latitude":"18.3353","longitude":"-70.18113","feature_class":"P","feature_code":"PPL","country_code":"DO","cc2":"","admin1_code":"33","admin2_code":"","admin3_code":"","admin4_code":"","population":"5610","elevation":"","dem":"52","timezone":"America/Santo_Domingo","modification_date":"2012-01-16"},{"geonameid":"3491905","name":"Villa Vásquez","asciiname":"Villa Vasquez","alternatenames":["Lucas Evangelista de Pena","Lucas Evangelista de Peña","Villa Isabel","Villa Vasquez","Villa Vazquez","Villa Vásquez","Villa Vázquez"],"latitude":"19.7411","longitude":"-71.4464","feature_class":"P","feature_code":"PPL","country_code":"DO","cc2":"","admin1_code":"15","admin2_code":"","admin3_code":"","admin4_code":"","population":"11642","elevation":"","dem":"32","timezone":"America/Santo_Domingo","modification_date":"2012-01-16"},{"geonameid":"3491916","name":"Villa Riva","asciiname":"Villa Riva","alternatenames":["Riva","Rivas","Villa Riva","Villa Rivas"],"latitude":"19.18069","longitude":"-69.91319","feature_class":"P","feature_code":"PPL","country_code":"DO","cc2":"","admin1_code":"06","admin2_code":"","admin3_code":"","admin4_code":"","population":"5700","elevation":"","dem":"29","timezone":"America/Santo_Domingo","modification_date":"2012-01-16"},{"geonameid":"3491927","name":"Villa Jaragua","asciiname":"Villa Jaragua","alternatenames":["Jaragua","Jose Trujillo Valdez","José Trujillo Valdéz","Villa Jaragua","Villa Jose Trujillo Valdez","Villa José Trujillo Valdéz"],"latitude":"18.49077","longitude":"-71.48377","feature_class":"P","feature_code":"PPL","country_code":"DO","cc2":"","admin1_code":"02","admin2_code":"","admin3_code":"","admin4_code":"","population":"9248","elevation":"","dem":"12","timezone":"America/Santo_Domingo","modification_date":"2012-01-16"},{"geonameid":"3491937","name":"Villa González","asciiname":"Villa Gonzalez","alternatenames":["Las Lagunas","Villa Gonzalez","Villa González"],"latitude":"19.54057","longitude":"-70.78853","feature_class":"P","feature_code":"PPL","country_code":"DO","cc2":"","admin1_code":"25","admin2_code":"","admin3_code":"","admin4_code":"","population":"10177","elevation":"","dem":"164","timezone":"America/Santo_Domingo","modification_date":"2012-01-16"},{"geonameid":"3491941","name":"Villa Francisca","asciiname":"Villa Francisca","alternatenames":["Villa Francisca"],"latitude":"18.46667","longitude":"-69.9","feature_class":"P","feature_code":"PPLX","country_code":"DO","cc2":"","admin1_code":"34","admin2_code":"","admin3_code":"","admin4_code":"","population":"50185","elevation":"","dem":"20","timezone":"America/Santo_Domingo","modification_date":"2013-05-05"},{"geonameid":"3491946","name":"Villa Consuelo","asciiname":"Villa Consuelo","alternatenames":["Villa Consuelo"],"latitude":"18.48333","longitude":"-69.9","feature_class":"P","feature_code":"PPLX","country_code":"DO","cc2":"","admin1_code":"34","admin2_code":"","admin3_code":"","admin4_code":"","population":"28621","elevation":"","dem":"50","timezone":"America/Santo_Domingo","modification_date":"2013-05-05"},{"geonameid":"3491948","name":"Villa Bisonó","asciiname":"Villa Bisono","alternatenames":["Bisono","Bisonó","Jose E. Bisono","Jose Elias Bisono","José E. Bisonó","José Eliás Bisonó","Villa Bisono","Villa Bisonó"],"latitude":"19.56378","longitude":"-70.87582","feature_class":"P","feature_code":"PPL","country_code":"DO","cc2":"","admin1_code":"25","admin2_code":"","admin3_code":"","admin4_code":"","population":"33137","elevation":"","dem":"131","timezone":"America/Santo_Domingo","modification_date":"2012-01-16"},{"geonameid":"3491952","name":"Villa Altagracia","asciiname":"Villa Altagracia","alternatenames":["Vil'ja-Al'tagrasija","Villa Altagracia","Вилья-Альтаграсия"],"latitude":"18.67297","longitude":"-70.17095","feature_class":"P","feature_code":"PPL","country_code":"DO","cc2":"","admin1_code":"33","admin2_code":"","admin3_code":"","admin4_code":"","population":"40027","elevation":"","dem":"178","timezone":"America/Santo_Domingo","modification_date":"2012-01-16"},{"geonameid":"3492030","name":"Vicente Noble","asciiname":"Vicente Noble","alternatenames":["Vicente Noble","Villa de Vicente Noble"],"latitude":"18.38443","longitude":"-71.18009","feature_class":"P","feature_code":"PPL","country_code":"DO","cc2":"","admin1_code":"03","admin2_code":"","admin3_code":"","admin4_code":"","population":"11060","elevation":"","dem":"36","timezone":"America/Santo_Domingo","modification_date":"2012-01-16"},{"geonameid":"3492073","name":"Veragua Arriba","asciiname":"Veragua Arriba","alternatenames":["Veragua","Veragua Arriba"],"latitude":"19.58333","longitude":"-70.33333","feature_class":"P","feature_code":"PPL","country_code":"DO","cc2":"","admin1_code":"08","admin2_code":"","admin3_code":"","admin4_code":"","population":"5858","elevation":"","dem":"108","timezone":"America/Santo_Domingo","modification_date":"2010-08-09"},{"geonameid":"3492123","name":"Vallejuelo","asciiname":"Vallejuelo","alternatenames":["Vallejuelo"],"latitude":"18.65354","longitude":"-71.33431","feature_class":"P","feature_code":"PPL","country_code":"DO","cc2":"","admin1_code":"23","admin2_code":"","admin3_code":"","admin4_code":"","population":"5217","elevation":"","dem":"675","timezone":"America/Santo_Domingo","modification_date":"2012-01-16"},{"geonameid":"3492477","name":"Tenares","asciiname":"Tenares","alternatenames":["Tenares","Villa Tenares","Villa de Tenares"],"latitude":"19.37439","longitude":"-70.35087","feature_class":"P","feature_code":"PPL","country_code":"DO","cc2":"","admin1_code":"19","admin2_code":"","admin3_code":"","admin4_code":"","population":"7390","elevation":"","dem":"173","timezone":"America/Santo_Domingo","modification_date":"2012-01-16"},{"geonameid":"3492517","name":"Tamboril","asciiname":"Tamboril","alternatenames":["Pena","Peña","Tamboril"],"latitude":"19.48538","longitude":"-70.61104","feature_class":"P","feature_code":"PPL","country_code":"DO","cc2":"","admin1_code":"25","admin2_code":"","admin3_code":"","admin4_code":"","population":"23304","elevation":"","dem":"266","timezone":"America/Santo_Domingo","modification_date":"2012-01-16"},{"geonameid":"3492520","name":"Tamayo","asciiname":"Tamayo","alternatenames":["Tamayo"],"latitude":"18.3947","longitude":"-71.2029","feature_class":"P","feature_code":"PPL","country_code":"DO","cc2":"","admin1_code":"02","admin2_code":"","admin3_code":"","admin4_code":"","population":"6429","elevation":"","dem":"32","timezone":"America/Santo_Domingo","modification_date":"2012-05-05"},{"geonameid":"3492897","name":"San Víctor Arriba","asciiname":"San Victor Arriba","alternatenames":["San Victor","San Victor Arriba","San Víctor Arriba"],"latitude":"19.47741","longitude":"-70.53585","feature_class":"P","feature_code":"PPL","country_code":"DO","cc2":"","admin1_code":"08","admin2_code":"","admin3_code":"","admin4_code":"","population":"5624","elevation":"","dem":"530","timezone":"America/Santo_Domingo","modification_date":"2012-01-16"},{"geonameid":"3492908","name":"Santo Domingo","asciiname":"Santo Domingo","alternatenames":["Ciudad Trujillo","SDQ","Saint Domingue","Santo Domingo","Santo Domingo City","Santo Domingo de Guzman","Santo Domingo de Guzmán","Santo Ntomin'nko","Santo-Domingo","Σάντο Ντομίνγκο","Санто-Доминго"],"latitude":"18.50012","longitude":"-69.98857","feature_class":"P","feature_code":"PPLC","country_code":"DO","cc2":"","admin1_code":"34","admin2_code":"","admin3_code":"","admin4_code":"","population":"2201941","elevation":"","dem":"55","timezone":"America/Santo_Domingo","modification_date":"2014-06-17"},{"geonameid":"3492914","name":"Santiago de los Caballeros","asciiname":"Santiago de los Caballeros","alternatenames":["STI","Sant'jago-de-los-Kabal'eros","Sant'jago-de-los-Trejnta-Kabal'eros","Santiago","Santiago de los Caballeros","Santiago de los Kampagieros","Santjago de los Kabaljerosas","santiagodeloseukabayeloseu","sheng de ya ge","Σαντιάγο δε λος Καμπαγιέρος","Сантьяго-де-лос-Кабальерос","Сантьяго-де-лос-Трейнта-Кабальерос","サンティアゴ・デ・ロス・カバリェロス","聖地牙哥","산티아고데로스카바예로스"],"latitude":"19.4517","longitude":"-70.69703","feature_class":"P","feature_code":"PPLA","country_code":"DO","cc2":"","admin1_code":"25","admin2_code":"","admin3_code":"","admin4_code":"","population":"1200000","elevation":"","dem":"199","timezone":"America/Santo_Domingo","modification_date":"2014-06-22"},{"geonameid":"3492984","name":"Santa Cruz de El Seibo","asciiname":"Santa Cruz de El Seibo","alternatenames":["El Seibo","Santa Cruz de El Seibo","Santa Cruz del Seibo","Santa Cruz del Seybo","Seibo","Seybo"],"latitude":"18.76559","longitude":"-69.03886","feature_class":"P","feature_code":"PPLA","country_code":"DO","cc2":"","admin1_code":"28","admin2_code":"","admin3_code":"","admin4_code":"","population":"23547","elevation":"","dem":"106","timezone":"America/Santo_Domingo","modification_date":"2013-08-04"},{"geonameid":"3492985","name":"Santa Cruz de Barahona","asciiname":"Santa Cruz de Barahona","alternatenames":["BRX","Barahona","Santa Cruz de Barahona","Santa-Krus-de-Baraona","Санта-Крус-де-Бараона"],"latitude":"18.20854","longitude":"-71.10077","feature_class":"P","feature_code":"PPLA","country_code":"DO","cc2":"","admin1_code":"03","admin2_code":"","admin3_code":"","admin4_code":"","population":"77160","elevation":"","dem":"39","timezone":"America/Santo_Domingo","modification_date":"2012-01-14"},{"geonameid":"3492997","name":"Samaná","asciiname":"Samana","alternatenames":["Samana","Samaná","Santa Barbara de Samana","Santa Bárbara de Samaná","Самана"],"latitude":"19.20561","longitude":"-69.33685","feature_class":"P","feature_code":"PPLA","country_code":"DO","cc2":"","admin1_code":"20","admin2_code":"","admin3_code":"","admin4_code":"","population":"11432","elevation":"","dem":"15","timezone":"America/Santo_Domingo","modification_date":"2013-05-19"},{"geonameid":"3493022","name":"San Rafael del Yuma","asciiname":"San Rafael del Yuma","alternatenames":["San Rafael de Yuma","San Rafael del Yuma","Yuma"],"latitude":"18.42993","longitude":"-68.6739","feature_class":"P","feature_code":"PPL","country_code":"DO","cc2":"","admin1_code":"10","admin2_code":"","admin3_code":"","admin4_code":"","population":"5285","elevation":"","dem":"49","timezone":"America/Santo_Domingo","modification_date":"2012-01-16"},{"geonameid":"3493032","name":"San Pedro de Macorís","asciiname":"San Pedro de Macoris","alternatenames":["San Pedro Macoris","San Pedro de Macoris","San Pedro de Macorís"],"latitude":"18.46156","longitude":"-69.29718","feature_class":"P","feature_code":"PPLA","country_code":"DO","cc2":"","admin1_code":"24","admin2_code":"","admin3_code":"","admin4_code":"","population":"217899","elevation":"","dem":"8","timezone":"America/Santo_Domingo","modification_date":"2012-01-14"},{"geonameid":"3493081","name":"San Juan de la Maguana","asciiname":"San Juan de la Maguana","alternatenames":["SJM","San Juan","San Juan de la Maguana"],"latitude":"18.80588","longitude":"-71.22991","feature_class":"P","feature_code":"PPLA","country_code":"DO","cc2":"","admin1_code":"23","admin2_code":"","admin3_code":"","admin4_code":"","population":"72950","elevation":"","dem":"418","timezone":"America/Santo_Domingo","modification_date":"2013-11-16"},{"geonameid":"3493100","name":"San José de Ocoa","asciiname":"San Jose de Ocoa","alternatenames":["San Jose de Ocoa","San José de Ocoa"],"latitude":"18.54661","longitude":"-70.50631","feature_class":"P","feature_code":"PPLA","country_code":"DO","cc2":"","admin1_code":"36","admin2_code":"","admin3_code":"","admin4_code":"","population":"21148","elevation":"","dem":"481","timezone":"America/Santo_Domingo","modification_date":"2013-03-02"},{"geonameid":"3493103","name":"San José de Las Matas","asciiname":"San Jose de Las Matas","alternatenames":["San Jose de Las Matas","San Jose de los Matas","San José de Las Matas","San José de los Matas"],"latitude":"19.33915","longitude":"-70.93819","feature_class":"P","feature_code":"PPL","country_code":"DO","cc2":"","admin1_code":"25","admin2_code":"3493104","admin3_code":"","admin4_code":"","population":"9853","elevation":"","dem":"524","timezone":"America/Santo_Domingo","modification_date":"2014-08-13"},{"geonameid":"3493143","name":"San Gregorio de Nigua","asciiname":"San Gregorio de Nigua","alternatenames":["San Gregorio de Nigua"],"latitude":"18.38333","longitude":"-70.08333","feature_class":"P","feature_code":"PPL","country_code":"DO","cc2":"","admin1_code":"33","admin2_code":"","admin3_code":"","admin4_code":"","population":"11542","elevation":"","dem":"81","timezone":"America/Santo_Domingo","modification_date":"2012-01-16"},{"geonameid":"3493146","name":"San Francisco de Macorís","asciiname":"San Francisco de Macoris","alternatenames":["San Francisco de Macoris","San Francisco de Macorís"],"latitude":"19.30099","longitude":"-70.25259","feature_class":"P","feature_code":"PPLA","country_code":"DO","cc2":"","admin1_code":"06","admin2_code":"","admin3_code":"","admin4_code":"","population":"124763","elevation":"","dem":"121","timezone":"America/Santo_Domingo","modification_date":"2013-08-04"},{"geonameid":"3493174","name":"San Fernando de Monte Cristi","asciiname":"San Fernando de Monte Cristi","alternatenames":["Monte Cristi","Monte Cristy","Monte-Christi","San Fernando de Monte Cristi"],"latitude":"19.84826","longitude":"-71.64597","feature_class":"P","feature_code":"PPLA","country_code":"DO","cc2":"","admin1_code":"15","admin2_code":"","admin3_code":"","admin4_code":"","population":"17001","elevation":"","dem":"16","timezone":"America/Santo_Domingo","modification_date":"2012-08-12"},{"geonameid":"3493175","name":"Puerto Plata","asciiname":"Puerto Plata","alternatenames":["POP","Port Plata","Puerto Plata","San Felipe de Puerto Plata","San-Felipe-de-Puerto-Plata","Vilojati Puehrto Plata","sheng fei li-yin gang","Вилояти Пуэрто Плата","Сан-Феліпе-де-Пуерто-Плата","פוארטו פלטה","プエルト・プラタ","聖斐利-銀港"],"latitude":"19.79344","longitude":"-70.6884","feature_class":"P","feature_code":"PPLA","country_code":"DO","cc2":"","admin1_code":"18","admin2_code":"3494269","admin3_code":"","admin4_code":"","population":"146000","elevation":"","dem":"34","timezone":"America/Santo_Domingo","modification_date":"2014-07-18"},{"geonameid":"3493198","name":"Sánchez","asciiname":"Sanchez","alternatenames":["Sanchez","Sánchez"],"latitude":"19.2281","longitude":"-69.6137","feature_class":"P","feature_code":"PPL","country_code":"DO","cc2":"","admin1_code":"20","admin2_code":"","admin3_code":"","admin4_code":"","population":"11365","elevation":"","dem":"25","timezone":"America/Santo_Domingo","modification_date":"2012-02-01"},{"geonameid":"3493202","name":"San Carlos","asciiname":"San Carlos","alternatenames":["San Carlos"],"latitude":"18.48333","longitude":"-69.9","feature_class":"P","feature_code":"PPLX","country_code":"DO","cc2":"","admin1_code":"34","admin2_code":"","admin3_code":"","admin4_code":"","population":"13456","elevation":"","dem":"50","timezone":"America/Santo_Domingo","modification_date":"2013-05-05"},{"geonameid":"3493240","name":"Salvaleón de Higüey","asciiname":"Salvaleon de Higuey","alternatenames":["Higueey","Higuey","Higüey","Salvaleon de Higueey","Salvaleón de Higüey"],"latitude":"18.61501","longitude":"-68.70798","feature_class":"P","feature_code":"PPLA","country_code":"DO","cc2":"","admin1_code":"10","admin2_code":"","admin3_code":"","admin4_code":"","population":"123787","elevation":"","dem":"95","timezone":"America/Santo_Domingo","modification_date":"2012-01-14"},{"geonameid":"3493271","name":"Salsipuedes","asciiname":"Salsipuedes","alternatenames":[""],"latitude":"19.40552","longitude":"-70.37985","feature_class":"P","feature_code":"PPL","country_code":"DO","cc2":"","admin1_code":"19","admin2_code":"","admin3_code":"","admin4_code":"","population":"11675","elevation":"","dem":"252","timezone":"America/Santo_Domingo","modification_date":"2006-01-17"},{"geonameid":"3493283","name":"Salcedo","asciiname":"Salcedo","alternatenames":["Salcedo"],"latitude":"19.37762","longitude":"-70.41762","feature_class":"P","feature_code":"PPLA","country_code":"DO","cc2":"","admin1_code":"19","admin2_code":"","admin3_code":"","admin4_code":"","population":"45299","elevation":"","dem":"196","timezone":"America/Santo_Domingo","modification_date":"2013-08-03"},{"geonameid":"3493383","name":"Sabaneta","asciiname":"Sabaneta","alternatenames":["Sabaneta","San Ignacio de Sabaneta","Santiago Rodriguez","Santiago Rodríguez"],"latitude":"19.47793","longitude":"-71.34125","feature_class":"P","feature_code":"PPLA","country_code":"DO","cc2":"","admin1_code":"26","admin2_code":"","admin3_code":"","admin4_code":"","population":"16380","elevation":"","dem":"127","timezone":"America/Santo_Domingo","modification_date":"2012-01-14"},{"geonameid":"3493410","name":"Sabana Yegua","asciiname":"Sabana Yegua","alternatenames":["Sabana Yegua","Sabaneta Yegua"],"latitude":"18.71667","longitude":"-71.01667","feature_class":"P","feature_code":"PPL","country_code":"DO","cc2":"","admin1_code":"01","admin2_code":"","admin3_code":"","admin4_code":"","population":"10624","elevation":"","dem":"393","timezone":"America/Santo_Domingo","modification_date":"2012-01-16"},{"geonameid":"3493478","name":"Sabana Iglesia","asciiname":"Sabana Iglesia","alternatenames":["Sabana Iglesia"],"latitude":"19.32114","longitude":"-70.75992","feature_class":"P","feature_code":"PPL","country_code":"DO","cc2":"","admin1_code":"25","admin2_code":"","admin3_code":"","admin4_code":"","population":"5135","elevation":"","dem":"291","timezone":"America/Santo_Domingo","modification_date":"2012-01-16"},{"geonameid":"3493482","name":"Sabana Grande de Boyá","asciiname":"Sabana Grande de Boya","alternatenames":["Sabana Grande","Sabana Grande Boya","Sabana Grande Boyá","Sabana Grande de Boya","Sabana Grande de Boyá","Villa de Sabana Grande de Boya","Villa de Sabana Grande de Boyá"],"latitude":"18.94498","longitude":"-69.79331","feature_class":"P","feature_code":"PPL","country_code":"DO","cc2":"","admin1_code":"32","admin2_code":"","admin3_code":"","admin4_code":"","population":"16834","elevation":"","dem":"291","timezone":"America/Santo_Domingo","modification_date":"2012-01-16"},{"geonameid":"3493568","name":"Sabana de La Mar","asciiname":"Sabana de La Mar","alternatenames":["SNX","Sabana de La Mar","Sabana la Mar","Savana la Mar"],"latitude":"19.05934","longitude":"-69.38843","feature_class":"P","feature_code":"PPL","country_code":"DO","cc2":"","admin1_code":"29","admin2_code":"","admin3_code":"","admin4_code":"","population":"13977","elevation":"","dem":"9","timezone":"America/Santo_Domingo","modification_date":"2013-05-18"},{"geonameid":"3493743","name":"Río San Juan","asciiname":"Rio San Juan","alternatenames":["Laguna Grigri","Rio San Juan","Río San Juan"],"latitude":"19.64385","longitude":"-70.07635","feature_class":"P","feature_code":"PPL","country_code":"DO","cc2":"","admin1_code":"14","admin2_code":"","admin3_code":"","admin4_code":"","population":"8983","elevation":"","dem":"6","timezone":"America/Santo_Domingo","modification_date":"2012-01-16"},{"geonameid":"3493769","name":"Río Grande","asciiname":"Rio Grande","alternatenames":["Rio Grande","Río Grande"],"latitude":"19.66667","longitude":"-70.76667","feature_class":"P","feature_code":"PPL","country_code":"DO","cc2":"","admin1_code":"18","admin2_code":"","admin3_code":"","admin4_code":"","population":"20154","elevation":"","dem":"397","timezone":"America/Santo_Domingo","modification_date":"2013-05-05"},{"geonameid":"3493873","name":"Rincón","asciiname":"Rincon","alternatenames":[""],"latitude":"19.11938","longitude":"-70.40632","feature_class":"P","feature_code":"PPL","country_code":"DO","cc2":"","admin1_code":"30","admin2_code":"","admin3_code":"","admin4_code":"","population":"5909","elevation":"","dem":"88","timezone":"America/Santo_Domingo","modification_date":"2006-01-17"},{"geonameid":"3494121","name":"Quisqueya","asciiname":"Quisqueya","alternatenames":["Ingenio Quisquella","Quisqueya"],"latitude":"18.55542","longitude":"-69.40814","feature_class":"P","feature_code":"PPL","country_code":"DO","cc2":"","admin1_code":"24","admin2_code":"","admin3_code":"","admin4_code":"","population":"17694","elevation":"","dem":"30","timezone":"America/Santo_Domingo","modification_date":"2012-01-16"},{"geonameid":"3494242","name":"Punta Cana","asciiname":"Punta Cana","alternatenames":["PUJ","Punta Cana","Punta Kana","Punta-Kana","Пунта Кана","Пунта-Кана"],"latitude":"18.58182","longitude":"-68.40431","feature_class":"P","feature_code":"PPL","country_code":"DO","cc2":"","admin1_code":"23","admin2_code":"","admin3_code":"","admin4_code":"","population":"100023","elevation":"","dem":"28","timezone":"America/Santo_Domingo","modification_date":"2014-07-15"},{"geonameid":"3494768","name":"Pimentel","asciiname":"Pimentel","alternatenames":["Pimental","Pimentel"],"latitude":"19.18416","longitude":"-70.10884","feature_class":"P","feature_code":"PPL","country_code":"DO","cc2":"","admin1_code":"06","admin2_code":"","admin3_code":"","admin4_code":"","population":"9550","elevation":"","dem":"42","timezone":"America/Santo_Domingo","modification_date":"2012-01-16"},{"geonameid":"3494863","name":"Piedra Blanca","asciiname":"Piedra Blanca","alternatenames":["Piedra Blanca"],"latitude":"18.84431","longitude":"-70.31688","feature_class":"P","feature_code":"PPL","country_code":"DO","cc2":"","admin1_code":"31","admin2_code":"","admin3_code":"","admin4_code":"","population":"8531","elevation":"","dem":"180","timezone":"America/Santo_Domingo","modification_date":"2012-02-01"},{"geonameid":"3495020","name":"Peralta","asciiname":"Peralta","alternatenames":["Peralta","Pinar de Peralta"],"latitude":"18.58164","longitude":"-70.77029","feature_class":"P","feature_code":"PPL","country_code":"DO","cc2":"","admin1_code":"01","admin2_code":"","admin3_code":"","admin4_code":"","population":"7236","elevation":"","dem":"482","timezone":"America/Santo_Domingo","modification_date":"2012-01-16"},{"geonameid":"3495137","name":"Pedernales","asciiname":"Pedernales","alternatenames":["Anse a Pitre","Anse à Pitre","Pedernales","Puerto de Pedernales"],"latitude":"18.03838","longitude":"-71.74403","feature_class":"P","feature_code":"PPLA","country_code":"DO","cc2":"","admin1_code":"16","admin2_code":"","admin3_code":"","admin4_code":"","population":"11072","elevation":"","dem":"22","timezone":"America/Santo_Domingo","modification_date":"2012-08-12"},{"geonameid":"3495159","name":"Paya","asciiname":"Paya","alternatenames":[""],"latitude":"18.26196","longitude":"-70.2956","feature_class":"P","feature_code":"PPL","country_code":"DO","cc2":"","admin1_code":"35","admin2_code":"","admin3_code":"","admin4_code":"","population":"6916","elevation":"","dem":"47","timezone":"America/Santo_Domingo","modification_date":"2012-04-05"},{"geonameid":"3495272","name":"Paraíso","asciiname":"Paraiso","alternatenames":[""],"latitude":"17.99172","longitude":"-71.16526","feature_class":"P","feature_code":"PPL","country_code":"DO","cc2":"","admin1_code":"03","admin2_code":"","admin3_code":"","admin4_code":"","population":"6490","elevation":"","dem":"28","timezone":"America/Santo_Domingo","modification_date":"2006-01-17"},{"geonameid":"3495664","name":"Padre Las Casas","asciiname":"Padre Las Casas","alternatenames":["Padre Las Casas","Padre de las Casas","Villa de Padre Las Casas"],"latitude":"18.73172","longitude":"-70.93917","feature_class":"P","feature_code":"PPL","country_code":"DO","cc2":"","admin1_code":"01","admin2_code":"","admin3_code":"","admin4_code":"","population":"8485","elevation":"","dem":"518","timezone":"America/Santo_Domingo","modification_date":"2012-01-16"},{"geonameid":"3495694","name":"Otra Banda","asciiname":"Otra Banda","alternatenames":["Otra Banda"],"latitude":"18.65017","longitude":"-68.66281","feature_class":"P","feature_code":"PPL","country_code":"DO","cc2":"","admin1_code":"10","admin2_code":"","admin3_code":"","admin4_code":"","population":"6071","elevation":"","dem":"113","timezone":"America/Santo_Domingo","modification_date":"2012-01-16"},{"geonameid":"3495811","name":"Nizao","asciiname":"Nizao","alternatenames":["Hizao","Nizao","Villa de Nizao"],"latitude":"18.24697","longitude":"-70.21053","feature_class":"P","feature_code":"PPL","country_code":"DO","cc2":"","admin1_code":"35","admin2_code":"","admin3_code":"","admin4_code":"","population":"6530","elevation":"","dem":"29","timezone":"America/Santo_Domingo","modification_date":"2012-04-05"},{"geonameid":"3495857","name":"Neiba","asciiname":"Neiba","alternatenames":["Neiba","Neyba"],"latitude":"18.48137","longitude":"-71.41965","feature_class":"P","feature_code":"PPLA","country_code":"DO","cc2":"","admin1_code":"02","admin2_code":"3495858","admin3_code":"","admin4_code":"","population":"18670","elevation":"","dem":"25","timezone":"America/Santo_Domingo","modification_date":"2012-02-03"},{"geonameid":"3496021","name":"Nagua","asciiname":"Nagua","alternatenames":["Ciudad de Nagua","Julia Molina","Nagua","Villa Julia Molina","callejon a","Нагуа"],"latitude":"19.3832","longitude":"-69.8474","feature_class":"P","feature_code":"PPLA","country_code":"DO","cc2":"","admin1_code":"14","admin2_code":"","admin3_code":"","admin4_code":"","population":"33862","elevation":"","dem":"9","timezone":"America/Santo_Domingo","modification_date":"2012-01-14"},{"geonameid":"3496134","name":"Monte Plata","asciiname":"Monte Plata","alternatenames":["Monte Plata","San Antonio de Monte Plata","Монте Плата"],"latitude":"18.807","longitude":"-69.78399","feature_class":"P","feature_code":"PPLA","country_code":"DO","cc2":"","admin1_code":"32","admin2_code":"","admin3_code":"","admin4_code":"","population":"15532","elevation":"","dem":"55","timezone":"America/Santo_Domingo","modification_date":"2012-08-12"},{"geonameid":"3496284","name":"Monción","asciiname":"Moncion","alternatenames":["Benito Moncion","Benito Monción","Moncion","Monción","Villa de Moncion","Villa de Monción"],"latitude":"19.41083","longitude":"-71.15257","feature_class":"P","feature_code":"PPL","country_code":"DO","cc2":"","admin1_code":"26","admin2_code":"","admin3_code":"","admin4_code":"","population":"6625","elevation":"","dem":"372","timezone":"America/Santo_Domingo","modification_date":"2012-01-16"},{"geonameid":"3496331","name":"Moca","asciiname":"Moca","alternatenames":["Moca"],"latitude":"19.39352","longitude":"-70.52598","feature_class":"P","feature_code":"PPLA","country_code":"DO","cc2":"","admin1_code":"08","admin2_code":"3496332","admin3_code":"","admin4_code":"","population":"61834","elevation":"","dem":"191","timezone":"America/Santo_Domingo","modification_date":"2012-08-11"},{"geonameid":"3496396","name":"Miches","asciiname":"Miches","alternatenames":["El Jovero","Jovero","Miches"],"latitude":"18.98364","longitude":"-69.0476","feature_class":"P","feature_code":"PPL","country_code":"DO","cc2":"","admin1_code":"28","admin2_code":"","admin3_code":"","admin4_code":"","population":"9273","elevation":"","dem":"6","timezone":"America/Santo_Domingo","modification_date":"2012-01-16"},{"geonameid":"3496831","name":"Mao","asciiname":"Mao","alternatenames":["Mao","Santa Cruz de Mao","Valverde","Мао"],"latitude":"19.55186","longitude":"-71.07813","feature_class":"P","feature_code":"PPLA","country_code":"DO","cc2":"","admin1_code":"27","admin2_code":"","admin3_code":"","admin4_code":"","population":"48297","elevation":"","dem":"85","timezone":"America/Santo_Domingo","modification_date":"2013-08-04"},{"geonameid":"3498191","name":"Los Llanos","asciiname":"Los Llanos","alternatenames":["Los Llanos","San Jose de Los Llanos","San José de Los Llanos"],"latitude":"18.62035","longitude":"-69.49581","feature_class":"P","feature_code":"PPL","country_code":"DO","cc2":"","admin1_code":"24","admin2_code":"","admin3_code":"","admin4_code":"","population":"5529","elevation":"","dem":"45","timezone":"America/Santo_Domingo","modification_date":"2012-01-16"},{"geonameid":"3499602","name":"Loma de Cabrera","asciiname":"Loma de Cabrera","alternatenames":["Loma de Cabrera","Villa de Loma de Cabrera"],"latitude":"19.43333","longitude":"-71.6","feature_class":"P","feature_code":"PPL","country_code":"DO","cc2":"","admin1_code":"04","admin2_code":"","admin3_code":"","admin4_code":"","population":"6679","elevation":"","dem":"303","timezone":"America/Santo_Domingo","modification_date":"2012-01-16"},{"geonameid":"3499748","name":"Licey al Medio","asciiname":"Licey al Medio","alternatenames":[""],"latitude":"19.43333","longitude":"-70.6","feature_class":"P","feature_code":"PPL","country_code":"DO","cc2":"","admin1_code":"25","admin2_code":"","admin3_code":"","admin4_code":"","population":"6435","elevation":"","dem":"199","timezone":"America/Santo_Domingo","modification_date":"2006-01-17"},{"geonameid":"3500243","name":"Las Terrenas","asciiname":"Las Terrenas","alternatenames":["La Terenas","Las Terenas","Las Terrenas","Las Terreras","Laterriena","Terrenas"],"latitude":"19.31102","longitude":"-69.5428","feature_class":"P","feature_code":"PPL","country_code":"DO","cc2":"","admin1_code":"20","admin2_code":"","admin3_code":"","admin4_code":"","population":"7713","elevation":"","dem":"17","timezone":"America/Santo_Domingo","modification_date":"2012-01-16"},{"geonameid":"3500367","name":"Las Matas de Santa Cruz","asciiname":"Las Matas de Santa Cruz","alternatenames":["La Mata de Santa Cruz","Las Matas de Santa Cruz","Matas de Santa Cruz"],"latitude":"19.67119","longitude":"-71.50471","feature_class":"P","feature_code":"PPL","country_code":"DO","cc2":"","admin1_code":"15","admin2_code":"3500369","admin3_code":"","admin4_code":"","population":"10218","elevation":"","dem":"34","timezone":"America/Santo_Domingo","modification_date":"2014-08-13"},{"geonameid":"3500370","name":"Las Matas de Farfán","asciiname":"Las Matas de Farfan","alternatenames":["Las Matas","Las Matas de Farfan","Las Matas de Farfán","Las-Matas-de-Farfan","Matas de Farfan","Лас-Матас-де-Фарфан"],"latitude":"18.87309","longitude":"-71.51656","feature_class":"P","feature_code":"PPL","country_code":"DO","cc2":"","admin1_code":"23","admin2_code":"3500371","admin3_code":"","admin4_code":"","population":"21802","elevation":"","dem":"451","timezone":"America/Santo_Domingo","modification_date":"2014-08-13"},{"geonameid":"3500518","name":"Las Guáranas","asciiname":"Las Guaranas","alternatenames":["Las Guaranas","Las Guáranas"],"latitude":"19.1931","longitude":"-70.20835","feature_class":"P","feature_code":"PPL","country_code":"DO","cc2":"","admin1_code":"06","admin2_code":"","admin3_code":"","admin4_code":"","population":"9586","elevation":"","dem":"48","timezone":"America/Santo_Domingo","modification_date":"2012-02-01"},{"geonameid":"3500957","name":"La Romana","asciiname":"La Romana","alternatenames":["LRM","La Romana","La-Romana","Romana","Ла-Романа"],"latitude":"18.42733","longitude":"-68.97285","feature_class":"P","feature_code":"PPLA","country_code":"DO","cc2":"","admin1_code":"12","admin2_code":"","admin3_code":"","admin4_code":"","population":"208437","elevation":"","dem":"30","timezone":"America/Santo_Domingo","modification_date":"2012-08-12"},{"geonameid":"3502052","name":"La Julia","asciiname":"La Julia","alternatenames":["La Julia"],"latitude":"18.46667","longitude":"-69.93333","feature_class":"P","feature_code":"PPL","country_code":"DO","cc2":"","admin1_code":"34","admin2_code":"","admin3_code":"","admin4_code":"","population":"12575","elevation":"","dem":"57","timezone":"America/Santo_Domingo","modification_date":"2013-05-05"},{"geonameid":"3502373","name":"Laguna Salada","asciiname":"Laguna Salada","alternatenames":["Laguna Salada","Villa de Laguna Salada"],"latitude":"19.65043","longitude":"-71.08429","feature_class":"P","feature_code":"PPLA2","country_code":"DO","cc2":"","admin1_code":"27","admin2_code":"3502374","admin3_code":"","admin4_code":"","population":"7601","elevation":"","dem":"77","timezone":"America/Santo_Domingo","modification_date":"2014-08-10"},{"geonameid":"3502786","name":"La Descubierta","asciiname":"La Descubierta","alternatenames":["Descubierta","La Descubierta"],"latitude":"18.57053","longitude":"-71.72967","feature_class":"P","feature_code":"PPL","country_code":"DO","cc2":"","admin1_code":"09","admin2_code":"","admin3_code":"","admin4_code":"","population":"5521","elevation":"","dem":"31","timezone":"America/Santo_Domingo","modification_date":"2012-01-16"},{"geonameid":"3503735","name":"La Agustina","asciiname":"La Agustina","alternatenames":["La Agustina"],"latitude":"18.5","longitude":"-69.93333","feature_class":"P","feature_code":"PPLX","country_code":"DO","cc2":"","admin1_code":"34","admin2_code":"","admin3_code":"","admin4_code":"","population":"10457","elevation":"","dem":"31","timezone":"America/Santo_Domingo","modification_date":"2013-05-05"},{"geonameid":"3503900","name":"Juan de Herrera","asciiname":"Juan de Herrera","alternatenames":["Juan de Herrera"],"latitude":"18.87402","longitude":"-71.2383","feature_class":"P","feature_code":"PPL","country_code":"DO","cc2":"","admin1_code":"23","admin2_code":"","admin3_code":"","admin4_code":"","population":"5543","elevation":"","dem":"477","timezone":"America/Santo_Domingo","modification_date":"2012-02-01"},{"geonameid":"3504077","name":"Jimaní","asciiname":"Jimani","alternatenames":["Jimani","Jimaní","San Jose de Jimani","San José de Jimaní"],"latitude":"18.49169","longitude":"-71.85022","feature_class":"P","feature_code":"PPLA","country_code":"DO","cc2":"","admin1_code":"09","admin2_code":"","admin3_code":"","admin4_code":"","population":"6567","elevation":"","dem":"48","timezone":"America/Santo_Domingo","modification_date":"2012-01-14"},{"geonameid":"3504080","name":"Jima Abajo","asciiname":"Jima Abajo","alternatenames":["Jima","Jima Abajo"],"latitude":"19.13292","longitude":"-70.37607","feature_class":"P","feature_code":"PPL","country_code":"DO","cc2":"","admin1_code":"30","admin2_code":"","admin3_code":"","admin4_code":"","population":"6299","elevation":"","dem":"69","timezone":"America/Santo_Domingo","modification_date":"2012-01-16"},{"geonameid":"3504158","name":"Jarabacoa","asciiname":"Jarabacoa","alternatenames":["Jarabacoa","Kharabakoa","Харабакоа"],"latitude":"19.11683","longitude":"-70.63595","feature_class":"P","feature_code":"PPL","country_code":"DO","cc2":"","admin1_code":"30","admin2_code":"3504159","admin3_code":"","admin4_code":"","population":"29983","elevation":"","dem":"552","timezone":"America/Santo_Domingo","modification_date":"2014-07-18"},{"geonameid":"3504332","name":"Imbert","asciiname":"Imbert","alternatenames":["Bajabonico","Imbert"],"latitude":"19.75371","longitude":"-70.82906","feature_class":"P","feature_code":"PPL","country_code":"DO","cc2":"","admin1_code":"18","admin2_code":"","admin3_code":"","admin4_code":"","population":"8024","elevation":"","dem":"121","timezone":"America/Santo_Domingo","modification_date":"2012-01-16"},{"geonameid":"3504765","name":"Hato Mayor del Rey","asciiname":"Hato Mayor del Rey","alternatenames":["Hato Mayor","Hato Mayor del Rey"],"latitude":"18.76278","longitude":"-69.25681","feature_class":"P","feature_code":"PPLA","country_code":"DO","cc2":"","admin1_code":"29","admin2_code":"","admin3_code":"","admin4_code":"","population":"35999","elevation":"","dem":"106","timezone":"America/Santo_Domingo","modification_date":"2013-08-04"},{"geonameid":"3504951","name":"Guaymate","asciiname":"Guaymate","alternatenames":["Guaimate","Guaymate"],"latitude":"18.58793","longitude":"-68.97867","feature_class":"P","feature_code":"PPL","country_code":"DO","cc2":"","admin1_code":"12","admin2_code":"","admin3_code":"","admin4_code":"","population":"6224","elevation":"","dem":"88","timezone":"America/Santo_Domingo","modification_date":"2012-01-16"},{"geonameid":"3505488","name":"Gaspar Hernández","asciiname":"Gaspar Hernandez","alternatenames":["Gaspar Hernandez","Gaspar Hernández","Jaspar Hernandez"],"latitude":"19.62748","longitude":"-70.27772","feature_class":"P","feature_code":"PPL","country_code":"DO","cc2":"","admin1_code":"08","admin2_code":"","admin3_code":"","admin4_code":"","population":"6506","elevation":"","dem":"13","timezone":"America/Santo_Domingo","modification_date":"2014-05-22"},{"geonameid":"3505517","name":"Galván","asciiname":"Galvan","alternatenames":["Galvah","Galvan","Galváh","Galván"],"latitude":"18.50228","longitude":"-71.34271","feature_class":"P","feature_code":"PPL","country_code":"DO","cc2":"","admin1_code":"02","admin2_code":"","admin3_code":"","admin4_code":"","population":"6027","elevation":"","dem":"42","timezone":"America/Santo_Domingo","modification_date":"2012-01-16"},{"geonameid":"3505778","name":"Fantino","asciiname":"Fantino","alternatenames":["Fantino","Villa de Fantino"],"latitude":"19.12148","longitude":"-70.29972","feature_class":"P","feature_code":"PPL","country_code":"DO","cc2":"","admin1_code":"21","admin2_code":"","admin3_code":"","admin4_code":"","population":"10024","elevation":"","dem":"56","timezone":"America/Santo_Domingo","modification_date":"2012-01-16"},{"geonameid":"3505825","name":"Estebanía","asciiname":"Estebania","alternatenames":["Estebania","Estebanía"],"latitude":"18.4577","longitude":"-70.6435","feature_class":"P","feature_code":"PPL","country_code":"DO","cc2":"","admin1_code":"01","admin2_code":"","admin3_code":"","admin4_code":"","population":"5591","elevation":"","dem":"61","timezone":"America/Santo_Domingo","modification_date":"2012-01-16"},{"geonameid":"3505855","name":"Esperanza","asciiname":"Esperanza","alternatenames":["Esperanza"],"latitude":"19.58469","longitude":"-70.98489","feature_class":"P","feature_code":"PPL","country_code":"DO","cc2":"","admin1_code":"27","admin2_code":"","admin3_code":"","admin4_code":"","population":"42169","elevation":"","dem":"113","timezone":"America/Santo_Domingo","modification_date":"2012-02-01"},{"geonameid":"3505861","name":"Esperalvillo","asciiname":"Esperalvillo","alternatenames":["El Centro","El Esperalvillo","Esperalvilla","Esperalvillo","Peraldillo","Peralvillo"],"latitude":"18.81509","longitude":"-70.03557","feature_class":"P","feature_code":"PPL","country_code":"DO","cc2":"","admin1_code":"32","admin2_code":"","admin3_code":"","admin4_code":"","population":"5445","elevation":"","dem":"148","timezone":"America/Santo_Domingo","modification_date":"2012-01-16"},{"geonameid":"3505935","name":"Ensanche Luperón","asciiname":"Ensanche Luperon","alternatenames":["Ensanche Luperon","Ensanche Luperón"],"latitude":"18.5","longitude":"-69.9","feature_class":"P","feature_code":"PPLX","country_code":"DO","cc2":"","admin1_code":"34","admin2_code":"","admin3_code":"","admin4_code":"","population":"8576","elevation":"","dem":"44","timezone":"America/Santo_Domingo","modification_date":"2013-05-05"},{"geonameid":"3505947","name":"Enriquillo","asciiname":"Enriquillo","alternatenames":["Enriquilla","Enriquillo","Petit Trou"],"latitude":"17.9","longitude":"-71.23333","feature_class":"P","feature_code":"PPL","country_code":"DO","cc2":"","admin1_code":"03","admin2_code":"","admin3_code":"","admin4_code":"","population":"5423","elevation":"","dem":"51","timezone":"America/Santo_Domingo","modification_date":"2012-01-16"},{"geonameid":"3506034","name":"El Valle","asciiname":"El Valle","alternatenames":["El Valle","Villa Trujillo"],"latitude":"18.97567","longitude":"-69.37827","feature_class":"P","feature_code":"PPL","country_code":"DO","cc2":"","admin1_code":"29","admin2_code":"","admin3_code":"","admin4_code":"","population":"5666","elevation":"","dem":"42","timezone":"America/Santo_Domingo","modification_date":"2012-01-16"},{"geonameid":"3507628","name":"El Factor","asciiname":"El Factor","alternatenames":["El Factor"],"latitude":"19.31834","longitude":"-69.88827","feature_class":"P","feature_code":"PPL","country_code":"DO","cc2":"","admin1_code":"14","admin2_code":"","admin3_code":"","admin4_code":"","population":"7014","elevation":"","dem":"20","timezone":"America/Santo_Domingo","modification_date":"2012-01-16"},{"geonameid":"3508694","name":"Duvergé","asciiname":"Duverge","alternatenames":["Duverge","Duvergé","Las Damas"],"latitude":"18.37839","longitude":"-71.52469","feature_class":"P","feature_code":"PPL","country_code":"DO","cc2":"","admin1_code":"09","admin2_code":"","admin3_code":"","admin4_code":"","population":"13405","elevation":"","dem":"9","timezone":"America/Santo_Domingo","modification_date":"2012-01-16"},{"geonameid":"3508952","name":"Dajabón","asciiname":"Dajabon","alternatenames":["Dajabon","Dajabón"],"latitude":"19.54878","longitude":"-71.70829","feature_class":"P","feature_code":"PPLA","country_code":"DO","cc2":"","admin1_code":"04","admin2_code":"","admin3_code":"","admin4_code":"","population":"16398","elevation":"","dem":"38","timezone":"America/Santo_Domingo","modification_date":"2012-08-11"},{"geonameid":"3509183","name":"Cristo Rey","asciiname":"Cristo Rey","alternatenames":["Cristo Rey"],"latitude":"18.5","longitude":"-69.93333","feature_class":"P","feature_code":"PPLX","country_code":"DO","cc2":"","admin1_code":"34","admin2_code":"","admin3_code":"","admin4_code":"","population":"14325","elevation":"","dem":"31","timezone":"America/Santo_Domingo","modification_date":"2013-05-05"},{"geonameid":"3509207","name":"Cotuí","asciiname":"Cotui","alternatenames":["Cotui","Cotuy","Cotuí"],"latitude":"19.05272","longitude":"-70.14939","feature_class":"P","feature_code":"PPLA","country_code":"DO","cc2":"","admin1_code":"21","admin2_code":"","admin3_code":"","admin4_code":"","population":"41641","elevation":"","dem":"67","timezone":"America/Santo_Domingo","modification_date":"2012-01-14"},{"geonameid":"3509363","name":"Constanza","asciiname":"Constanza","alternatenames":["Constanza","Costanza","Konstancija","Villa de Constanza","Констанция"],"latitude":"18.90919","longitude":"-70.74499","feature_class":"P","feature_code":"PPL","country_code":"DO","cc2":"","admin1_code":"30","admin2_code":"3509366","admin3_code":"","admin4_code":"","population":"29481","elevation":"","dem":"1177","timezone":"America/Santo_Domingo","modification_date":"2014-08-09"},{"geonameid":"3509382","name":"Concepción de La Vega","asciiname":"Concepcion de La Vega","alternatenames":["Concepcion de La Vega","Concepcion de la Vega","Concepción de La Vega","Concepción de la Vega","La Vega"],"latitude":"19.22207","longitude":"-70.52956","feature_class":"P","feature_code":"PPLA","country_code":"DO","cc2":"","admin1_code":"30","admin2_code":"","admin3_code":"","admin4_code":"","population":"102426","elevation":"","dem":"101","timezone":"America/Santo_Domingo","modification_date":"2013-08-04"},{"geonameid":"3509386","name":"Comendador","asciiname":"Comendador","alternatenames":["Comendado","Comendador","Elias Pena","Elias Peña","Elias Pina","Elías Piña"],"latitude":"18.8775","longitude":"-71.70278","feature_class":"P","feature_code":"PPLA","country_code":"DO","cc2":"","admin1_code":"11","admin2_code":"","admin3_code":"","admin4_code":"","population":"12070","elevation":"","dem":"394","timezone":"America/Santo_Domingo","modification_date":"2012-08-11"},{"geonameid":"3509578","name":"Ciudad Nueva","asciiname":"Ciudad Nueva","alternatenames":["Ciudad Nueva"],"latitude":"18.46667","longitude":"-69.9","feature_class":"P","feature_code":"PPLX","country_code":"DO","cc2":"","admin1_code":"34","admin2_code":"","admin3_code":"","admin4_code":"","population":"18756","elevation":"","dem":"20","timezone":"America/Santo_Domingo","modification_date":"2013-05-05"},{"geonameid":"3509882","name":"Cercado Abajo","asciiname":"Cercado Abajo","alternatenames":["Cercado Abajo","El Cercado Abajo","El Sercado"],"latitude":"18.72681","longitude":"-71.51742","feature_class":"P","feature_code":"PPL","country_code":"DO","cc2":"","admin1_code":"23","admin2_code":"","admin3_code":"","admin4_code":"","population":"5316","elevation":"","dem":"740","timezone":"America/Santo_Domingo","modification_date":"2012-01-16"},{"geonameid":"3510065","name":"Castillo","asciiname":"Castillo","alternatenames":["Cachanes","Castillo","Villa de Castillo"],"latitude":"19.20824","longitude":"-70.02726","feature_class":"P","feature_code":"PPL","country_code":"DO","cc2":"","admin1_code":"06","admin2_code":"","admin3_code":"","admin4_code":"","population":"6328","elevation":"","dem":"80","timezone":"America/Santo_Domingo","modification_date":"2012-01-16"},{"geonameid":"3510637","name":"Cambita Garabitos","asciiname":"Cambita Garabitos","alternatenames":["Cambita","Cambita Garabitas","Cambita Garabito","Cambita Garabitos"],"latitude":"18.45458","longitude":"-70.19907","feature_class":"P","feature_code":"PPLA2","country_code":"DO","cc2":"","admin1_code":"33","admin2_code":"3510638","admin3_code":"","admin4_code":"","population":"13382","elevation":"","dem":"184","timezone":"America/Santo_Domingo","modification_date":"2014-08-09"},{"geonameid":"3510885","name":"Cabral","asciiname":"Cabral","alternatenames":["Cabral","Rincon","Rincon Nuevo"],"latitude":"18.25","longitude":"-71.21667","feature_class":"P","feature_code":"PPL","country_code":"DO","cc2":"","admin1_code":"03","admin2_code":"","admin3_code":"","admin4_code":"","population":"12303","elevation":"","dem":"21","timezone":"America/Santo_Domingo","modification_date":"2012-01-16"},{"geonameid":"3511233","name":"Bonao","asciiname":"Bonao","alternatenames":["Banao","Bonao","Monsenor Nouel","Monseñor Nouel","Бонао"],"latitude":"18.93687","longitude":"-70.40923","feature_class":"P","feature_code":"PPLA","country_code":"DO","cc2":"","admin1_code":"31","admin2_code":"","admin3_code":"","admin4_code":"","population":"73269","elevation":"","dem":"177","timezone":"America/Santo_Domingo","modification_date":"2012-08-12"},{"geonameid":"3511336","name":"Boca Chica","asciiname":"Boca Chica","alternatenames":["Boca Chica","Boka Chika","Бока Чика"],"latitude":"18.45","longitude":"-69.6","feature_class":"P","feature_code":"PPLA3","country_code":"DO","cc2":"","admin1_code":"37","admin2_code":"3492909","admin3_code":"","admin4_code":"","population":"46300","elevation":"","dem":"12","timezone":"America/Santo_Domingo","modification_date":"2014-08-12"},{"geonameid":"3511540","name":"San Cristóbal","asciiname":"San Cristobal","alternatenames":["Benemerita de San Cristobal","Benemérita de San Cristóbal","San Cristobal","San Cristóbal"],"latitude":"18.41667","longitude":"-70.1","feature_class":"P","feature_code":"PPLA","country_code":"DO","cc2":"","admin1_code":"33","admin2_code":"","admin3_code":"","admin4_code":"","population":"154040","elevation":"","dem":"33","timezone":"America/Santo_Domingo","modification_date":"2013-07-03"},{"geonameid":"3511550","name":"Bella Vista","asciiname":"Bella Vista","alternatenames":["Bella Vista"],"latitude":"18.45539","longitude":"-69.9454","feature_class":"P","feature_code":"PPLX","country_code":"DO","cc2":"","admin1_code":"34","admin2_code":"","admin3_code":"","admin4_code":"","population":"175683","elevation":"","dem":"50","timezone":"America/Santo_Domingo","modification_date":"2014-08-06"},{"geonameid":"3511626","name":"Bayaguana","asciiname":"Bayaguana","alternatenames":["Bayaguana","San Juan Bautista de Bayaguana","San Juan de Bayaguana"],"latitude":"18.75031","longitude":"-69.63525","feature_class":"P","feature_code":"PPL","country_code":"DO","cc2":"","admin1_code":"32","admin2_code":"3511627","admin3_code":"","admin4_code":"","population":"21055","elevation":"","dem":"59","timezone":"America/Santo_Domingo","modification_date":"2014-08-15"},{"geonameid":"3512067","name":"Baní","asciiname":"Bani","alternatenames":["Ban","Bani","Banti","Baní","Бан"],"latitude":"18.27964","longitude":"-70.33185","feature_class":"P","feature_code":"PPLA","country_code":"DO","cc2":"","admin1_code":"35","admin2_code":"","admin3_code":"","admin4_code":"","population":"66709","elevation":"","dem":"67","timezone":"America/Santo_Domingo","modification_date":"2013-08-04"},{"geonameid":"3512128","name":"Bajos de Haina","asciiname":"Bajos de Haina","alternatenames":["Bajos de Haina","Bajos de Jaina"],"latitude":"18.41538","longitude":"-70.03317","feature_class":"P","feature_code":"PPL","country_code":"DO","cc2":"","admin1_code":"33","admin2_code":"","admin3_code":"","admin4_code":"","population":"66784","elevation":"","dem":"36","timezone":"America/Santo_Domingo","modification_date":"2012-01-16"},{"geonameid":"3512208","name":"Azua","asciiname":"Azua","alternatenames":["Asua-de-Kompostela","Azua","Azua de Compostela","Compostela de Azua","Асуа-де-Компостела"],"latitude":"18.45319","longitude":"-70.7349","feature_class":"P","feature_code":"PPLA","country_code":"DO","cc2":"","admin1_code":"01","admin2_code":"3512211","admin3_code":"","admin4_code":"","population":"59139","elevation":"","dem":"86","timezone":"America/Santo_Domingo","modification_date":"2014-06-22"},{"geonameid":"7874116","name":"Santo Domingo Oeste","asciiname":"Santo Domingo Oeste","alternatenames":[""],"latitude":"18.5","longitude":"-70","feature_class":"P","feature_code":"PPL","country_code":"DO","cc2":"","admin1_code":"37","admin2_code":"","admin3_code":"","admin4_code":"","population":"701269","elevation":"","dem":"58","timezone":"America/Santo_Domingo","modification_date":"2013-08-17"},{"geonameid":"8601412","name":"Santo Domingo Este","asciiname":"Santo Domingo Este","alternatenames":["Santo Domingo Este"],"latitude":"18.48847","longitude":"-69.85707","feature_class":"P","feature_code":"PPLA","country_code":"DO","cc2":"","admin1_code":"37","admin2_code":"3492909","admin3_code":"","admin4_code":"","population":"0","elevation":"","dem":"46","timezone":"America/Santo_Domingo","modification_date":"2014-08-06"},{"geonameid":"3491941","name":"Villa Francisca","asciiname":"Villa Francisca","alternatenames":["Villa Francisca"],"latitude":"18.46667","longitude":"-69.9","feature_class":"P","feature_code":"PPLX","country_code":"DO","cc2":"","admin1_code":"34","admin2_code":"","admin3_code":"","admin4_code":"","population":"50185","elevation":"","dem":"20","timezone":"America/Santo_Domingo","modification_date":"2013-05-05"},{"geonameid":"3491946","name":"Villa Consuelo","asciiname":"Villa Consuelo","alternatenames":["Villa Consuelo"],"latitude":"18.48333","longitude":"-69.9","feature_class":"P","feature_code":"PPLX","country_code":"DO","cc2":"","admin1_code":"34","admin2_code":"","admin3_code":"","admin4_code":"","population":"28621","elevation":"","dem":"50","timezone":"America/Santo_Domingo","modification_date":"2013-05-05"},{"geonameid":"3491948","name":"Villa Bisonó","asciiname":"Villa Bisono","alternatenames":["Bisono","Bisonó","Jose E. Bisono","Jose Elias Bisono","José E. Bisonó","José Eliás Bisonó","Villa Bisono","Villa Bisonó"],"latitude":"19.56378","longitude":"-70.87582","feature_class":"P","feature_code":"PPL","country_code":"DO","cc2":"","admin1_code":"25","admin2_code":"","admin3_code":"","admin4_code":"","population":"33137","elevation":"","dem":"131","timezone":"America/Santo_Domingo","modification_date":"2012-01-16"},{"geonameid":"3491952","name":"Villa Altagracia","asciiname":"Villa Altagracia","alternatenames":["Vil'ja-Al'tagrasija","Villa Altagracia","Вилья-Альтаграсия"],"latitude":"18.67297","longitude":"-70.17095","feature_class":"P","feature_code":"PPL","country_code":"DO","cc2":"","admin1_code":"33","admin2_code":"","admin3_code":"","admin4_code":"","population":"40027","elevation":"","dem":"178","timezone":"America/Santo_Domingo","modification_date":"2012-01-16"},{"geonameid":"3492517","name":"Tamboril","asciiname":"Tamboril","alternatenames":["Pena","Peña","Tamboril"],"latitude":"19.48538","longitude":"-70.61104","feature_class":"P","feature_code":"PPL","country_code":"DO","cc2":"","admin1_code":"25","admin2_code":"","admin3_code":"","admin4_code":"","population":"23304","elevation":"","dem":"266","timezone":"America/Santo_Domingo","modification_date":"2012-01-16"},{"geonameid":"3492908","name":"Santo Domingo","asciiname":"Santo Domingo","alternatenames":["Ciudad Trujillo","SDQ","Saint Domingue","Santo Domingo","Santo Domingo City","Santo Domingo de Guzman","Santo Domingo de Guzmán","Santo Ntomin'nko","Santo-Domingo","Σάντο Ντομίνγκο","Санто-Доминго"],"latitude":"18.50012","longitude":"-69.98857","feature_class":"P","feature_code":"PPLC","country_code":"DO","cc2":"","admin1_code":"34","admin2_code":"","admin3_code":"","admin4_code":"","population":"2201941","elevation":"","dem":"55","timezone":"America/Santo_Domingo","modification_date":"2014-06-17"},{"geonameid":"3492914","name":"Santiago de los Caballeros","asciiname":"Santiago de los Caballeros","alternatenames":["STI","Sant'jago-de-los-Kabal'eros","Sant'jago-de-los-Trejnta-Kabal'eros","Santiago","Santiago de los Caballeros","Santiago de los Kampagieros","Santjago de los Kabaljerosas","santiagodeloseukabayeloseu","sheng de ya ge","Σαντιάγο δε λος Καμπαγιέρος","Сантьяго-де-лос-Кабальерос","Сантьяго-де-лос-Трейнта-Кабальерос","サンティアゴ・デ・ロス・カバリェロス","聖地牙哥","산티아고데로스카바예로스"],"latitude":"19.4517","longitude":"-70.69703","feature_class":"P","feature_code":"PPLA","country_code":"DO","cc2":"","admin1_code":"25","admin2_code":"","admin3_code":"","admin4_code":"","population":"1200000","elevation":"","dem":"199","timezone":"America/Santo_Domingo","modification_date":"2014-06-22"},{"geonameid":"3492984","name":"Santa Cruz de El Seibo","asciiname":"Santa Cruz de El Seibo","alternatenames":["El Seibo","Santa Cruz de El Seibo","Santa Cruz del Seibo","Santa Cruz del Seybo","Seibo","Seybo"],"latitude":"18.76559","longitude":"-69.03886","feature_class":"P","feature_code":"PPLA","country_code":"DO","cc2":"","admin1_code":"28","admin2_code":"","admin3_code":"","admin4_code":"","population":"23547","elevation":"","dem":"106","timezone":"America/Santo_Domingo","modification_date":"2013-08-04"},{"geonameid":"3492985","name":"Santa Cruz de Barahona","asciiname":"Santa Cruz de Barahona","alternatenames":["BRX","Barahona","Santa Cruz de Barahona","Santa-Krus-de-Baraona","Санта-Крус-де-Бараона"],"latitude":"18.20854","longitude":"-71.10077","feature_class":"P","feature_code":"PPLA","country_code":"DO","cc2":"","admin1_code":"03","admin2_code":"","admin3_code":"","admin4_code":"","population":"77160","elevation":"","dem":"39","timezone":"America/Santo_Domingo","modification_date":"2012-01-14"},{"geonameid":"3493032","name":"San Pedro de Macorís","asciiname":"San Pedro de Macoris","alternatenames":["San Pedro Macoris","San Pedro de Macoris","San Pedro de Macorís"],"latitude":"18.46156","longitude":"-69.29718","feature_class":"P","feature_code":"PPLA","country_code":"DO","cc2":"","admin1_code":"24","admin2_code":"","admin3_code":"","admin4_code":"","population":"217899","elevation":"","dem":"8","timezone":"America/Santo_Domingo","modification_date":"2012-01-14"},{"geonameid":"3493081","name":"San Juan de la Maguana","asciiname":"San Juan de la Maguana","alternatenames":["SJM","San Juan","San Juan de la Maguana"],"latitude":"18.80588","longitude":"-71.22991","feature_class":"P","feature_code":"PPLA","country_code":"DO","cc2":"","admin1_code":"23","admin2_code":"","admin3_code":"","admin4_code":"","population":"72950","elevation":"","dem":"418","timezone":"America/Santo_Domingo","modification_date":"2013-11-16"},{"geonameid":"3493100","name":"San José de Ocoa","asciiname":"San Jose de Ocoa","alternatenames":["San Jose de Ocoa","San José de Ocoa"],"latitude":"18.54661","longitude":"-70.50631","feature_class":"P","feature_code":"PPLA","country_code":"DO","cc2":"","admin1_code":"36","admin2_code":"","admin3_code":"","admin4_code":"","population":"21148","elevation":"","dem":"481","timezone":"America/Santo_Domingo","modification_date":"2013-03-02"},{"geonameid":"3493146","name":"San Francisco de Macorís","asciiname":"San Francisco de Macoris","alternatenames":["San Francisco de Macoris","San Francisco de Macorís"],"latitude":"19.30099","longitude":"-70.25259","feature_class":"P","feature_code":"PPLA","country_code":"DO","cc2":"","admin1_code":"06","admin2_code":"","admin3_code":"","admin4_code":"","population":"124763","elevation":"","dem":"121","timezone":"America/Santo_Domingo","modification_date":"2013-08-04"},{"geonameid":"3493174","name":"San Fernando de Monte Cristi","asciiname":"San Fernando de Monte Cristi","alternatenames":["Monte Cristi","Monte Cristy","Monte-Christi","San Fernando de Monte Cristi"],"latitude":"19.84826","longitude":"-71.64597","feature_class":"P","feature_code":"PPLA","country_code":"DO","cc2":"","admin1_code":"15","admin2_code":"","admin3_code":"","admin4_code":"","population":"17001","elevation":"","dem":"16","timezone":"America/Santo_Domingo","modification_date":"2012-08-12"},{"geonameid":"3493175","name":"Puerto Plata","asciiname":"Puerto Plata","alternatenames":["POP","Port Plata","Puerto Plata","San Felipe de Puerto Plata","San-Felipe-de-Puerto-Plata","Vilojati Puehrto Plata","sheng fei li-yin gang","Вилояти Пуэрто Плата","Сан-Феліпе-де-Пуерто-Плата","פוארטו פלטה","プエルト・プラタ","聖斐利-銀港"],"latitude":"19.79344","longitude":"-70.6884","feature_class":"P","feature_code":"PPLA","country_code":"DO","cc2":"","admin1_code":"18","admin2_code":"3494269","admin3_code":"","admin4_code":"","population":"146000","elevation":"","dem":"34","timezone":"America/Santo_Domingo","modification_date":"2014-07-18"},{"geonameid":"3493240","name":"Salvaleón de Higüey","asciiname":"Salvaleon de Higuey","alternatenames":["Higueey","Higuey","Higüey","Salvaleon de Higueey","Salvaleón de Higüey"],"latitude":"18.61501","longitude":"-68.70798","feature_class":"P","feature_code":"PPLA","country_code":"DO","cc2":"","admin1_code":"10","admin2_code":"","admin3_code":"","admin4_code":"","population":"123787","elevation":"","dem":"95","timezone":"America/Santo_Domingo","modification_date":"2012-01-14"},{"geonameid":"3493283","name":"Salcedo","asciiname":"Salcedo","alternatenames":["Salcedo"],"latitude":"19.37762","longitude":"-70.41762","feature_class":"P","feature_code":"PPLA","country_code":"DO","cc2":"","admin1_code":"19","admin2_code":"","admin3_code":"","admin4_code":"","population":"45299","elevation":"","dem":"196","timezone":"America/Santo_Domingo","modification_date":"2013-08-03"},{"geonameid":"3493383","name":"Sabaneta","asciiname":"Sabaneta","alternatenames":["Sabaneta","San Ignacio de Sabaneta","Santiago Rodriguez","Santiago Rodríguez"],"latitude":"19.47793","longitude":"-71.34125","feature_class":"P","feature_code":"PPLA","country_code":"DO","cc2":"","admin1_code":"26","admin2_code":"","admin3_code":"","admin4_code":"","population":"16380","elevation":"","dem":"127","timezone":"America/Santo_Domingo","modification_date":"2012-01-14"},{"geonameid":"3493482","name":"Sabana Grande de Boyá","asciiname":"Sabana Grande de Boya","alternatenames":["Sabana Grande","Sabana Grande Boya","Sabana Grande Boyá","Sabana Grande de Boya","Sabana Grande de Boyá","Villa de Sabana Grande de Boya","Villa de Sabana Grande de Boyá"],"latitude":"18.94498","longitude":"-69.79331","feature_class":"P","feature_code":"PPL","country_code":"DO","cc2":"","admin1_code":"32","admin2_code":"","admin3_code":"","admin4_code":"","population":"16834","elevation":"","dem":"291","timezone":"America/Santo_Domingo","modification_date":"2012-01-16"},{"geonameid":"3493769","name":"Río Grande","asciiname":"Rio Grande","alternatenames":["Rio Grande","Río Grande"],"latitude":"19.66667","longitude":"-70.76667","feature_class":"P","feature_code":"PPL","country_code":"DO","cc2":"","admin1_code":"18","admin2_code":"","admin3_code":"","admin4_code":"","population":"20154","elevation":"","dem":"397","timezone":"America/Santo_Domingo","modification_date":"2013-05-05"},{"geonameid":"3494121","name":"Quisqueya","asciiname":"Quisqueya","alternatenames":["Ingenio Quisquella","Quisqueya"],"latitude":"18.55542","longitude":"-69.40814","feature_class":"P","feature_code":"PPL","country_code":"DO","cc2":"","admin1_code":"24","admin2_code":"","admin3_code":"","admin4_code":"","population":"17694","elevation":"","dem":"30","timezone":"America/Santo_Domingo","modification_date":"2012-01-16"},{"geonameid":"3494242","name":"Punta Cana","asciiname":"Punta Cana","alternatenames":["PUJ","Punta Cana","Punta Kana","Punta-Kana","Пунта Кана","Пунта-Кана"],"latitude":"18.58182","longitude":"-68.40431","feature_class":"P","feature_code":"PPL","country_code":"DO","cc2":"","admin1_code":"23","admin2_code":"","admin3_code":"","admin4_code":"","population":"100023","elevation":"","dem":"28","timezone":"America/Santo_Domingo","modification_date":"2014-07-15"},{"geonameid":"3495857","name":"Neiba","asciiname":"Neiba","alternatenames":["Neiba","Neyba"],"latitude":"18.48137","longitude":"-71.41965","feature_class":"P","feature_code":"PPLA","country_code":"DO","cc2":"","admin1_code":"02","admin2_code":"3495858","admin3_code":"","admin4_code":"","population":"18670","elevation":"","dem":"25","timezone":"America/Santo_Domingo","modification_date":"2012-02-03"},{"geonameid":"3496021","name":"Nagua","asciiname":"Nagua","alternatenames":["Ciudad de Nagua","Julia Molina","Nagua","Villa Julia Molina","callejon a","Нагуа"],"latitude":"19.3832","longitude":"-69.8474","feature_class":"P","feature_code":"PPLA","country_code":"DO","cc2":"","admin1_code":"14","admin2_code":"","admin3_code":"","admin4_code":"","population":"33862","elevation":"","dem":"9","timezone":"America/Santo_Domingo","modification_date":"2012-01-14"},{"geonameid":"3496134","name":"Monte Plata","asciiname":"Monte Plata","alternatenames":["Monte Plata","San Antonio de Monte Plata","Монте Плата"],"latitude":"18.807","longitude":"-69.78399","feature_class":"P","feature_code":"PPLA","country_code":"DO","cc2":"","admin1_code":"32","admin2_code":"","admin3_code":"","admin4_code":"","population":"15532","elevation":"","dem":"55","timezone":"America/Santo_Domingo","modification_date":"2012-08-12"},{"geonameid":"3496331","name":"Moca","asciiname":"Moca","alternatenames":["Moca"],"latitude":"19.39352","longitude":"-70.52598","feature_class":"P","feature_code":"PPLA","country_code":"DO","cc2":"","admin1_code":"08","admin2_code":"3496332","admin3_code":"","admin4_code":"","population":"61834","elevation":"","dem":"191","timezone":"America/Santo_Domingo","modification_date":"2012-08-11"},{"geonameid":"3496831","name":"Mao","asciiname":"Mao","alternatenames":["Mao","Santa Cruz de Mao","Valverde","Мао"],"latitude":"19.55186","longitude":"-71.07813","feature_class":"P","feature_code":"PPLA","country_code":"DO","cc2":"","admin1_code":"27","admin2_code":"","admin3_code":"","admin4_code":"","population":"48297","elevation":"","dem":"85","timezone":"America/Santo_Domingo","modification_date":"2013-08-04"},{"geonameid":"3500370","name":"Las Matas de Farfán","asciiname":"Las Matas de Farfan","alternatenames":["Las Matas","Las Matas de Farfan","Las Matas de Farfán","Las-Matas-de-Farfan","Matas de Farfan","Лас-Матас-де-Фарфан"],"latitude":"18.87309","longitude":"-71.51656","feature_class":"P","feature_code":"PPL","country_code":"DO","cc2":"","admin1_code":"23","admin2_code":"3500371","admin3_code":"","admin4_code":"","population":"21802","elevation":"","dem":"451","timezone":"America/Santo_Domingo","modification_date":"2014-08-13"},{"geonameid":"3500957","name":"La Romana","asciiname":"La Romana","alternatenames":["LRM","La Romana","La-Romana","Romana","Ла-Романа"],"latitude":"18.42733","longitude":"-68.97285","feature_class":"P","feature_code":"PPLA","country_code":"DO","cc2":"","admin1_code":"12","admin2_code":"","admin3_code":"","admin4_code":"","population":"208437","elevation":"","dem":"30","timezone":"America/Santo_Domingo","modification_date":"2012-08-12"},{"geonameid":"3504158","name":"Jarabacoa","asciiname":"Jarabacoa","alternatenames":["Jarabacoa","Kharabakoa","Харабакоа"],"latitude":"19.11683","longitude":"-70.63595","feature_class":"P","feature_code":"PPL","country_code":"DO","cc2":"","admin1_code":"30","admin2_code":"3504159","admin3_code":"","admin4_code":"","population":"29983","elevation":"","dem":"552","timezone":"America/Santo_Domingo","modification_date":"2014-07-18"},{"geonameid":"3504765","name":"Hato Mayor del Rey","asciiname":"Hato Mayor del Rey","alternatenames":["Hato Mayor","Hato Mayor del Rey"],"latitude":"18.76278","longitude":"-69.25681","feature_class":"P","feature_code":"PPLA","country_code":"DO","cc2":"","admin1_code":"29","admin2_code":"","admin3_code":"","admin4_code":"","population":"35999","elevation":"","dem":"106","timezone":"America/Santo_Domingo","modification_date":"2013-08-04"},{"geonameid":"3505855","name":"Esperanza","asciiname":"Esperanza","alternatenames":["Esperanza"],"latitude":"19.58469","longitude":"-70.98489","feature_class":"P","feature_code":"PPL","country_code":"DO","cc2":"","admin1_code":"27","admin2_code":"","admin3_code":"","admin4_code":"","population":"42169","elevation":"","dem":"113","timezone":"America/Santo_Domingo","modification_date":"2012-02-01"},{"geonameid":"3508952","name":"Dajabón","asciiname":"Dajabon","alternatenames":["Dajabon","Dajabón"],"latitude":"19.54878","longitude":"-71.70829","feature_class":"P","feature_code":"PPLA","country_code":"DO","cc2":"","admin1_code":"04","admin2_code":"","admin3_code":"","admin4_code":"","population":"16398","elevation":"","dem":"38","timezone":"America/Santo_Domingo","modification_date":"2012-08-11"},{"geonameid":"3509207","name":"Cotuí","asciiname":"Cotui","alternatenames":["Cotui","Cotuy","Cotuí"],"latitude":"19.05272","longitude":"-70.14939","feature_class":"P","feature_code":"PPLA","country_code":"DO","cc2":"","admin1_code":"21","admin2_code":"","admin3_code":"","admin4_code":"","population":"41641","elevation":"","dem":"67","timezone":"America/Santo_Domingo","modification_date":"2012-01-14"},{"geonameid":"3509363","name":"Constanza","asciiname":"Constanza","alternatenames":["Constanza","Costanza","Konstancija","Villa de Constanza","Констанция"],"latitude":"18.90919","longitude":"-70.74499","feature_class":"P","feature_code":"PPL","country_code":"DO","cc2":"","admin1_code":"30","admin2_code":"3509366","admin3_code":"","admin4_code":"","population":"29481","elevation":"","dem":"1177","timezone":"America/Santo_Domingo","modification_date":"2014-08-09"},{"geonameid":"3509382","name":"Concepción de La Vega","asciiname":"Concepcion de La Vega","alternatenames":["Concepcion de La Vega","Concepcion de la Vega","Concepción de La Vega","Concepción de la Vega","La Vega"],"latitude":"19.22207","longitude":"-70.52956","feature_class":"P","feature_code":"PPLA","country_code":"DO","cc2":"","admin1_code":"30","admin2_code":"","admin3_code":"","admin4_code":"","population":"102426","elevation":"","dem":"101","timezone":"America/Santo_Domingo","modification_date":"2013-08-04"},{"geonameid":"3509578","name":"Ciudad Nueva","asciiname":"Ciudad Nueva","alternatenames":["Ciudad Nueva"],"latitude":"18.46667","longitude":"-69.9","feature_class":"P","feature_code":"PPLX","country_code":"DO","cc2":"","admin1_code":"34","admin2_code":"","admin3_code":"","admin4_code":"","population":"18756","elevation":"","dem":"20","timezone":"America/Santo_Domingo","modification_date":"2013-05-05"},{"geonameid":"3511233","name":"Bonao","asciiname":"Bonao","alternatenames":["Banao","Bonao","Monsenor Nouel","Monseñor Nouel","Бонао"],"latitude":"18.93687","longitude":"-70.40923","feature_class":"P","feature_code":"PPLA","country_code":"DO","cc2":"","admin1_code":"31","admin2_code":"","admin3_code":"","admin4_code":"","population":"73269","elevation":"","dem":"177","timezone":"America/Santo_Domingo","modification_date":"2012-08-12"},{"geonameid":"3511336","name":"Boca Chica","asciiname":"Boca Chica","alternatenames":["Boca Chica","Boka Chika","Бока Чика"],"latitude":"18.45","longitude":"-69.6","feature_class":"P","feature_code":"PPLA3","country_code":"DO","cc2":"","admin1_code":"37","admin2_code":"3492909","admin3_code":"","admin4_code":"","population":"46300","elevation":"","dem":"12","timezone":"America/Santo_Domingo","modification_date":"2014-08-12"},{"geonameid":"3511540","name":"San Cristóbal","asciiname":"San Cristobal","alternatenames":["Benemerita de San Cristobal","Benemérita de San Cristóbal","San Cristobal","San Cristóbal"],"latitude":"18.41667","longitude":"-70.1","feature_class":"P","feature_code":"PPLA","country_code":"DO","cc2":"","admin1_code":"33","admin2_code":"","admin3_code":"","admin4_code":"","population":"154040","elevation":"","dem":"33","timezone":"America/Santo_Domingo","modification_date":"2013-07-03"},{"geonameid":"3511550","name":"Bella Vista","asciiname":"Bella Vista","alternatenames":["Bella Vista"],"latitude":"18.45539","longitude":"-69.9454","feature_class":"P","feature_code":"PPLX","country_code":"DO","cc2":"","admin1_code":"34","admin2_code":"","admin3_code":"","admin4_code":"","population":"175683","elevation":"","dem":"50","timezone":"America/Santo_Domingo","modification_date":"2014-08-06"},{"geonameid":"3511626","name":"Bayaguana","asciiname":"Bayaguana","alternatenames":["Bayaguana","San Juan Bautista de Bayaguana","San Juan de Bayaguana"],"latitude":"18.75031","longitude":"-69.63525","feature_class":"P","feature_code":"PPL","country_code":"DO","cc2":"","admin1_code":"32","admin2_code":"3511627","admin3_code":"","admin4_code":"","population":"21055","elevation":"","dem":"59","timezone":"America/Santo_Domingo","modification_date":"2014-08-15"},{"geonameid":"3512067","name":"Baní","asciiname":"Bani","alternatenames":["Ban","Bani","Banti","Baní","Бан"],"latitude":"18.27964","longitude":"-70.33185","feature_class":"P","feature_code":"PPLA","country_code":"DO","cc2":"","admin1_code":"35","admin2_code":"","admin3_code":"","admin4_code":"","population":"66709","elevation":"","dem":"67","timezone":"America/Santo_Domingo","modification_date":"2013-08-04"},{"geonameid":"3512128","name":"Bajos de Haina","asciiname":"Bajos de Haina","alternatenames":["Bajos de Haina","Bajos de Jaina"],"latitude":"18.41538","longitude":"-70.03317","feature_class":"P","feature_code":"PPL","country_code":"DO","cc2":"","admin1_code":"33","admin2_code":"","admin3_code":"","admin4_code":"","population":"66784","elevation":"","dem":"36","timezone":"America/Santo_Domingo","modification_date":"2012-01-16"},{"geonameid":"3512208","name":"Azua","asciiname":"Azua","alternatenames":["Asua-de-Kompostela","Azua","Azua de Compostela","Compostela de Azua","Асуа-де-Компостела"],"latitude":"18.45319","longitude":"-70.7349","feature_class":"P","feature_code":"PPLA","country_code":"DO","cc2":"","admin1_code":"01","admin2_code":"3512211","admin3_code":"","admin4_code":"","population":"59139","elevation":"","dem":"86","timezone":"America/Santo_Domingo","modification_date":"2014-06-22"},{"geonameid":"7874116","name":"Santo Domingo Oeste","asciiname":"Santo Domingo Oeste","alternatenames":[""],"latitude":"18.5","longitude":"-70","feature_class":"P","feature_code":"PPL","country_code":"DO","cc2":"","admin1_code":"37","admin2_code":"","admin3_code":"","admin4_code":"","population":"701269","elevation":"","dem":"58","timezone":"America/Santo_Domingo","modification_date":"2013-08-17"}]}