{"country_data":{"ISO":"TL","ISO3":"TLS","ISO_Numeric":"626","fips":"TT","country":"East Timor","capital":"Dili","area":"15007","Population":"1154625","Continent":"OC","tld":".tl","CurrencyCode":"USD","CurrencyName":"Dollar","Phone":"670","Postal_Code_Format":"","Postal_Code_Regex":"","Languages":"tet,pt-TL,id,en","geonameid":"1966436","neighbours":"ID","EquivalentFipsCode":""},"cities":[{"geonameid":"1622471","name":"Viqueque","asciiname":"Viqueque","alternatenames":["VIQ","Vikeke","Viqueque","bikeke","wei ke ke","Викеке","維克克","비케케"],"latitude":"-8.8575","longitude":"126.36472","feature_class":"P","feature_code":"PPLA","country_code":"TL","cc2":"","admin1_code":"VI","admin2_code":"","admin3_code":"","admin4_code":"","population":"6078","elevation":"","dem":"55","timezone":"Asia/Dili","modification_date":"2013-06-30"},{"geonameid":"1626459","name":"Suai","asciiname":"Suai","alternatenames":["Soeai","Suai","Swai","UAI","su ai","蘇艾"],"latitude":"-9.31286","longitude":"125.25648","feature_class":"P","feature_code":"PPLA","country_code":"TL","cc2":"","admin1_code":"CO","admin2_code":"","admin3_code":"","admin4_code":"","population":"21539","elevation":"","dem":"73","timezone":"Asia/Dili","modification_date":"2013-08-06"},{"geonameid":"1632533","name":"Pante Makasar","asciiname":"Pante Makasar","alternatenames":["Pante Macassar","Pante Makasar","Pante-Makassar","Vila Taveiro"],"latitude":"-9.2","longitude":"124.38333","feature_class":"P","feature_code":"PPLA","country_code":"TL","cc2":"","admin1_code":"OE","admin2_code":"","admin3_code":"","admin4_code":"","population":"4730","elevation":"","dem":"24","timezone":"Asia/Dili","modification_date":"2013-08-06"},{"geonameid":"1635826","name":"Maubara","asciiname":"Maubara","alternatenames":["Maubara","Maubaru","Maubarú"],"latitude":"-8.61194","longitude":"125.20611","feature_class":"P","feature_code":"PPL","country_code":"TL","cc2":"TL","admin1_code":"LI","admin2_code":"","admin3_code":"","admin4_code":"","population":"16300","elevation":"","dem":"21","timezone":"Asia/Dili","modification_date":"2013-08-17"},{"geonameid":"1636526","name":"Manatuto","asciiname":"Manatuto","alternatenames":["Manatoetoe","Manatuto","Manatutu","Vila de Manatuto"],"latitude":"-8.51139","longitude":"126.01306","feature_class":"P","feature_code":"PPLA","country_code":"TL","cc2":"","admin1_code":"MT","admin2_code":"","admin3_code":"","admin4_code":"","population":"1924","elevation":"","dem":"8","timezone":"Asia/Dili","modification_date":"2013-06-30"},{"geonameid":"1636670","name":"Maliana","asciiname":"Maliana","alternatenames":["MPT","Maliana","ma li ya na","malliana","mariana","マリアナ","瑪利亞娜","말리아나"],"latitude":"-8.99167","longitude":"125.21972","feature_class":"P","feature_code":"PPLA","country_code":"TL","cc2":"","admin1_code":"BO","admin2_code":"","admin3_code":"","admin4_code":"","population":"22000","elevation":"","dem":"253","timezone":"Asia/Dili","modification_date":"2013-08-06"},{"geonameid":"1637730","name":"Liquica","asciiname":"Liquica","alternatenames":["Likisa","Likisia","Liquica","Liquissa","Vila de Liquica","Vila de Liquiçá","Vila de liquissa"],"latitude":"-8.5875","longitude":"125.34194","feature_class":"P","feature_code":"PPLA","country_code":"TL","cc2":"","admin1_code":"LI","admin2_code":"","admin3_code":"","admin4_code":"","population":"19000","elevation":"","dem":"23","timezone":"Asia/Dili","modification_date":"2013-06-30"},{"geonameid":"1645457","name":"Dili","asciiname":"Dili","alternatenames":["DIL","Delhi","Dilhi","Dili","Dili khot","Dilis","Dilli","Dilly","Dilo","Dily","Díli","Gorad Dyli","Nova Dili","Ntili","di li","dili","dilli","diri","dyly","tili","Ντίλι","Горад Дылі","Дили","Дили хот","Ділі","Դիլի","דילי","دىلى","ديلي","دیلی","ڈلی","दिली","দিলি","ਦੀਲੀ","டிலி","ಡಿಲಿ","ดิลี","དྷི་ལི།","ဒီလီမြို့","დილი","ディリ","帝力","딜리"],"latitude":"-8.55861","longitude":"125.57361","feature_class":"P","feature_code":"PPLC","country_code":"TL","cc2":"","admin1_code":"DI","admin2_code":"","admin3_code":"","admin4_code":"","population":"150000","elevation":"","dem":"3","timezone":"Asia/Dili","modification_date":"2013-05-12"},{"geonameid":"1649539","name":"Baucau","asciiname":"Baucau","alternatenames":["BCH","Bacau","Baucau","Baukau","Vila Salazar","bao kao","baukau","baw khaw","khet bea kea","Баукау","באוקאו","บาวคาว","เขตเบาเกา","包考","바우카우"],"latitude":"-8.47111","longitude":"126.45833","feature_class":"P","feature_code":"PPLA","country_code":"TL","cc2":"","admin1_code":"BA","admin2_code":"","admin3_code":"","admin4_code":"","population":"16000","elevation":"","dem":"425","timezone":"Asia/Dili","modification_date":"2013-08-06"},{"geonameid":"1651810","name":"Ainaro","asciiname":"Ainaro","alternatenames":["Ainaro","Ainaru","Builico","Dystrykt Ainaro","Hato-Builico","Vila de Ainaro"],"latitude":"-8.99241","longitude":"125.50816","feature_class":"P","feature_code":"PPLA","country_code":"TL","cc2":"","admin1_code":"AN","admin2_code":"7910190","admin3_code":"","admin4_code":"","population":"12000","elevation":"","dem":"820","timezone":"Asia/Dili","modification_date":"2013-08-06"},{"geonameid":"1651816","name":"Aileu","asciiname":"Aileu","alternatenames":["Aileu","Vila General Camona","Vila General Carmona"],"latitude":"-8.72806","longitude":"125.56639","feature_class":"P","feature_code":"PPLA","country_code":"TL","cc2":"","admin1_code":"AL","admin2_code":"7910186","admin3_code":"","admin4_code":"","population":"17356","elevation":"913","dem":"926","timezone":"Asia/Dili","modification_date":"2013-08-06"},{"geonameid":"1937031","name":"Same","asciiname":"Same","alternatenames":["Same"],"latitude":"-9.00581","longitude":"125.64617","feature_class":"P","feature_code":"PPLA","country_code":"TL","cc2":"","admin1_code":"MF","admin2_code":"","admin3_code":"","admin4_code":"","population":"25000","elevation":"","dem":"492","timezone":"Asia/Dili","modification_date":"2013-06-30"},{"geonameid":"1937274","name":"Lospalos","asciiname":"Lospalos","alternatenames":["Lospalos","loseupalloseu","rosuparosu","sheng bao luo","Лоспалос","ロスパロス","聖保羅","로스팔로스"],"latitude":"-8.51861","longitude":"127.0025","feature_class":"P","feature_code":"PPLA","country_code":"TL","cc2":"","admin1_code":"LA","admin2_code":"","admin3_code":"","admin4_code":"","population":"17186","elevation":"","dem":"387","timezone":"Asia/Dili","modification_date":"2013-08-06"},{"geonameid":"1942811","name":"Gleno","asciiname":"Gleno","alternatenames":["Glenas","Gleno"],"latitude":"-8.72389","longitude":"125.43611","feature_class":"P","feature_code":"PPL","country_code":"TL","cc2":"","admin1_code":"ER","admin2_code":"","admin3_code":"","admin4_code":"","population":"8133","elevation":"","dem":"709","timezone":"Asia/Dili","modification_date":"2014-01-15"},{"geonameid":"1943235","name":"Venilale","asciiname":"Venilale","alternatenames":["Venilale","Vila Vicosa","Vila Viçosa"],"latitude":"-8.64306","longitude":"126.37833","feature_class":"P","feature_code":"PPL","country_code":"TL","cc2":"","admin1_code":"BA","admin2_code":"","admin3_code":"","admin4_code":"","population":"16000","elevation":"","dem":"834","timezone":"Asia/Dili","modification_date":"2013-08-17"},{"geonameid":"1622471","name":"Viqueque","asciiname":"Viqueque","alternatenames":["VIQ","Vikeke","Viqueque","bikeke","wei ke ke","Викеке","維克克","비케케"],"latitude":"-8.8575","longitude":"126.36472","feature_class":"P","feature_code":"PPLA","country_code":"TL","cc2":"","admin1_code":"VI","admin2_code":"","admin3_code":"","admin4_code":"","population":"6078","elevation":"","dem":"55","timezone":"Asia/Dili","modification_date":"2013-06-30"},{"geonameid":"1626459","name":"Suai","asciiname":"Suai","alternatenames":["Soeai","Suai","Swai","UAI","su ai","蘇艾"],"latitude":"-9.31286","longitude":"125.25648","feature_class":"P","feature_code":"PPLA","country_code":"TL","cc2":"","admin1_code":"CO","admin2_code":"","admin3_code":"","admin4_code":"","population":"21539","elevation":"","dem":"73","timezone":"Asia/Dili","modification_date":"2013-08-06"},{"geonameid":"1632533","name":"Pante Makasar","asciiname":"Pante Makasar","alternatenames":["Pante Macassar","Pante Makasar","Pante-Makassar","Vila Taveiro"],"latitude":"-9.2","longitude":"124.38333","feature_class":"P","feature_code":"PPLA","country_code":"TL","cc2":"","admin1_code":"OE","admin2_code":"","admin3_code":"","admin4_code":"","population":"4730","elevation":"","dem":"24","timezone":"Asia/Dili","modification_date":"2013-08-06"},{"geonameid":"1635826","name":"Maubara","asciiname":"Maubara","alternatenames":["Maubara","Maubaru","Maubarú"],"latitude":"-8.61194","longitude":"125.20611","feature_class":"P","feature_code":"PPL","country_code":"TL","cc2":"TL","admin1_code":"LI","admin2_code":"","admin3_code":"","admin4_code":"","population":"16300","elevation":"","dem":"21","timezone":"Asia/Dili","modification_date":"2013-08-17"},{"geonameid":"1636526","name":"Manatuto","asciiname":"Manatuto","alternatenames":["Manatoetoe","Manatuto","Manatutu","Vila de Manatuto"],"latitude":"-8.51139","longitude":"126.01306","feature_class":"P","feature_code":"PPLA","country_code":"TL","cc2":"","admin1_code":"MT","admin2_code":"","admin3_code":"","admin4_code":"","population":"1924","elevation":"","dem":"8","timezone":"Asia/Dili","modification_date":"2013-06-30"},{"geonameid":"1636670","name":"Maliana","asciiname":"Maliana","alternatenames":["MPT","Maliana","ma li ya na","malliana","mariana","マリアナ","瑪利亞娜","말리아나"],"latitude":"-8.99167","longitude":"125.21972","feature_class":"P","feature_code":"PPLA","country_code":"TL","cc2":"","admin1_code":"BO","admin2_code":"","admin3_code":"","admin4_code":"","population":"22000","elevation":"","dem":"253","timezone":"Asia/Dili","modification_date":"2013-08-06"},{"geonameid":"1637730","name":"Liquica","asciiname":"Liquica","alternatenames":["Likisa","Likisia","Liquica","Liquissa","Vila de Liquica","Vila de Liquiçá","Vila de liquissa"],"latitude":"-8.5875","longitude":"125.34194","feature_class":"P","feature_code":"PPLA","country_code":"TL","cc2":"","admin1_code":"LI","admin2_code":"","admin3_code":"","admin4_code":"","population":"19000","elevation":"","dem":"23","timezone":"Asia/Dili","modification_date":"2013-06-30"},{"geonameid":"1645457","name":"Dili","asciiname":"Dili","alternatenames":["DIL","Delhi","Dilhi","Dili","Dili khot","Dilis","Dilli","Dilly","Dilo","Dily","Díli","Gorad Dyli","Nova Dili","Ntili","di li","dili","dilli","diri","dyly","tili","Ντίλι","Горад Дылі","Дили","Дили хот","Ділі","Դիլի","דילי","دىلى","ديلي","دیلی","ڈلی","दिली","দিলি","ਦੀਲੀ","டிலி","ಡಿಲಿ","ดิลี","དྷི་ལི།","ဒီလီမြို့","დილი","ディリ","帝力","딜리"],"latitude":"-8.55861","longitude":"125.57361","feature_class":"P","feature_code":"PPLC","country_code":"TL","cc2":"","admin1_code":"DI","admin2_code":"","admin3_code":"","admin4_code":"","population":"150000","elevation":"","dem":"3","timezone":"Asia/Dili","modification_date":"2013-05-12"},{"geonameid":"1649539","name":"Baucau","asciiname":"Baucau","alternatenames":["BCH","Bacau","Baucau","Baukau","Vila Salazar","bao kao","baukau","baw khaw","khet bea kea","Баукау","באוקאו","บาวคาว","เขตเบาเกา","包考","바우카우"],"latitude":"-8.47111","longitude":"126.45833","feature_class":"P","feature_code":"PPLA","country_code":"TL","cc2":"","admin1_code":"BA","admin2_code":"","admin3_code":"","admin4_code":"","population":"16000","elevation":"","dem":"425","timezone":"Asia/Dili","modification_date":"2013-08-06"},{"geonameid":"1651810","name":"Ainaro","asciiname":"Ainaro","alternatenames":["Ainaro","Ainaru","Builico","Dystrykt Ainaro","Hato-Builico","Vila de Ainaro"],"latitude":"-8.99241","longitude":"125.50816","feature_class":"P","feature_code":"PPLA","country_code":"TL","cc2":"","admin1_code":"AN","admin2_code":"7910190","admin3_code":"","admin4_code":"","population":"12000","elevation":"","dem":"820","timezone":"Asia/Dili","modification_date":"2013-08-06"},{"geonameid":"1651816","name":"Aileu","asciiname":"Aileu","alternatenames":["Aileu","Vila General Camona","Vila General Carmona"],"latitude":"-8.72806","longitude":"125.56639","feature_class":"P","feature_code":"PPLA","country_code":"TL","cc2":"","admin1_code":"AL","admin2_code":"7910186","admin3_code":"","admin4_code":"","population":"17356","elevation":"913","dem":"926","timezone":"Asia/Dili","modification_date":"2013-08-06"},{"geonameid":"1937031","name":"Same","asciiname":"Same","alternatenames":["Same"],"latitude":"-9.00581","longitude":"125.64617","feature_class":"P","feature_code":"PPLA","country_code":"TL","cc2":"","admin1_code":"MF","admin2_code":"","admin3_code":"","admin4_code":"","population":"25000","elevation":"","dem":"492","timezone":"Asia/Dili","modification_date":"2013-06-30"},{"geonameid":"1937274","name":"Lospalos","asciiname":"Lospalos","alternatenames":["Lospalos","loseupalloseu","rosuparosu","sheng bao luo","Лоспалос","ロスパロス","聖保羅","로스팔로스"],"latitude":"-8.51861","longitude":"127.0025","feature_class":"P","feature_code":"PPLA","country_code":"TL","cc2":"","admin1_code":"LA","admin2_code":"","admin3_code":"","admin4_code":"","population":"17186","elevation":"","dem":"387","timezone":"Asia/Dili","modification_date":"2013-08-06"},{"geonameid":"1942811","name":"Gleno","asciiname":"Gleno","alternatenames":["Glenas","Gleno"],"latitude":"-8.72389","longitude":"125.43611","feature_class":"P","feature_code":"PPL","country_code":"TL","cc2":"","admin1_code":"ER","admin2_code":"","admin3_code":"","admin4_code":"","population":"8133","elevation":"","dem":"709","timezone":"Asia/Dili","modification_date":"2014-01-15"},{"geonameid":"1943235","name":"Venilale","asciiname":"Venilale","alternatenames":["Venilale","Vila Vicosa","Vila Viçosa"],"latitude":"-8.64306","longitude":"126.37833","feature_class":"P","feature_code":"PPL","country_code":"TL","cc2":"","admin1_code":"BA","admin2_code":"","admin3_code":"","admin4_code":"","population":"16000","elevation":"","dem":"834","timezone":"Asia/Dili","modification_date":"2013-08-17"},{"geonameid":"1626459","name":"Suai","asciiname":"Suai","alternatenames":["Soeai","Suai","Swai","UAI","su ai","蘇艾"],"latitude":"-9.31286","longitude":"125.25648","feature_class":"P","feature_code":"PPLA","country_code":"TL","cc2":"","admin1_code":"CO","admin2_code":"","admin3_code":"","admin4_code":"","population":"21539","elevation":"","dem":"73","timezone":"Asia/Dili","modification_date":"2013-08-06"},{"geonameid":"1635826","name":"Maubara","asciiname":"Maubara","alternatenames":["Maubara","Maubaru","Maubarú"],"latitude":"-8.61194","longitude":"125.20611","feature_class":"P","feature_code":"PPL","country_code":"TL","cc2":"TL","admin1_code":"LI","admin2_code":"","admin3_code":"","admin4_code":"","population":"16300","elevation":"","dem":"21","timezone":"Asia/Dili","modification_date":"2013-08-17"},{"geonameid":"1636670","name":"Maliana","asciiname":"Maliana","alternatenames":["MPT","Maliana","ma li ya na","malliana","mariana","マリアナ","瑪利亞娜","말리아나"],"latitude":"-8.99167","longitude":"125.21972","feature_class":"P","feature_code":"PPLA","country_code":"TL","cc2":"","admin1_code":"BO","admin2_code":"","admin3_code":"","admin4_code":"","population":"22000","elevation":"","dem":"253","timezone":"Asia/Dili","modification_date":"2013-08-06"},{"geonameid":"1637730","name":"Liquica","asciiname":"Liquica","alternatenames":["Likisa","Likisia","Liquica","Liquissa","Vila de Liquica","Vila de Liquiçá","Vila de liquissa"],"latitude":"-8.5875","longitude":"125.34194","feature_class":"P","feature_code":"PPLA","country_code":"TL","cc2":"","admin1_code":"LI","admin2_code":"","admin3_code":"","admin4_code":"","population":"19000","elevation":"","dem":"23","timezone":"Asia/Dili","modification_date":"2013-06-30"},{"geonameid":"1645457","name":"Dili","asciiname":"Dili","alternatenames":["DIL","Delhi","Dilhi","Dili","Dili khot","Dilis","Dilli","Dilly","Dilo","Dily","Díli","Gorad Dyli","Nova Dili","Ntili","di li","dili","dilli","diri","dyly","tili","Ντίλι","Горад Дылі","Дили","Дили хот","Ділі","Դիլի","דילי","دىلى","ديلي","دیلی","ڈلی","दिली","দিলি","ਦੀਲੀ","டிலி","ಡಿಲಿ","ดิลี","དྷི་ལི།","ဒီလီမြို့","დილი","ディリ","帝力","딜리"],"latitude":"-8.55861","longitude":"125.57361","feature_class":"P","feature_code":"PPLC","country_code":"TL","cc2":"","admin1_code":"DI","admin2_code":"","admin3_code":"","admin4_code":"","population":"150000","elevation":"","dem":"3","timezone":"Asia/Dili","modification_date":"2013-05-12"},{"geonameid":"1649539","name":"Baucau","asciiname":"Baucau","alternatenames":["BCH","Bacau","Baucau","Baukau","Vila Salazar","bao kao","baukau","baw khaw","khet bea kea","Баукау","באוקאו","บาวคาว","เขตเบาเกา","包考","바우카우"],"latitude":"-8.47111","longitude":"126.45833","feature_class":"P","feature_code":"PPLA","country_code":"TL","cc2":"","admin1_code":"BA","admin2_code":"","admin3_code":"","admin4_code":"","population":"16000","elevation":"","dem":"425","timezone":"Asia/Dili","modification_date":"2013-08-06"},{"geonameid":"1651816","name":"Aileu","asciiname":"Aileu","alternatenames":["Aileu","Vila General Camona","Vila General Carmona"],"latitude":"-8.72806","longitude":"125.56639","feature_class":"P","feature_code":"PPLA","country_code":"TL","cc2":"","admin1_code":"AL","admin2_code":"7910186","admin3_code":"","admin4_code":"","population":"17356","elevation":"913","dem":"926","timezone":"Asia/Dili","modification_date":"2013-08-06"},{"geonameid":"1937031","name":"Same","asciiname":"Same","alternatenames":["Same"],"latitude":"-9.00581","longitude":"125.64617","feature_class":"P","feature_code":"PPLA","country_code":"TL","cc2":"","admin1_code":"MF","admin2_code":"","admin3_code":"","admin4_code":"","population":"25000","elevation":"","dem":"492","timezone":"Asia/Dili","modification_date":"2013-06-30"},{"geonameid":"1937274","name":"Lospalos","asciiname":"Lospalos","alternatenames":["Lospalos","loseupalloseu","rosuparosu","sheng bao luo","Лоспалос","ロスパロス","聖保羅","로스팔로스"],"latitude":"-8.51861","longitude":"127.0025","feature_class":"P","feature_code":"PPLA","country_code":"TL","cc2":"","admin1_code":"LA","admin2_code":"","admin3_code":"","admin4_code":"","population":"17186","elevation":"","dem":"387","timezone":"Asia/Dili","modification_date":"2013-08-06"},{"geonameid":"1943235","name":"Venilale","asciiname":"Venilale","alternatenames":["Venilale","Vila Vicosa","Vila Viçosa"],"latitude":"-8.64306","longitude":"126.37833","feature_class":"P","feature_code":"PPL","country_code":"TL","cc2":"","admin1_code":"BA","admin2_code":"","admin3_code":"","admin4_code":"","population":"16000","elevation":"","dem":"834","timezone":"Asia/Dili","modification_date":"2013-08-17"}]}