{"country_data":{"ISO":"GE","ISO3":"GEO","ISO_Numeric":"268","fips":"GG","country":"Georgia","capital":"Tbilisi","area":"69700","Population":"4630000","Continent":"AS","tld":".ge","CurrencyCode":"GEL","CurrencyName":"Lari","Phone":"995","Postal_Code_Format":"####","Postal_Code_Regex":"^(\\d{4})$","Languages":"ka,ru,hy,az","geonameid":"614540","neighbours":"AM,AZ,TR,RU","EquivalentFipsCode":""},"cities":[{"geonameid":"584502","name":"Abastumani","asciiname":"Abastumani","alternatenames":["Abastumani"],"latitude":"41.7075","longitude":"42.84571","feature_class":"P","feature_code":"PPL","country_code":"GE","cc2":"","admin1_code":"00","admin2_code":"","admin3_code":"","admin4_code":"","population":"1285","elevation":"","dem":"1203","timezone":"Asia/Tbilisi","modification_date":"2012-01-17"},{"geonameid":"610824","name":"Zugdidi","asciiname":"Zugdidi","alternatenames":["Sugdidi","Zugdidi","Zugdidis","Zygdidi","zugdidi","zwgdydy","Зугдиди","זוגדידי","ზუგდიდი"],"latitude":"42.5088","longitude":"41.87088","feature_class":"P","feature_code":"PPLA","country_code":"GE","cc2":"","admin1_code":"71","admin2_code":"610823","admin3_code":"","admin4_code":"","population":"73006","elevation":"","dem":"111","timezone":"Asia/Tbilisi","modification_date":"2015-06-04"},{"geonameid":"610849","name":"Zhinvali","asciiname":"Zhinvali","alternatenames":["Zhinvali","Zhinvani","Жинвали"],"latitude":"42.13181","longitude":"44.77264","feature_class":"P","feature_code":"PPL","country_code":"GE","cc2":"","admin1_code":"00","admin2_code":"","admin3_code":"","admin4_code":"","population":"3446","elevation":"","dem":"754","timezone":"Asia/Tbilisi","modification_date":"2014-06-26"},{"geonameid":"610864","name":"Zestap’oni","asciiname":"Zestap'oni","alternatenames":["Dshugeli","Dzhugeli","Kvirily","Namaneva","Sestafoni","Zestafoni","Zestap'oni","Zestaponi","Zestap’oni","Zetaponi","Zistafoni","Зестафони"],"latitude":"42.11","longitude":"43.0525","feature_class":"P","feature_code":"PPLA2","country_code":"GE","cc2":"","admin1_code":"66","admin2_code":"","admin3_code":"","admin4_code":"","population":"25891","elevation":"","dem":"201","timezone":"Asia/Tbilisi","modification_date":"2014-06-26"},{"geonameid":"611093","name":"Zahesi","asciiname":"Zahesi","alternatenames":["Zages","Zahesi"],"latitude":"41.82458","longitude":"44.75361","feature_class":"P","feature_code":"PPL","country_code":"GE","cc2":"","admin1_code":"00","admin2_code":"","admin3_code":"","admin4_code":"","population":"1933","elevation":"","dem":"487","timezone":"Asia/Tbilisi","modification_date":"2012-01-17"},{"geonameid":"611219","name":"Vani","asciiname":"Vani","alternatenames":["Bzvani","Vani","vani","Вани","ვანი"],"latitude":"42.0832","longitude":"42.52163","feature_class":"P","feature_code":"PPL","country_code":"GE","cc2":"","admin1_code":"66","admin2_code":"","admin3_code":"","admin4_code":"","population":"4265","elevation":"","dem":"70","timezone":"Asia/Tbilisi","modification_date":"2014-09-05"},{"geonameid":"611230","name":"Vale","asciiname":"Vale","alternatenames":["Vale","Вале"],"latitude":"41.61558","longitude":"42.87224","feature_class":"P","feature_code":"PPL","country_code":"GE","cc2":"","admin1_code":"00","admin2_code":"","admin3_code":"","admin4_code":"","population":"4733","elevation":"","dem":"1172","timezone":"Asia/Tbilisi","modification_date":"2014-06-27"},{"geonameid":"611274","name":"Urek’i","asciiname":"Urek'i","alternatenames":["Urek'i","Ureki","Urek’i","Уреки","ურეკი"],"latitude":"41.99556","longitude":"41.77861","feature_class":"P","feature_code":"PPL","country_code":"GE","cc2":"","admin1_code":"65","admin2_code":"","admin3_code":"","admin4_code":"","population":"1625","elevation":"","dem":"6","timezone":"Asia/Tbilisi","modification_date":"2014-06-27"},{"geonameid":"611373","name":"Tsnori","asciiname":"Tsnori","alternatenames":["Cnori","Sakobosubani","Tsnori","Tsnoristskali","Цнори"],"latitude":"41.62088","longitude":"45.96943","feature_class":"P","feature_code":"PPL","country_code":"GE","cc2":"","admin1_code":"00","admin2_code":"","admin3_code":"","admin4_code":"","population":"6609","elevation":"","dem":"296","timezone":"Asia/Tbilisi","modification_date":"2014-06-27"},{"geonameid":"611398","name":"Tsqnet’i","asciiname":"Tsqnet'i","alternatenames":["Ckhneti","Tskhneti","Tskneti","Tsqnet'i","Tsqnet’i","Цхнети"],"latitude":"41.69472","longitude":"44.69861","feature_class":"P","feature_code":"PPL","country_code":"GE","cc2":"","admin1_code":"00","admin2_code":"","admin3_code":"","admin4_code":"","population":"4172","elevation":"","dem":"947","timezone":"Asia/Tbilisi","modification_date":"2014-06-27"},{"geonameid":"611403","name":"Ts’khinvali","asciiname":"Ts'khinvali","alternatenames":["Chreba","Ckhinvali","Stalinir","Staliniri","Stavinir","Ts'khinvali","Tskhinval","Ts’khinvali","Цхинвали"],"latitude":"42.22764","longitude":"43.96861","feature_class":"P","feature_code":"PPL","country_code":"GE","cc2":"","admin1_code":"73","admin2_code":"","admin3_code":"","admin4_code":"","population":"30000","elevation":"","dem":"874","timezone":"Asia/Tbilisi","modification_date":"2015-05-24"},{"geonameid":"611492","name":"Tsinandali","asciiname":"Tsinandali","alternatenames":["Cinandali","Tsinandali","Tsinondali","tsʼinandali","Цинандали","წინანდალი"],"latitude":"41.89315","longitude":"45.57129","feature_class":"P","feature_code":"PPL","country_code":"GE","cc2":"","admin1_code":"67","admin2_code":"","admin3_code":"","admin4_code":"","population":"3800","elevation":"","dem":"605","timezone":"Asia/Tbilisi","modification_date":"2013-08-05"},{"geonameid":"611548","name":"Tsalka","asciiname":"Tsalka","alternatenames":["Barmaksiz","Barmaksus","Barmaksys","Calka","Khram","Tsalka","Цалка"],"latitude":"41.5946","longitude":"44.08909","feature_class":"P","feature_code":"PPLA2","country_code":"GE","cc2":"","admin1_code":"68","admin2_code":"7667714","admin3_code":"","admin4_code":"","population":"1570","elevation":"","dem":"1482","timezone":"Asia/Tbilisi","modification_date":"2014-06-26"},{"geonameid":"611551","name":"Tsalenjikha","asciiname":"Tsalenjikha","alternatenames":["Calendzhikha","Tsalendzhikha","Tsalenjikha","Цаленджиха","წალენჯიხა"],"latitude":"42.60444","longitude":"42.06825","feature_class":"P","feature_code":"PPL","country_code":"GE","cc2":"","admin1_code":"71","admin2_code":"","admin3_code":"","admin4_code":"","population":"8879","elevation":"","dem":"179","timezone":"Asia/Tbilisi","modification_date":"2013-08-05"},{"geonameid":"611564","name":"Tsaghveri","asciiname":"Tsaghveri","alternatenames":["Cagveri","Kurgan Tsagveri","Tsaghveri","Tsagveri","Цагвери","წაღვერი"],"latitude":"41.80365","longitude":"43.48194","feature_class":"P","feature_code":"PPL","country_code":"GE","cc2":"","admin1_code":"72","admin2_code":"","admin3_code":"","admin4_code":"","population":"2745","elevation":"","dem":"1082","timezone":"Asia/Tbilisi","modification_date":"2014-06-26"},{"geonameid":"611583","name":"Tqvarch'eli","asciiname":"Tqvarch'eli","alternatenames":["Tkuarchal","Tkvarcheli","Tkvarchely","Tkwartscheli","Ткуарчал"],"latitude":"42.84035","longitude":"41.68007","feature_class":"P","feature_code":"PPLA2","country_code":"GE","cc2":"","admin1_code":"02","admin2_code":"","admin3_code":"","admin4_code":"","population":"17847","elevation":"","dem":"227","timezone":"Asia/Tbilisi","modification_date":"2014-01-29"},{"geonameid":"611584","name":"Tqibuli","asciiname":"Tqibuli","alternatenames":["Tkbuli","Tkibuli","Tkvibeli","Tkvibuli","Tkwibuli","Tqibuli","Ткибули"],"latitude":"42.35121","longitude":"42.99874","feature_class":"P","feature_code":"PPL","country_code":"GE","cc2":"","admin1_code":"00","admin2_code":"","admin3_code":"","admin4_code":"","population":"13201","elevation":"","dem":"565","timezone":"Asia/Tbilisi","modification_date":"2014-03-15"},{"geonameid":"611669","name":"T’ianet’i","asciiname":"T'ianet'i","alternatenames":["T'ianet'i","Tianeti","Tianety","Tioneti","Tionety","T’ianet’i","Тианети"],"latitude":"42.10833","longitude":"44.96389","feature_class":"P","feature_code":"PPLA2","country_code":"GE","cc2":"","admin1_code":"69","admin2_code":"611668","admin3_code":"","admin4_code":"","population":"0","elevation":"","dem":"1107","timezone":"Asia/Tbilisi","modification_date":"2014-06-26"},{"geonameid":"611674","name":"T’et’ri Tsqaro","asciiname":"T'et'ri Tsqaro","alternatenames":["Agbulag","Agbulak","Agbulakh","Agbularh","Baly Kluch","Belyy-Klyuch","T'et'ri Tsqaro","Tetri-Ckaro","Tetri-Tskaro","T’et’ri Tsqaro","Тетри-Цкаро"],"latitude":"41.54448","longitude":"44.46153","feature_class":"P","feature_code":"PPL","country_code":"GE","cc2":"","admin1_code":"68","admin2_code":"","admin3_code":"","admin4_code":"","population":"3624","elevation":"","dem":"1174","timezone":"Asia/Tbilisi","modification_date":"2012-01-17"},{"geonameid":"611694","name":"Telavi","asciiname":"Telavi","alternatenames":["T'elavi","Telav","Telavi","Telavis","Telawi","Telev","Thelavi","telavi","Телави","თელავი"],"latitude":"41.91978","longitude":"45.47315","feature_class":"P","feature_code":"PPLA","country_code":"GE","cc2":"","admin1_code":"67","admin2_code":"7667581","admin3_code":"","admin4_code":"","population":"21800","elevation":"","dem":"722","timezone":"Asia/Tbilisi","modification_date":"2014-07-08"},{"geonameid":"611717","name":"Tbilisi","asciiname":"Tbilisi","alternatenames":["Gorad Tbilisi","TBS","Tbilis","Tbilisi","Tbilisi - tbilisi","Tbilisi - თბილისი","Tbilisi osh","Tbilisis","Tbiliso","Tbilissi","Tbilisy","Tbiliszi","Tbilsi","Tblisi","Thbilisi","Tibilisi","Tiblisi","Tibîlîsî","Tiflis","Tiphlida","Tpilisi","Triphelis","Ttuplis","Tíblisi","Tíflis","Tıflis","di bi li si","karti","tbilisi","tblys","tblysy","tbylysy","teubillisi","tfls","tflys","thbi li si","thbilisi","tipilici","tobirishi","Τιφλίδα","Горад Тбілісі","Тбилис","Тбилиси","Тбилиси ош","Тбилисӣ","Тбілісі","Ттуплис","Қарҭ","Թբիլիսի","טביליסי","تبليسي","تبلیس","تبلیسی","تبىلىسى","تفلیس","طفلس","ܛܒܝܠܝܣܝ","त्बिलिसी","थ्बिलीसी","তিবি‌লিসি","திபிலீசி","ทบิลิซิ","ཁྲེ་བྷི་ལི་སི།","თბილისი","ქართი","ትብሊሲ","トビリシ","第比利斯","트빌리시"],"latitude":"41.69411","longitude":"44.83368","feature_class":"P","feature_code":"PPLC","country_code":"GE","cc2":"","admin1_code":"51","admin2_code":"","admin3_code":"","admin4_code":"","population":"1049498","elevation":"","dem":"491","timezone":"Asia/Tbilisi","modification_date":"2012-05-22"},{"geonameid":"611809","name":"Surami","asciiname":"Surami","alternatenames":["Ssuromi","Suram","Surami","Сурами"],"latitude":"42.02431","longitude":"43.55556","feature_class":"P","feature_code":"PPL","country_code":"GE","cc2":"","admin1_code":"28","admin2_code":"","admin3_code":"","admin4_code":"","population":"10091","elevation":"","dem":"745","timezone":"Asia/Tbilisi","modification_date":"2014-06-27"},{"geonameid":"611847","name":"Sokhumi","asciiname":"Sokhumi","alternatenames":["Akva","Aҟəa","SUI","Sochumi","Sohum","Sohumi","Sokhumi","Soukhoumi","Ssuchum","Suchum","Suchumi","Suhhumi","Suhumi","Suhumo","Sujumi","Sukhum","Sukhumi","Suĥumo","su hu mi","sufumi","suhumi","swhwmy","Аҟәа","Сухум","Сухуми","סוחומי","スフミ","苏呼米","수후미"],"latitude":"43.00697","longitude":"40.9893","feature_class":"P","feature_code":"PPLA","country_code":"GE","cc2":"","admin1_code":"02","admin2_code":"","admin3_code":"","admin4_code":"","population":"81546","elevation":"","dem":"21","timezone":"Asia/Tbilisi","modification_date":"2014-03-15"},{"geonameid":"611902","name":"Sighnaghi","asciiname":"Sighnaghi","alternatenames":["Sighnaghi","Signagi","Signakh","Signakhi","Ssignachi","Сигнахи"],"latitude":"41.62046","longitude":"45.92198","feature_class":"P","feature_code":"PPL","country_code":"GE","cc2":"","admin1_code":"67","admin2_code":"","admin3_code":"","admin4_code":"","population":"1923","elevation":"","dem":"779","timezone":"Asia/Tbilisi","modification_date":"2014-06-26"},{"geonameid":"611936","name":"Shuakhevi","asciiname":"Shuakhevi","alternatenames":["Shuakhevi","shuakhevi","Шуахеви","შუახევი"],"latitude":"41.63","longitude":"42.19083","feature_class":"P","feature_code":"PPLA2","country_code":"GE","cc2":"","admin1_code":"04","admin2_code":"","admin3_code":"","admin4_code":"","population":"380","elevation":"","dem":"572","timezone":"Asia/Tbilisi","modification_date":"2014-06-27"},{"geonameid":"611964","name":"Shorapani","asciiname":"Shorapani","alternatenames":["Schorapani","Schorpani","Sharadan'","Sharadan’","Shorapan'","Shorapani","Shorapan’","Shorpani"],"latitude":"42.0898","longitude":"43.08662","feature_class":"P","feature_code":"PPL","country_code":"GE","cc2":"","admin1_code":"61","admin2_code":"","admin3_code":"","admin4_code":"","population":"1699","elevation":"","dem":"273","timezone":"Asia/Tbilisi","modification_date":"2012-01-17"},{"geonameid":"612012","name":"Naghvarevi","asciiname":"Naghvarevi","alternatenames":["Naghvarevi","Saulaveri","Schaumjani","Shaumiani","Shaumjani","Shaumyani","Shulaveri","Shulavery","Шаумяни"],"latitude":"41.35272","longitude":"44.76178","feature_class":"P","feature_code":"PPL","country_code":"GE","cc2":"","admin1_code":"00","admin2_code":"","admin3_code":"","admin4_code":"","population":"5238","elevation":"","dem":"493","timezone":"Asia/Tbilisi","modification_date":"2014-06-26"},{"geonameid":"612053","name":"Senak’i","asciiname":"Senak'i","alternatenames":["Achal Senaki","Akhalsenaki","Micha-Zchakaja","Mikha Tskhakaya","Novo-Senaki","Senak'i","Senaki","Senak’i","Tskhakaya","Tskhakuya","Сенаки","სენაკი"],"latitude":"42.27042","longitude":"42.0675","feature_class":"P","feature_code":"PPL","country_code":"GE","cc2":"","admin1_code":"71","admin2_code":"","admin3_code":"","admin4_code":"","population":"27752","elevation":"","dem":"36","timezone":"Asia/Tbilisi","modification_date":"2014-06-26"},{"geonameid":"612126","name":"Samtredia","asciiname":"Samtredia","alternatenames":["Samtredia","Ssamtredia","Самтредиа"],"latitude":"42.1537","longitude":"42.33517","feature_class":"P","feature_code":"PPL","country_code":"GE","cc2":"","admin1_code":"66","admin2_code":"","admin3_code":"","admin4_code":"","population":"28748","elevation":"","dem":"23","timezone":"Asia/Tbilisi","modification_date":"2014-06-27"},{"geonameid":"612230","name":"Sagarejo","asciiname":"Sagarejo","alternatenames":["Sagaredzho","Sagarejo","sagarejo","Сагареджо","საგარეჯო"],"latitude":"41.73397","longitude":"45.33149","feature_class":"P","feature_code":"PPL","country_code":"GE","cc2":"","admin1_code":"67","admin2_code":"","admin3_code":"","admin4_code":"","population":"12173","elevation":"","dem":"748","timezone":"Asia/Tbilisi","modification_date":"2013-08-05"},{"geonameid":"612287","name":"Rust’avi","asciiname":"Rust'avi","alternatenames":["Roustavi","Rust'avi","Rustavi","Rustavis","Rustawi","Rusthavi","Rust’avi","rustavi","rwstwwy","Рустави","רוסתווי","რუსთავი"],"latitude":"41.54949","longitude":"44.99323","feature_class":"P","feature_code":"PPLA","country_code":"GE","cc2":"","admin1_code":"68","admin2_code":"","admin3_code":"","admin4_code":"","population":"50000","elevation":"","dem":"338","timezone":"Asia/Tbilisi","modification_date":"2014-03-15"},{"geonameid":"612338","name":"Qvareli","asciiname":"Qvareli","alternatenames":["Kvareli","Kvarely","Qvareli","Кварели"],"latitude":"41.95493","longitude":"45.81716","feature_class":"P","feature_code":"PPL","country_code":"GE","cc2":"","admin1_code":"67","admin2_code":"","admin3_code":"","admin4_code":"","population":"8612","elevation":"","dem":"442","timezone":"Asia/Tbilisi","modification_date":"2013-08-05"},{"geonameid":"612366","name":"P’ot’i","asciiname":"P'ot'i","alternatenames":["P'ot'i","Poti","P’ot’i","poti","Поти","ფოთი"],"latitude":"42.14616","longitude":"41.67197","feature_class":"P","feature_code":"PPL","country_code":"GE","cc2":"","admin1_code":"71","admin2_code":"","admin3_code":"","admin4_code":"","population":"47149","elevation":"","dem":"1","timezone":"Asia/Tbilisi","modification_date":"2012-01-17"},{"geonameid":"612502","name":"P’asanauri","asciiname":"P'asanauri","alternatenames":["P'asanauri","PASANAURI","Pasanaur","Pasanauri","Pasanuri","Passanauri","P’asanauri","ПАСАНАУРИ"],"latitude":"42.3506","longitude":"44.68912","feature_class":"P","feature_code":"PPL","country_code":"GE","cc2":"","admin1_code":"69","admin2_code":"7667575","admin3_code":"","admin4_code":"","population":"2904","elevation":"","dem":"1070","timezone":"Asia/Tbilisi","modification_date":"2012-01-17"},{"geonameid":"612536","name":"Ozurgeti","asciiname":"Ozurgeti","alternatenames":["Macharadse","Makharadze","Ozurget'i","Ozurgeti","Ozurgety","ozurgeti","Озургети","ოზურგეთი"],"latitude":"41.92442","longitude":"42.00682","feature_class":"P","feature_code":"PPLA","country_code":"GE","cc2":"","admin1_code":"65","admin2_code":"","admin3_code":"","admin4_code":"","population":"20636","elevation":"","dem":"84","timezone":"Asia/Tbilisi","modification_date":"2014-07-08"},{"geonameid":"612592","name":"Oni","asciiname":"Oni","alternatenames":["Oni","oni","Они","ონი"],"latitude":"42.57944","longitude":"43.4425","feature_class":"P","feature_code":"PPLA2","country_code":"GE","cc2":"","admin1_code":"70","admin2_code":"","admin3_code":"","admin4_code":"","population":"3012","elevation":"","dem":"838","timezone":"Asia/Tbilisi","modification_date":"2014-07-08"},{"geonameid":"612648","name":"Ochkhamuri","asciiname":"Ochkhamuri","alternatenames":["Och'khamuri","Ochkamuri","Ochkhamuri","ochkhamuri","Очхамури","ოჩხამური"],"latitude":"41.85975","longitude":"41.85309","feature_class":"P","feature_code":"PPL","country_code":"GE","cc2":"","admin1_code":"04","admin2_code":"","admin3_code":"","admin4_code":"","population":"2061","elevation":"","dem":"22","timezone":"Asia/Tbilisi","modification_date":"2014-06-27"},{"geonameid":"612652","name":"Och’amch’ire","asciiname":"Och'amch'ire","alternatenames":["Och'amch'ire","Ochamchira","Ochemchiri","Ochemchiry","Ochemechiri","Och’amch’ire","Otschemtschiri","Очамчира"],"latitude":"42.71232","longitude":"41.46863","feature_class":"P","feature_code":"PPLA2","country_code":"GE","cc2":"","admin1_code":"02","admin2_code":"","admin3_code":"","admin4_code":"","population":"15517","elevation":"","dem":"5","timezone":"Asia/Tbilisi","modification_date":"2014-01-29"},{"geonameid":"612691","name":"Ninotsminda","asciiname":"Ninotsminda","alternatenames":["Bogdanovka","Ninocminda","Ninotsminda","Ниноцминда","ეიეოწმინდა"],"latitude":"41.26458","longitude":"43.59161","feature_class":"P","feature_code":"PPLA2","country_code":"GE","cc2":"","admin1_code":"72","admin2_code":"7667662","admin3_code":"","admin4_code":"","population":"6141","elevation":"","dem":"1944","timezone":"Asia/Tbilisi","modification_date":"2014-06-26"},{"geonameid":"612890","name":"Mtskheta","asciiname":"Mtskheta","alternatenames":["Ckheta","Gorad Mckheta","Mccheta","Mcheta","Mckheta","Mcĥeta","Miskheta","Mtheta","Mtscheta","Mtsheta","Mtshetha","Mtskhera","Mtskheta","Mtskhetha","Mtsxeta","Mtzkhet","Mzcheta","Mțheta","meucheuheta","mtskheta","mtskhta","mu ci he ta","mutsuheta","mzhth","Горад Мцхета","Мцхета","Цхета","Մցխեթ","מצחתה","متسختا","მცხეთა","ムツヘタ","姆茨赫塔","므츠헤타"],"latitude":"41.84514","longitude":"44.71875","feature_class":"P","feature_code":"PPLA","country_code":"GE","cc2":"","admin1_code":"69","admin2_code":"","admin3_code":"","admin4_code":"","population":"7423","elevation":"","dem":"476","timezone":"Asia/Tbilisi","modification_date":"2014-07-08"},{"geonameid":"612987","name":"Mest’ia","asciiname":"Mest'ia","alternatenames":["Mest'ia","Mestia","Mestiya","Mestno","Mest’ia","Seti","Местиа","მესტია"],"latitude":"43.04581","longitude":"42.7278","feature_class":"P","feature_code":"PPL","country_code":"GE","cc2":"","admin1_code":"71","admin2_code":"","admin3_code":"","admin4_code":"","population":"3187","elevation":"","dem":"1412","timezone":"Asia/Tbilisi","modification_date":"2014-09-05"},{"geonameid":"613065","name":"Mart’vili","asciiname":"Mart'vili","alternatenames":["Gegechkari","Gegechkori","Mart'vili","Martvili","Mart’vili","Мартвили","მარტვილი"],"latitude":"42.41436","longitude":"42.37924","feature_class":"P","feature_code":"PPL","country_code":"GE","cc2":"","admin1_code":"71","admin2_code":"","admin3_code":"","admin4_code":"","population":"5483","elevation":"","dem":"194","timezone":"Asia/Tbilisi","modification_date":"2014-09-05"},{"geonameid":"613074","name":"Marneuli","asciiname":"Marneuli","alternatenames":["Borchalo","Marneuli","Sarvan","Sarwan","Марнеули"],"latitude":"41.47588","longitude":"44.80895","feature_class":"P","feature_code":"PPL","country_code":"GE","cc2":"","admin1_code":"68","admin2_code":"7667578","admin3_code":"","admin4_code":"","population":"18755","elevation":"","dem":"408","timezone":"Asia/Tbilisi","modification_date":"2014-06-26"},{"geonameid":"613093","name":"Manglisi","asciiname":"Manglisi","alternatenames":["Manglis","Manglisi","Манглиси"],"latitude":"41.69698","longitude":"44.38448","feature_class":"P","feature_code":"PPL","country_code":"GE","cc2":"","admin1_code":"68","admin2_code":"7667683","admin3_code":"","admin4_code":"","population":"4817","elevation":"","dem":"1195","timezone":"Asia/Tbilisi","modification_date":"2014-06-27"},{"geonameid":"613125","name":"Makhinjauri","asciiname":"Makhinjauri","alternatenames":["Makhindzhauri","Makhinjauri","makhinjauri","Махинджаури","მახინჯაური"],"latitude":"41.67385","longitude":"41.69401","feature_class":"P","feature_code":"PPL","country_code":"GE","cc2":"","admin1_code":"04","admin2_code":"","admin3_code":"","admin4_code":"","population":"2736","elevation":"","dem":"19","timezone":"Asia/Tbilisi","modification_date":"2014-08-05"},{"geonameid":"613226","name":"Lent’ekhi","asciiname":"Lent'ekhi","alternatenames":["Leksura","Lent'ekhi","Lentekhi","Lent’ekhi","lentʼekhi","Лентехи","ლენტეხი"],"latitude":"42.78893","longitude":"42.72226","feature_class":"P","feature_code":"PPL","country_code":"GE","cc2":"","admin1_code":"70","admin2_code":"","admin3_code":"","admin4_code":"","population":"10442","elevation":"","dem":"738","timezone":"Asia/Tbilisi","modification_date":"2015-02-06"},{"geonameid":"613311","name":"Lanchkhuti","asciiname":"Lanchkhuti","alternatenames":["Lanch'khut'i","Lanchkhuti","lanchkhuti","Ланчхути","ლანჩხუთი"],"latitude":"42.09027","longitude":"42.03239","feature_class":"P","feature_code":"PPLA2","country_code":"GE","cc2":"","admin1_code":"65","admin2_code":"","admin3_code":"","admin4_code":"","population":"0","elevation":"","dem":"22","timezone":"Asia/Tbilisi","modification_date":"2014-09-05"},{"geonameid":"613342","name":"Lagodekhi","asciiname":"Lagodekhi","alternatenames":["Lagodechis","Lagodekhi","lagodekhi","lgwdhy","Лагодехи","לגודחי","ლაგოდეხი"],"latitude":"41.82681","longitude":"46.27667","feature_class":"P","feature_code":"PPL","country_code":"GE","cc2":"","admin1_code":"67","admin2_code":"","admin3_code":"","admin4_code":"","population":"6550","elevation":"","dem":"469","timezone":"Asia/Tbilisi","modification_date":"2014-06-26"},{"geonameid":"613559","name":"Kveda Chkhorots’q’u","asciiname":"Kveda Chkhorots'q'u","alternatenames":["Kveda Chkhorots'q'u","Kveda Chkhorotsku","Kveda Chkhorots’q’u","ქვედა ჩხოროწყუ"],"latitude":"42.48103","longitude":"42.09661","feature_class":"P","feature_code":"PPL","country_code":"GE","cc2":"","admin1_code":"71","admin2_code":"","admin3_code":"","admin4_code":"","population":"4357","elevation":"","dem":"125","timezone":"Asia/Tbilisi","modification_date":"2013-12-10"},{"geonameid":"613607","name":"Kutaisi","asciiname":"Kutaisi","alternatenames":["KUT","Khuthaisi","Koetaisi","Koutaissi","Koutaïssi","Kutais","Kutaisi","Kutaisk","Kutaiso","Kutaissi","Kutayis","Kutayıs","Kutaïsi","kutaishi","kutaisi","Кутаиси","Кутаїсі","כותאיסי","קוטאיסי","ქუთაისი","クタイシ","쿠타이시"],"latitude":"42.26791","longitude":"42.69459","feature_class":"P","feature_code":"PPLA","country_code":"GE","cc2":"","admin1_code":"66","admin2_code":"","admin3_code":"","admin4_code":"","population":"178338","elevation":"","dem":"153","timezone":"Asia/Tbilisi","modification_date":"2014-11-02"},{"geonameid":"613641","name":"K’ulashi","asciiname":"K'ulashi","alternatenames":["K'ulashi","Kulashi","K’ulashi","kʼulashi","Кулаши","კულაში"],"latitude":"42.20405","longitude":"42.34289","feature_class":"P","feature_code":"PPL","country_code":"GE","cc2":"","admin1_code":"66","admin2_code":"","admin3_code":"","admin4_code":"","population":"2691","elevation":"","dem":"38","timezone":"Asia/Tbilisi","modification_date":"2014-09-05"},{"geonameid":"613762","name":"Kobuleti","asciiname":"Kobuleti","alternatenames":["K'obulet'i","Kobuleti","Kobulyety","Кобулети"],"latitude":"41.82","longitude":"41.77528","feature_class":"P","feature_code":"PPLA2","country_code":"GE","cc2":"","admin1_code":"04","admin2_code":"","admin3_code":"","admin4_code":"","population":"18600","elevation":"","dem":"9","timezone":"Asia/Tbilisi","modification_date":"2014-01-31"},{"geonameid":"613870","name":"Khulo","asciiname":"Khulo","alternatenames":["Chulo","Daba","Khulo","khulo","Хуло","ხულო"],"latitude":"41.64353","longitude":"42.30397","feature_class":"P","feature_code":"PPLA2","country_code":"GE","cc2":"","admin1_code":"04","admin2_code":"","admin3_code":"","admin4_code":"","population":"768","elevation":"","dem":"1044","timezone":"Asia/Tbilisi","modification_date":"2014-06-27"},{"geonameid":"613902","name":"Khoni","asciiname":"Khoni","alternatenames":["Choni","Khoni","Koni","Tsulukidze","Zulukidse","khoni","Хони","ხონი"],"latitude":"42.3226","longitude":"42.42061","feature_class":"P","feature_code":"PPL","country_code":"GE","cc2":"","admin1_code":"66","admin2_code":"","admin3_code":"","admin4_code":"","population":"10796","elevation":"","dem":"118","timezone":"Asia/Tbilisi","modification_date":"2013-08-05"},{"geonameid":"613918","name":"Khobi","asciiname":"Khobi","alternatenames":["Khobi","Khopi","khobi","Хоби","ხობი"],"latitude":"42.31558","longitude":"41.89871","feature_class":"P","feature_code":"PPL","country_code":"GE","cc2":"","admin1_code":"71","admin2_code":"","admin3_code":"","admin4_code":"","population":"5375","elevation":"","dem":"15","timezone":"Asia/Tbilisi","modification_date":"2014-06-26"},{"geonameid":"613971","name":"Khelvachauri","asciiname":"Khelvachauri","alternatenames":["Khelvach'auri","Khelvachauri","khelvachauri","Хелвачаури","ხელვაჩაური"],"latitude":"41.58556","longitude":"41.66889","feature_class":"P","feature_code":"PPLA2","country_code":"GE","cc2":"","admin1_code":"04","admin2_code":"","admin3_code":"","admin4_code":"","population":"0","elevation":"","dem":"33","timezone":"Asia/Tbilisi","modification_date":"2014-06-27"},{"geonameid":"613988","name":"Khashuri","asciiname":"Khashuri","alternatenames":["Chaschuri","Khachuri","Khashuri","Khasuri","Mikhailovo","Mikhaylovo","Stalinissi","khashuri","Хашури","ხაშური"],"latitude":"41.99414","longitude":"43.59994","feature_class":"P","feature_code":"PPLA2","country_code":"GE","cc2":"","admin1_code":"73","admin2_code":"613987","admin3_code":"","admin4_code":"","population":"27811","elevation":"","dem":"700","timezone":"Asia/Tbilisi","modification_date":"2014-03-15"},{"geonameid":"614080","name":"Keda","asciiname":"Keda","alternatenames":["K'eda","Keda","keda","Кеда","ქედა"],"latitude":"41.59694","longitude":"41.94139","feature_class":"P","feature_code":"PPLA2","country_code":"GE","cc2":"","admin1_code":"04","admin2_code":"","admin3_code":"","admin4_code":"","population":"0","elevation":"","dem":"232","timezone":"Asia/Tbilisi","modification_date":"2014-06-26"},{"geonameid":"614087","name":"Step’antsminda","asciiname":"Step'antsminda","alternatenames":["Kasbek","Kazbeg","Kazbegi","Kazbek","Qazbegi","Step'antsminda","Step’antsminda","Казбеги"],"latitude":"42.65667","longitude":"44.64333","feature_class":"P","feature_code":"PPL","country_code":"GE","cc2":"","admin1_code":"69","admin2_code":"","admin3_code":"","admin4_code":"","population":"2628","elevation":"","dem":"1767","timezone":"Asia/Tbilisi","modification_date":"2014-06-26"},{"geonameid":"614104","name":"Kaspi","asciiname":"Kaspi","alternatenames":["Kasni","Kaspi","Каспи"],"latitude":"41.9252","longitude":"44.42568","feature_class":"P","feature_code":"PPL","country_code":"GE","cc2":"","admin1_code":"73","admin2_code":"","admin3_code":"","admin4_code":"","population":"14734","elevation":"","dem":"549","timezone":"Asia/Tbilisi","modification_date":"2014-06-27"},{"geonameid":"614217","name":"Java","asciiname":"Java","alternatenames":["Chvrivi","Dzhava","Java","java","Джава","ჯავა"],"latitude":"42.39972","longitude":"43.93667","feature_class":"P","feature_code":"PPLA2","country_code":"GE","cc2":"","admin1_code":"69","admin2_code":"","admin3_code":"","admin4_code":"","population":"426","elevation":"","dem":"1084","timezone":"Asia/Tbilisi","modification_date":"2014-07-08"},{"geonameid":"614351","name":"Gurjaani","asciiname":"Gurjaani","alternatenames":["Gurdjaani","Gurdzhaani","Gurdzhani","Gurjaani","gurjaani","Гурджаани","გურჯაანი"],"latitude":"41.74292","longitude":"45.80111","feature_class":"P","feature_code":"PPL","country_code":"GE","cc2":"","admin1_code":"67","admin2_code":"7667580","admin3_code":"","admin4_code":"","population":"9466","elevation":"","dem":"400","timezone":"Asia/Tbilisi","modification_date":"2013-08-05"},{"geonameid":"614379","name":"Gulrip’shi","asciiname":"Gulrip'shi","alternatenames":["Gul'ripsh","Gulrifsh","Gulrip'shi","Gulrip’shi","Gul’ripsh","Kvemo-Gul'ripsh","Kvemo-Gul'ripshi","Kvemo-Gul’ripsh","Kvemo-Gul’ripshi","Nizhniy Gul'ripsh","Nizhniy Gul’ripsh","Nizhniye Gul'ripsh","Nizhniye Gul’ripsh","Гульрипш"],"latitude":"42.92694","longitude":"41.09639","feature_class":"P","feature_code":"PPLA2","country_code":"GE","cc2":"","admin1_code":"02","admin2_code":"","admin3_code":"","admin4_code":"","population":"0","elevation":"","dem":"7","timezone":"Asia/Tbilisi","modification_date":"2014-06-27"},{"geonameid":"614409","name":"Gudauta","asciiname":"Gudauta","alternatenames":["Gorad Gudauta","Goudaouta","Gudaoeta","Gudaut'a","Gudauta","Gudautae","Gudauti","Gudauto","Gudauty","gu da wu ta","gudauta","Горад Гудаута","Гудаутæ","Гудаута","Гудауто","Гәдоуҭа","Ґудаута","Գուդաութա","גודאותה","გუდაუთა","グダウタ","古達烏塔"],"latitude":"43.10547","longitude":"40.62067","feature_class":"P","feature_code":"PPL","country_code":"GE","cc2":"","admin1_code":"02","admin2_code":"","admin3_code":"","admin4_code":"","population":"7700","elevation":"","dem":"9","timezone":"Asia/Tbilisi","modification_date":"2014-02-07"},{"geonameid":"614410","name":"Gudauri","asciiname":"Gudauri","alternatenames":["Goudaour","Gudaur","Gudauri","Gudouri","Гудаури"],"latitude":"42.47797","longitude":"44.47616","feature_class":"P","feature_code":"PPL","country_code":"GE","cc2":"","admin1_code":"00","admin2_code":"","admin3_code":"","admin4_code":"","population":"10000","elevation":"","dem":"2223","timezone":"Asia/Tbilisi","modification_date":"2014-12-11"},{"geonameid":"614454","name":"Gori","asciiname":"Gori","alternatenames":["Gori","gori","გორი"],"latitude":"42.51667","longitude":"43.16667","feature_class":"P","feature_code":"PPLA2","country_code":"GE","cc2":"","admin1_code":"70","admin2_code":"","admin3_code":"","admin4_code":"","population":"0","elevation":"","dem":"705","timezone":"Asia/Tbilisi","modification_date":"2014-07-08"},{"geonameid":"614455","name":"Gori","asciiname":"Gori","alternatenames":["Gori","Goris","ge li","goli","gori","gwry","Гори","גורי","گوری","გორი","ゴリ","哥里","고리"],"latitude":"41.98422","longitude":"44.11578","feature_class":"P","feature_code":"PPLA","country_code":"GE","cc2":"","admin1_code":"73","admin2_code":"","admin3_code":"","admin4_code":"","population":"46676","elevation":"","dem":"600","timezone":"Asia/Tbilisi","modification_date":"2013-06-27"},{"geonameid":"614575","name":"Gardabani","asciiname":"Gardabani","alternatenames":["Gardaban","Gardabani","Karaya","Karayazi","Karayazy","Qaratəpə","Qardabani","gardabani","gardabany","grdabany","Гардабани","Ґардабані","Գարդաբան","گاردابانی","گردابانی","გარდაბანი"],"latitude":"41.46054","longitude":"45.09283","feature_class":"P","feature_code":"PPL","country_code":"GE","cc2":"","admin1_code":"68","admin2_code":"7667577","admin3_code":"","admin4_code":"","population":"10972","elevation":"","dem":"306","timezone":"Asia/Tbilisi","modification_date":"2014-06-27"},{"geonameid":"614580","name":"Gantiadi","asciiname":"Gantiadi","alternatenames":["Candrypsh","Gant'iadi","Gantiadi","Gantiandi","Pilenkova","Pilenkovo","Pilyenkovo","Seleniye Pilenkovo","gantiadi","Гантианди","Цандрыпш","განთიადი"],"latitude":"43.38111","longitude":"40.07944","feature_class":"P","feature_code":"PPL","country_code":"GE","cc2":"","admin1_code":"00","admin2_code":"","admin3_code":"","admin4_code":"","population":"10000","elevation":"","dem":"6","timezone":"Asia/Tbilisi","modification_date":"2014-02-07"},{"geonameid":"614613","name":"Gali","asciiname":"Gali","alternatenames":["Gali","gali","Гали","გალი"],"latitude":"42.62655","longitude":"41.73808","feature_class":"P","feature_code":"PPLA2","country_code":"GE","cc2":"","admin1_code":"02","admin2_code":"","admin3_code":"","admin4_code":"","population":"11861","elevation":"","dem":"61","timezone":"Asia/Tbilisi","modification_date":"2014-06-27"},{"geonameid":"614622","name":"Gagra","asciiname":"Gagra","alternatenames":["Gagra","Gagrae","Gagre","Gagri","Gagry","Gorad Gagra","Nkankra","Qaqra","gageula","gagra","gagura","ggrh","ghaghra","jia ge la","kak ra","Γκάγκρα","Гагрæ","Гагра","Гагре","Горад Гагра","Գագրա","גגרה","غاغرا","گاگرا","গাগ্‌রা","กากรา","გაგრა","ガグラ","加格拉","가그라"],"latitude":"43.27858","longitude":"40.27124","feature_class":"P","feature_code":"PPLA2","country_code":"GE","cc2":"","admin1_code":"02","admin2_code":"","admin3_code":"","admin4_code":"","population":"8266","elevation":"","dem":"11","timezone":"Asia/Tbilisi","modification_date":"2014-11-18"},{"geonameid":"614740","name":"Jvari","asciiname":"Jvari","alternatenames":["Dzhvara","Dzhvari","Dzhvary","Dzhvarzeni","Jvari","jvari","Джвари","ჯვარი"],"latitude":"42.71693","longitude":"42.052","feature_class":"P","feature_code":"PPL","country_code":"GE","cc2":"","admin1_code":"71","admin2_code":"","admin3_code":"","admin4_code":"","population":"4756","elevation":"","dem":"335","timezone":"Asia/Tbilisi","modification_date":"2014-06-27"},{"geonameid":"614863","name":"Dranda","asciiname":"Dranda","alternatenames":["Dranda","Drandi","Drandy","Дранда"],"latitude":"42.87167","longitude":"41.15333","feature_class":"P","feature_code":"PPL","country_code":"GE","cc2":"","admin1_code":"02","admin2_code":"","admin3_code":"","admin4_code":"","population":"3205","elevation":"","dem":"25","timezone":"Asia/Tbilisi","modification_date":"2013-08-21"},{"geonameid":"614890","name":"Dmanisi","asciiname":"Dmanisi","alternatenames":["Dmanisi","Dumanisi","Дманиси"],"latitude":"41.52514","longitude":"44.3472","feature_class":"P","feature_code":"PPL","country_code":"GE","cc2":"","admin1_code":"00","admin2_code":"","admin3_code":"","admin4_code":"","population":"3038","elevation":"","dem":"1168","timezone":"Asia/Tbilisi","modification_date":"2012-01-17"},{"geonameid":"614897","name":"Dioknisi","asciiname":"Dioknisi","alternatenames":[""],"latitude":"41.62933","longitude":"42.39171","feature_class":"P","feature_code":"PPL","country_code":"GE","cc2":"","admin1_code":"04","admin2_code":"","admin3_code":"","admin4_code":"","population":"7725","elevation":"","dem":"1086","timezone":"Asia/Tbilisi","modification_date":"2014-08-05"},{"geonameid":"614934","name":"Didi Lilo","asciiname":"Didi Lilo","alternatenames":["Didi Lilo","Didi-Lilo","Lilo","Диди-Лило"],"latitude":"41.73611","longitude":"44.96472","feature_class":"P","feature_code":"PPL","country_code":"GE","cc2":"","admin1_code":"00","admin2_code":"","admin3_code":"","admin4_code":"","population":"3349","elevation":"","dem":"789","timezone":"Asia/Tbilisi","modification_date":"2012-01-17"},{"geonameid":"615403","name":"Borjomi","asciiname":"Borjomi","alternatenames":["Borcomi","Bordschomi","Bordshomi","Bordzjomi","Bordzomi","Bordżomi","Bordžomi","Borjam","Borjomi","Borjomi - borjomi","Borjomi - ბორჯომი","Borshom","Borzhom","Borzhomi","Borzom","Borzomis","Boržomis","bo er ruo mi","boleujomi","borjomi","borujomi","brjwmy","bwrgwmy","bwrjwmy","Боржом","Боржоми","Боржомі","Բորժոմ","בורגומי","برجومی","بورجومی","ბორჯომი","ボルジョミ","博爾若米","보르조미"],"latitude":"41.85272","longitude":"43.41284","feature_class":"P","feature_code":"PPL","country_code":"GE","cc2":"","admin1_code":"72","admin2_code":"","admin3_code":"","admin4_code":"","population":"13825","elevation":"","dem":"810","timezone":"Asia/Tbilisi","modification_date":"2012-01-17"},{"geonameid":"615419","name":"Bolnisi","asciiname":"Bolnisi","alternatenames":["Bolnis","Bolnisi","Bolnisis","Bolnissi","Katharinenfeld","Luxemburg","Luxemburgi","Lyuksemburg","Lyuksemburg-Gruzinskiy","Lyuksemburgi","Lyuksemburi","Yekaterinofel'd","Yekaterinofel’d","bo er ni xi","bolnisi","bwlnyshy","bwlnysy","Болниси","Բոլնիս","בולניסי","بولنیسی","بولنیشی","ბოლნისი","博爾尼西"],"latitude":"41.44794","longitude":"44.53838","feature_class":"P","feature_code":"PPLA2","country_code":"GE","cc2":"","admin1_code":"68","admin2_code":"615418","admin3_code":"","admin4_code":"","population":"13800","elevation":"","dem":"524","timezone":"Asia/Tbilisi","modification_date":"2014-03-29"},{"geonameid":"615460","name":"Bich’vinta","asciiname":"Bich'vinta","alternatenames":["Bich'vinta","Bichvinta","Bich’vinta","Bitchvinta","Picunda","Pitsoenda","Pitsunda","Pitsundo","Pitsundskiy","Pitsvints","Pitunda","Pițunda","byzwwynth","Пицунда","ביצווינתה","ბიჭვინთა"],"latitude":"43.16197","longitude":"40.34102","feature_class":"P","feature_code":"PPL","country_code":"GE","cc2":"","admin1_code":"02","admin2_code":"","admin3_code":"","admin4_code":"","population":"8401","elevation":"","dem":"1","timezone":"Asia/Tbilisi","modification_date":"2014-11-18"},{"geonameid":"615532","name":"Batumi","asciiname":"Batumi","alternatenames":["BUS","Bat'umi","Bathumi","Batoemi","Batomis","Batoum","Batoumi","Batum","Batumi","Batumis","Batumo","Batûm","ba tong","bato~umi","batumi","batwmy","btwmy","Μπατούμι","Батуми","Батумі","Баҭым","Բաթում","בטומי","בתומי","باتومی","باطومي","बातुमी","ბათუმი","バトゥミ","巴统","바투미"],"latitude":"41.64228","longitude":"41.63392","feature_class":"P","feature_code":"PPLA","country_code":"GE","cc2":"","admin1_code":"04","admin2_code":"","admin3_code":"","admin4_code":"","population":"121806","elevation":"","dem":"7","timezone":"Asia/Tbilisi","modification_date":"2014-11-18"},{"geonameid":"615583","name":"Bakuriani","asciiname":"Bakuriani","alternatenames":["Bakuiani","Bakuriani","Бакуриани"],"latitude":"41.74972","longitude":"43.5325","feature_class":"P","feature_code":"PPL","country_code":"GE","cc2":"","admin1_code":"13","admin2_code":"","admin3_code":"","admin4_code":"","population":"2392","elevation":"","dem":"1674","timezone":"Asia/Tbilisi","modification_date":"2014-06-26"},{"geonameid":"615611","name":"Bagdadi","asciiname":"Bagdadi","alternatenames":[""],"latitude":"41.81667","longitude":"46.03333","feature_class":"P","feature_code":"PPL","country_code":"GE","cc2":"","admin1_code":"00","admin2_code":"","admin3_code":"","admin4_code":"","population":"4564","elevation":"","dem":"251","timezone":"Asia/Tbilisi","modification_date":"2007-05-30"},{"geonameid":"615660","name":"Aspindza","asciiname":"Aspindza","alternatenames":["Aspindza","Аспиндза","ასპინძა"],"latitude":"41.57389","longitude":"43.24826","feature_class":"P","feature_code":"PPL","country_code":"GE","cc2":"","admin1_code":"72","admin2_code":"","admin3_code":"","admin4_code":"","population":"3940","elevation":"","dem":"1084","timezone":"Asia/Tbilisi","modification_date":"2014-06-26"},{"geonameid":"615776","name":"Ambrolauri","asciiname":"Ambrolauri","alternatenames":["Ambralauri","Ambrolauri","Амбролаури"],"latitude":"42.52111","longitude":"43.16222","feature_class":"P","feature_code":"PPLA2","country_code":"GE","cc2":"","admin1_code":"70","admin2_code":"","admin3_code":"","admin4_code":"","population":"2408","elevation":"","dem":"609","timezone":"Asia/Tbilisi","modification_date":"2014-06-26"},{"geonameid":"615844","name":"Akhmet’a","asciiname":"Akhmet'a","alternatenames":["Akhmet'a","Akhmeta","Akhmeti","Akhmety","Akhmet’a","akhmetʼa","Ахмета","ახმეტა"],"latitude":"42.03111","longitude":"45.2075","feature_class":"P","feature_code":"PPLA2","country_code":"GE","cc2":"","admin1_code":"67","admin2_code":"","admin3_code":"","admin4_code":"","population":"8569","elevation":"","dem":"582","timezone":"Asia/Tbilisi","modification_date":"2014-07-08"},{"geonameid":"615860","name":"Akhaltsikhe","asciiname":"Akhaltsikhe","alternatenames":["Achalciche","Achalcichė","Achaltsiche","Achalziche","Achalzych","Ahalciho","Ahaltihe","Ahalțihe","Ahhaltsihhe","Ahiska","Ahıska","Ajaltsije","Akhalcikhe","Akhalts'ikhe","Akhaltsikh","Akhaltsikhe","Akhaltsikhé","Akhaltsykha","Akhaltsykhe","Aĥalciĥo","Gorad Akhalcykhe","a ha er qi he","ahalchihe","aharutsu~ihe","akhalt sykh","akhaltsikhe","akhaltsykhh","Ахалцихе","Ахалціхе","Горад Ахалцыхе","Ախալցխա","אחלציחה","آخالت سیکه","آخالتسیخه","ახალციხე","アハルツィヘ","阿哈爾齊赫","아할치헤"],"latitude":"41.63901","longitude":"42.98262","feature_class":"P","feature_code":"PPLA","country_code":"GE","cc2":"","admin1_code":"72","admin2_code":"","admin3_code":"","admin4_code":"","population":"17298","elevation":"","dem":"984","timezone":"Asia/Tbilisi","modification_date":"2014-07-08"},{"geonameid":"615893","name":"Akhalk’alak’i","asciiname":"Akhalk'alak'i","alternatenames":["Achalkalaki","Akhalk'alak'i","Akhalkalak","Akhalkalaki","Arkhalkalaki","Ахалкалаки"],"latitude":"41.40514","longitude":"43.48629","feature_class":"P","feature_code":"PPL","country_code":"GE","cc2":"","admin1_code":"06","admin2_code":"","admin3_code":"","admin4_code":"","population":"9800","elevation":"","dem":"1717","timezone":"Asia/Tbilisi","modification_date":"2010-06-18"},{"geonameid":"615912","name":"Stantsiya Novyy Afon","asciiname":"Stantsiya Novyy Afon","alternatenames":["Novyj Afon","Novyy Afon","Psirtskha","Psyrtskha","Stantsiya Akhali-Afoni","Новый Афон"],"latitude":"43.08056","longitude":"40.83833","feature_class":"P","feature_code":"PPL","country_code":"GE","cc2":"GE","admin1_code":"02","admin2_code":"","admin3_code":"","admin4_code":"","population":"26636","elevation":"","dem":"8","timezone":"Asia/Tbilisi","modification_date":"2013-10-29"},{"geonameid":"615914","name":"Akhalgori","asciiname":"Akhalgori","alternatenames":["Akhalgori","Leningori","Ленингори"],"latitude":"42.12597","longitude":"44.48333","feature_class":"P","feature_code":"PPL","country_code":"GE","cc2":"","admin1_code":"69","admin2_code":"","admin3_code":"","admin4_code":"","population":"1420","elevation":"","dem":"822","timezone":"Asia/Tbilisi","modification_date":"2014-06-27"},{"geonameid":"615921","name":"Akhaldaba","asciiname":"Akhaldaba","alternatenames":["Akhaldaba","akhaldaba","Ахалдаба","ახალდაბა"],"latitude":"41.65395","longitude":"42.15163","feature_class":"P","feature_code":"PPL","country_code":"GE","cc2":"","admin1_code":"04","admin2_code":"","admin3_code":"","admin4_code":"","population":"3640","elevation":"","dem":"748","timezone":"Asia/Tbilisi","modification_date":"2012-01-17"},{"geonameid":"615943","name":"Agara","asciiname":"Agara","alternatenames":["Agara","Агара"],"latitude":"42.03761","longitude":"43.82382","feature_class":"P","feature_code":"PPL","country_code":"GE","cc2":"","admin1_code":"25","admin2_code":"","admin3_code":"","admin4_code":"","population":"5811","elevation":"","dem":"642","timezone":"Asia/Tbilisi","modification_date":"2014-06-27"},{"geonameid":"615973","name":"Adigeni","asciiname":"Adigeni","alternatenames":["Adigeni","Адигени"],"latitude":"41.68191","longitude":"42.69867","feature_class":"P","feature_code":"PPL","country_code":"GE","cc2":"","admin1_code":"72","admin2_code":"","admin3_code":"","admin4_code":"","population":"1313","elevation":"","dem":"1253","timezone":"Asia/Tbilisi","modification_date":"2014-06-27"},{"geonameid":"616022","name":"Abasha","asciiname":"Abasha","alternatenames":["Abacha","Abascha","Abasha","abasha","Абаша","აბაშა"],"latitude":"42.20959","longitude":"42.22111","feature_class":"P","feature_code":"PPL","country_code":"GE","cc2":"","admin1_code":"71","admin2_code":"","admin3_code":"","admin4_code":"","population":"6221","elevation":"","dem":"26","timezone":"Asia/Tbilisi","modification_date":"2014-03-15"},{"geonameid":"799955","name":"P’rimorsk’oe","asciiname":"P'rimorsk'oe","alternatenames":["Barnitsats","P'rimorsk'oe","Primorskoye","P’rimorsk’oe","პრიმორსკოე"],"latitude":"43.09236","longitude":"40.6965","feature_class":"P","feature_code":"PPL","country_code":"GE","cc2":"","admin1_code":"00","admin2_code":"","admin3_code":"","admin4_code":"","population":"2573","elevation":"","dem":"18","timezone":"Asia/Tbilisi","modification_date":"2014-02-10"},{"geonameid":"824288","name":"Tsqaltubo","asciiname":"Tsqaltubo","alternatenames":["Ckhaltubo","Tskaltubo","Tskhaltubo","Tsqaltubo","Цхалтубо"],"latitude":"42.34129","longitude":"42.5976","feature_class":"P","feature_code":"PPL","country_code":"GE","cc2":"","admin1_code":"66","admin2_code":"","admin3_code":"","admin4_code":"","population":"16736","elevation":"","dem":"142","timezone":"Asia/Tbilisi","modification_date":"2014-06-26"},{"geonameid":"824385","name":"Naruja","asciiname":"Naruja","alternatenames":["Naruja","Sovkhoz Narudzhskiy","naruja","ნარუჯა"],"latitude":"41.90694","longitude":"41.95417","feature_class":"P","feature_code":"PPL","country_code":"GE","cc2":"","admin1_code":"65","admin2_code":"","admin3_code":"","admin4_code":"","population":"3065","elevation":"","dem":"144","timezone":"Asia/Tbilisi","modification_date":"2012-01-19"},{"geonameid":"824613","name":"Bakurianis Andeziti","asciiname":"Bakurianis Andeziti","alternatenames":["Bakurianis Andeziti","Bakurianskij Andezit","bakʼurianis andezitʼi","Бакурианский Андезит","ბაკურიანის ანდეზიტი"],"latitude":"41.73371","longitude":"43.47242","feature_class":"P","feature_code":"PPL","country_code":"GE","cc2":"","admin1_code":"13","admin2_code":"","admin3_code":"","admin4_code":"","population":"1085","elevation":"","dem":"1568","timezone":"Asia/Tbilisi","modification_date":"2014-06-27"},{"geonameid":"865372","name":"Kelasuri","asciiname":"Kelasuri","alternatenames":["Kelasuri","Келасури"],"latitude":"42.97877","longitude":"41.07067","feature_class":"P","feature_code":"PPL","country_code":"GE","cc2":"","admin1_code":"00","admin2_code":"","admin3_code":"","admin4_code":"","population":"1373","elevation":"","dem":"91","timezone":"Asia/Tbilisi","modification_date":"2012-06-14"},{"geonameid":"7667751","name":"Kharagauli","asciiname":"Kharagauli","alternatenames":[""],"latitude":"42.02137","longitude":"43.19773","feature_class":"P","feature_code":"PPLA2","country_code":"GE","cc2":"","admin1_code":"66","admin2_code":"","admin3_code":"","admin4_code":"","population":"0","elevation":"","dem":"310","timezone":"Asia/Tbilisi","modification_date":"2011-02-16"}]}