{"country_data":{"ISO":"DE","ISO3":"DEU","ISO_Numeric":"276","fips":"GM","country":"Germany","capital":"Berlin","area":"357021","Population":"81802257","Continent":"EU","tld":".de","CurrencyCode":"EUR","CurrencyName":"Euro","Phone":"49","Postal_Code_Format":"#####","Postal_Code_Regex":"^(\\d{5})$","Languages":"de","geonameid":"2921044","neighbours":"CH,PL,NL,DK,BE,CZ,LU,FR,AT","EquivalentFipsCode":""},"cities":[{"geonameid":"2803476","name":"Zwönitz","asciiname":"Zwonitz","alternatenames":["Cvenic","Cvenica","Cvjonic","Cvēnica","Zwoenitz","Zwonitz","Zwönitz","ci wei ni ci","tswnytz","Цвениц","Цвёниц","تسونیتز","茨韦尼茨"],"latitude":"50.63027","longitude":"12.80999","feature_class":"P","feature_code":"PPL","country_code":"DE","cc2":"","admin1_code":"13","admin2_code":"","admin3_code":"","admin4_code":"","population":"11547","elevation":"","dem":"521","timezone":"Europe/Berlin","modification_date":"2015-03-04"},{"geonameid":"2803515","name":"Zwingenberg","asciiname":"Zwingenberg","alternatenames":["Cvingenberg","Zwingenberg","ci wen gen bei er ge","tsuvu~ingenberuku","tswyngnbrg","Цвингенберг","تسوینگنبرگ","ツヴィンゲンベルク","茨温根贝尔格"],"latitude":"49.72389","longitude":"8.61084","feature_class":"P","feature_code":"PPL","country_code":"DE","cc2":"","admin1_code":"05","admin2_code":"","admin3_code":"","admin4_code":"","population":"7082","elevation":"","dem":"99","timezone":"Europe/Berlin","modification_date":"2012-09-06"},{"geonameid":"2803537","name":"Zwiesel","asciiname":"Zwiesel","alternatenames":["Cvizel","Cvizel'","Zwiesel","Zwiesl","Zwisel","ci wei sai er","tswyzl","Цвизел","Цвизель","تسویزل","茨维塞尔"],"latitude":"49.01693","longitude":"13.23765","feature_class":"P","feature_code":"PPL","country_code":"DE","cc2":"","admin1_code":"02","admin2_code":"092","admin3_code":"09276","admin4_code":"09276148","population":"10327","elevation":"","dem":"629","timezone":"Europe/Berlin","modification_date":"2013-02-19"},{"geonameid":"2803560","name":"Zwickau","asciiname":"Zwickau","alternatenames":["Cvikau","Cvikava","Cvikkau","Cygnea","Gorad Cvikau","Stadt Zwickau","Swikawa","Zwickau","cheubikau","ci wei kao","tsuvu~ikkau","tswykaw","Šwikawa","Горад Цвікау","Цвикау","Цвиккау","Цвікау","تسویکاو","ツヴィッカウ","茨维考","츠비카우"],"latitude":"50.72724","longitude":"12.48839","feature_class":"P","feature_code":"PPLA3","country_code":"DE","cc2":"","admin1_code":"13","admin2_code":"00","admin3_code":"14524","admin4_code":"","population":"98796","elevation":"","dem":"267","timezone":"Europe/Berlin","modification_date":"2014-02-02"},{"geonameid":"2803588","name":"Zwenkau","asciiname":"Zwenkau","alternatenames":["Cvenkau","Cvenkava","Zwenkau","ci wen kao","tswyka","Цвенкау","تسویکا","茨文考"],"latitude":"51.21872","longitude":"12.33008","feature_class":"P","feature_code":"PPL","country_code":"DE","cc2":"","admin1_code":"13","admin2_code":"00","admin3_code":"","admin4_code":"","population":"8905","elevation":"","dem":"137","timezone":"Europe/Berlin","modification_date":"2014-01-02"},{"geonameid":"2803620","name":"Zweibrücken","asciiname":"Zweibrucken","alternatenames":["Cvajbriken","Cvajbrjukken","Deux Ponts","Deux-Ponts","Dos Puentes","Zweebrigge","Zweibrucken","Zweibruecken","Zweibrücken","ci wei bu lu ken","tsuvu~aiburyukken","tswaybrwkn","Цвайбрюккен","Цвајбрикен","تسوایبروکن","ツヴァイブリュッケン","茨魏布吕肯"],"latitude":"49.24686","longitude":"7.36977","feature_class":"P","feature_code":"PPLA3","country_code":"DE","cc2":"","admin1_code":"08","admin2_code":"00","admin3_code":"07320","admin4_code":"","population":"35221","elevation":"","dem":"242","timezone":"Europe/Berlin","modification_date":"2014-03-02"},{"geonameid":"2803655","name":"Zusmarshausen","asciiname":"Zusmarshausen","alternatenames":["Cusmarskhauzen","Zusmarshausen","chu si ma er si hao sen","Цусмарсхаузен","楚斯马尔斯豪森"],"latitude":"48.40014","longitude":"10.59917","feature_class":"P","feature_code":"PPL","country_code":"DE","cc2":"","admin1_code":"02","admin2_code":"097","admin3_code":"09772","admin4_code":"09772223","population":"6384","elevation":"","dem":"465","timezone":"Europe/Berlin","modification_date":"2013-02-19"},{"geonameid":"2803723","name":"Zulpich","asciiname":"Zulpich","alternatenames":["Cjul'pikh","Slaget vid Tulpiacum","Tolbiac","Zuelpich","Zulpich","Zülpich","Цюльпих"],"latitude":"50.69447","longitude":"6.65414","feature_class":"P","feature_code":"PPL","country_code":"DE","cc2":"","admin1_code":"07","admin2_code":"","admin3_code":"","admin4_code":"","population":"20208","elevation":"","dem":"174","timezone":"Europe/Berlin","modification_date":"2014-05-09"},{"geonameid":"2803786","name":"Zschorlau","asciiname":"Zschorlau","alternatenames":[""],"latitude":"50.56667","longitude":"12.65","feature_class":"P","feature_code":"PPLA4","country_code":"DE","cc2":"","admin1_code":"13","admin2_code":"00","admin3_code":"14521","admin4_code":"14521700","population":"5944","elevation":"","dem":"501","timezone":"Europe/Berlin","modification_date":"2014-01-02"},{"geonameid":"2803798","name":"Zschopau","asciiname":"Zschopau","alternatenames":["Chopau","Cshopau","Csopava","Cšopava","Zschopau","chwpa","ci xiao bao","Цшопау","Чопау","چوپا","茨肖保"],"latitude":"50.74818","longitude":"13.07691","feature_class":"P","feature_code":"PPL","country_code":"DE","cc2":"","admin1_code":"13","admin2_code":"","admin3_code":"","admin4_code":"","population":"11705","elevation":"","dem":"355","timezone":"Europe/Berlin","modification_date":"2012-06-05"},{"geonameid":"2803870","name":"Zossen","asciiname":"Zossen","alternatenames":["Cosen","Cossen","Sosny","Zossen","cuo sen","swzh","Цосен","Цоссен","سوزه","措森"],"latitude":"52.216","longitude":"13.44909","feature_class":"P","feature_code":"PPL","country_code":"DE","cc2":"","admin1_code":"11","admin2_code":"","admin3_code":"","admin4_code":"","population":"17138","elevation":"","dem":"41","timezone":"Europe/Berlin","modification_date":"2012-08-04"},{"geonameid":"2803884","name":"Zorneding","asciiname":"Zorneding","alternatenames":["Corneding","cuo er nei ding ge","Цорнединг","措尔内丁格"],"latitude":"48.08433","longitude":"11.82446","feature_class":"P","feature_code":"PPLA4","country_code":"DE","cc2":"","admin1_code":"02","admin2_code":"091","admin3_code":"09175","admin4_code":"09175139","population":"8581","elevation":"","dem":"563","timezone":"Europe/Berlin","modification_date":"2011-04-25"},{"geonameid":"2804008","name":"Zittau","asciiname":"Zittau","alternatenames":["Citau","Citava","Cittau","Sitavia","ZIT","Zitava","Zitawa","Zittau","Zytawa","qi tao","tsu~ittau","tsu~ittauno","tsyta","Żytawa","Žitava","Žitawa","Цитау","Циттау","Ціттаў","تسیتا","ツィッタウ","ツィッタウの","齐陶"],"latitude":"50.89772","longitude":"14.80764","feature_class":"P","feature_code":"PPL","country_code":"DE","cc2":"","admin1_code":"13","admin2_code":"00","admin3_code":"","admin4_code":"","population":"25785","elevation":"","dem":"253","timezone":"Europe/Berlin","modification_date":"2014-05-09"},{"geonameid":"2804034","name":"Zirndorf","asciiname":"Zirndorf","alternatenames":["Cirndorf","Zimdorf","qi er en duo fu","tsyndwrf","Цирндорф","تسیندورف","齐尔恩多夫"],"latitude":"49.4424","longitude":"10.95414","feature_class":"P","feature_code":"PPLA3","country_code":"DE","cc2":"","admin1_code":"02","admin2_code":"095","admin3_code":"09573","admin4_code":"09573134","population":"25734","elevation":"","dem":"309","timezone":"Europe/Berlin","modification_date":"2014-01-15"},{"geonameid":"2804159","name":"Zimmern ob Rottweil","asciiname":"Zimmern ob Rottweil","alternatenames":[""],"latitude":"48.1666","longitude":"8.59436","feature_class":"P","feature_code":"PPLA4","country_code":"DE","cc2":"","admin1_code":"01","admin2_code":"083","admin3_code":"08325","admin4_code":"08325069","population":"6061","elevation":"","dem":"663","timezone":"Europe/Berlin","modification_date":"2011-07-31"},{"geonameid":"2804297","name":"Zierenberg","asciiname":"Zierenberg","alternatenames":["Cirenberg","qi lun bei er ge","tsu~irenberuku","tsyrnbrg","Циренберг","تسیرنبرگ","ツィーレンベルク","齐伦贝尔格"],"latitude":"51.36948","longitude":"9.30164","feature_class":"P","feature_code":"PPL","country_code":"DE","cc2":"","admin1_code":"05","admin2_code":"066","admin3_code":"","admin4_code":"","population":"6782","elevation":"","dem":"276","timezone":"Europe/Berlin","modification_date":"2010-11-15"},{"geonameid":"2804642","name":"Zeven","asciiname":"Zeven","alternatenames":["Cefen","Ceven","Zeven","ce fen","tsu~efen","tswn","Цевен","Цефен","تسون","ツェーフェン","策芬"],"latitude":"53.29657","longitude":"9.27685","feature_class":"P","feature_code":"PPL","country_code":"DE","cc2":"","admin1_code":"06","admin2_code":"","admin3_code":"","admin4_code":"","population":"12607","elevation":"","dem":"20","timezone":"Europe/Berlin","modification_date":"2012-07-04"},{"geonameid":"2804646","name":"Zeuthen","asciiname":"Zeuthen","alternatenames":["Cojten","Zeuthen","cuo yi teng","Цойтен","Цојтен","措伊滕"],"latitude":"52.36667","longitude":"13.61667","feature_class":"P","feature_code":"PPLA4","country_code":"DE","cc2":"","admin1_code":"11","admin2_code":"00","admin3_code":"12061","admin4_code":"12061572","population":"10084","elevation":"","dem":"36","timezone":"Europe/Berlin","modification_date":"2011-04-25"},{"geonameid":"2804654","name":"Zeulenroda","asciiname":"Zeulenroda","alternatenames":[""],"latitude":"50.65278","longitude":"11.98377","feature_class":"P","feature_code":"PPL","country_code":"DE","cc2":"","admin1_code":"15","admin2_code":"","admin3_code":"","admin4_code":"","population":"13763","elevation":"","dem":"411","timezone":"Europe/Berlin","modification_date":"2012-03-19"},{"geonameid":"2804697","name":"Zetel","asciiname":"Zetel","alternatenames":["Cetel","Cetel'","Zetel","ce te er","Цетел","Цетель","策特尔"],"latitude":"53.41667","longitude":"7.98333","feature_class":"P","feature_code":"PPLA4","country_code":"DE","cc2":"","admin1_code":"06","admin2_code":"00","admin3_code":"03455","admin4_code":"03455027","population":"11684","elevation":"","dem":"7","timezone":"Europe/Berlin","modification_date":"2011-07-31"},{"geonameid":"2804748","name":"Zerbst","asciiname":"Zerbst","alternatenames":["Cerbst","Serbisco","Serbišćo","Servesta","Zerbst","Zerbst/Anhalt","ce er bu si te","tsbrst","Цербст","تسبرست","策尔布斯特"],"latitude":"51.9662","longitude":"12.08517","feature_class":"P","feature_code":"PPL","country_code":"DE","cc2":"","admin1_code":"14","admin2_code":"","admin3_code":"","admin4_code":"","population":"15680","elevation":"","dem":"67","timezone":"Europe/Berlin","modification_date":"2012-06-05"},{"geonameid":"2804808","name":"Zellingen","asciiname":"Zellingen","alternatenames":["Zellingen"],"latitude":"49.89737","longitude":"9.81746","feature_class":"P","feature_code":"PPL","country_code":"DE","cc2":"","admin1_code":"02","admin2_code":"096","admin3_code":"09677","admin4_code":"09677203","population":"6365","elevation":"","dem":"171","timezone":"Europe/Berlin","modification_date":"2013-02-19"},{"geonameid":"2804810","name":"Zell im Wiesental","asciiname":"Zell im Wiesental","alternatenames":["Cel im Vizental","Cell'","Zell en el Valle del Wiese","ce er yi mu wei sen ta er","tsl dr wyzntal","Цел им Визентал","Целль","تسل در ویزنتال","策尔伊姆维森塔尔"],"latitude":"47.70555","longitude":"7.85248","feature_class":"P","feature_code":"PPL","country_code":"DE","cc2":"","admin1_code":"01","admin2_code":"083","admin3_code":"08336","admin4_code":"08336103","population":"6206","elevation":"","dem":"431","timezone":"Europe/Berlin","modification_date":"2013-02-15"},{"geonameid":"2804867","name":"Zella-Mehlis","asciiname":"Zella-Mehlis","alternatenames":["Cela-Melis","Cella-Melis","Zella-Mehlis","ce la-mei li si","tsl","Цела-Мелис","Целла-Мелис","Целла-Меліс","تسل","策拉-梅利斯"],"latitude":"50.65642","longitude":"10.66046","feature_class":"P","feature_code":"PPL","country_code":"DE","cc2":"","admin1_code":"15","admin2_code":"","admin3_code":"","admin4_code":"","population":"12361","elevation":"","dem":"485","timezone":"Europe/Berlin","modification_date":"2012-09-06"},{"geonameid":"2804895","name":"Zell","asciiname":"Zell","alternatenames":[""],"latitude":"48.69235","longitude":"8.06301","feature_class":"P","feature_code":"PPL","country_code":"DE","cc2":"","admin1_code":"01","admin2_code":"082","admin3_code":"08216","admin4_code":"08216041","population":"8043","elevation":"","dem":"130","timezone":"Europe/Berlin","modification_date":"2013-02-16"},{"geonameid":"2804922","name":"Zeitz","asciiname":"Zeitz","alternatenames":["Cajc","Ceicas","Cice [a. 1140]","Zeitz","Zitc","cai ci","tsaytz","Žitč","Цайц","Цајц","تسایتز","蔡茨"],"latitude":"51.04962","longitude":"12.1369","feature_class":"P","feature_code":"PPL","country_code":"DE","cc2":"","admin1_code":"14","admin2_code":"","admin3_code":"","admin4_code":"","population":"29469","elevation":"","dem":"191","timezone":"Europe/Berlin","modification_date":"2014-12-22"},{"geonameid":"2804933","name":"Zeitlarn","asciiname":"Zeitlarn","alternatenames":[""],"latitude":"49.07848","longitude":"12.11174","feature_class":"P","feature_code":"PPLA4","country_code":"DE","cc2":"","admin1_code":"02","admin2_code":"093","admin3_code":"09375","admin4_code":"09375213","population":"5849","elevation":"","dem":"334","timezone":"Europe/Berlin","modification_date":"2015-02-05"},{"geonameid":"2805008","name":"Zeil","asciiname":"Zeil","alternatenames":[""],"latitude":"50.00986","longitude":"10.5947","feature_class":"P","feature_code":"PPL","country_code":"DE","cc2":"","admin1_code":"02","admin2_code":"096","admin3_code":"09674","admin4_code":"09674221","population":"6016","elevation":"","dem":"235","timezone":"Europe/Berlin","modification_date":"2013-02-19"},{"geonameid":"2805059","name":"Zehlendorf","asciiname":"Zehlendorf Bezirk","alternatenames":["Berlin-Zehlendorf","Celendorf","zlndwrp","Целендорф","צלנדורף"],"latitude":"52.43333","longitude":"13.25","feature_class":"P","feature_code":"PPLX","country_code":"DE","cc2":"","admin1_code":"16","admin2_code":"00","admin3_code":"11000","admin4_code":"11000000","population":"58469","elevation":"","dem":"46","timezone":"Europe/Berlin","modification_date":"2012-06-09"},{"geonameid":"2805075","name":"Zehdenick","asciiname":"Zehdenick","alternatenames":["Cedenik","ce de ni ke","tshdnyk","Цеденик","تسهدنیک","策德尼克"],"latitude":"52.97852","longitude":"13.33165","feature_class":"P","feature_code":"PPL","country_code":"DE","cc2":"","admin1_code":"11","admin2_code":"","admin3_code":"","admin4_code":"","population":"14809","elevation":"","dem":"52","timezone":"Europe/Berlin","modification_date":"2009-01-29"},{"geonameid":"2805228","name":"Zapfendorf","asciiname":"Zapfendorf","alternatenames":[""],"latitude":"50.01783","longitude":"10.93243","feature_class":"P","feature_code":"PPL","country_code":"DE","cc2":"","admin1_code":"02","admin2_code":"094","admin3_code":"09471","admin4_code":"09471214","population":"5017","elevation":"","dem":"249","timezone":"Europe/Berlin","modification_date":"2013-02-19"},{"geonameid":"2805385","name":"Xanten","asciiname":"Xanten","alternatenames":["Gorad Ksantehn","Ksanten","Santen","Xanten","Xantum","kusanten","sang teng","Горад Ксантэн","Ксантен","クサンテン","桑騰"],"latitude":"51.65877","longitude":"6.45297","feature_class":"P","feature_code":"PPL","country_code":"DE","cc2":"","admin1_code":"07","admin2_code":"051","admin3_code":"","admin4_code":"","population":"21587","elevation":"","dem":"24","timezone":"Europe/Berlin","modification_date":"2012-11-23"},{"geonameid":"2805419","name":"Wutöschingen","asciiname":"Wutoschingen","alternatenames":["Vuteshingen","Vutjoshingen","Wutoeschingen","Wutoschingen","Wutöschingen","wu te xin gen","Вутешинген","Вутёшинген","武特欣根"],"latitude":"47.66667","longitude":"8.36667","feature_class":"P","feature_code":"PPLA4","country_code":"DE","cc2":"","admin1_code":"01","admin2_code":"083","admin3_code":"08337","admin4_code":"08337123","population":"6675","elevation":"","dem":"479","timezone":"Europe/Berlin","modification_date":"2015-03-04"},{"geonameid":"2805480","name":"Wustermark","asciiname":"Wustermark","alternatenames":["Vustermark","Wustermark","wu si te er ma er ke","Вустермарк","武斯特尔马尔克"],"latitude":"52.55","longitude":"12.95","feature_class":"P","feature_code":"PPLA4","country_code":"DE","cc2":"","admin1_code":"11","admin2_code":"00","admin3_code":"12063","admin4_code":"12063357","population":"7729","elevation":"","dem":"33","timezone":"Europe/Berlin","modification_date":"2011-07-31"},{"geonameid":"2805483","name":"Wusterhausen","asciiname":"Wusterhausen","alternatenames":[""],"latitude":"52.8912","longitude":"12.46021","feature_class":"P","feature_code":"PPL","country_code":"DE","cc2":"","admin1_code":"11","admin2_code":"","admin3_code":"","admin4_code":"","population":"6632","elevation":"","dem":"36","timezone":"Europe/Berlin","modification_date":"2009-02-27"},{"geonameid":"2805497","name":"Wüstenrot","asciiname":"Wustenrot","alternatenames":["Vistenrot","Vjustenrot","Wuestenrot","Wüstenrot","vu~yusutenroto","wei si teng luo te","Вистенрот","Вюстенрот","ヴュステンロート","维斯滕罗特"],"latitude":"49.08083","longitude":"9.46056","feature_class":"P","feature_code":"PPLA4","country_code":"DE","cc2":"","admin1_code":"01","admin2_code":"081","admin3_code":"08125","admin4_code":"08125107","population":"6770","elevation":"","dem":"495","timezone":"Europe/Berlin","modification_date":"2015-03-04"},{"geonameid":"2805597","name":"Wurzen","asciiname":"Wurzen","alternatenames":["Gorad Vurcehn","Vurcen","Vurcene","Worcyn","Wurzen","wu er cen","wwrtsn","Вурцен","Горад Вурцэн","وورتسن","武尔岑"],"latitude":"51.3707","longitude":"12.73939","feature_class":"P","feature_code":"PPL","country_code":"DE","cc2":"","admin1_code":"13","admin2_code":"00","admin3_code":"","admin4_code":"","population":"15233","elevation":"","dem":"126","timezone":"Europe/Berlin","modification_date":"2014-01-02"},{"geonameid":"2805615","name":"Würzburg","asciiname":"Wuerzburg","alternatenames":["Birtsmpournk","Gorad Vjurcburg","Herbipolis","Herbopolis","Vircburg","Vircburga","Virteburh [a. 704]","Virtibriga","Viurcburgas","Vjurcburg","Vuirziburga [a. 779]","Vyurcʻburg","Wiazburg","Wirciburc","Wirzaburg [a. 742]","Wirziburg [a. 779]","Wuerzboerj","Wuerzburg","Wurtzbourg","Wurtzburgo","Wurzburg","Wurzburgo","Wûrzburg","Würzburg","Würzbörj","bwileucheubuleukeu","fwrtsbwrgh","viurtsburgi","vu~yurutsuburuku","wei er ci bao","weu xr sburk","wrzbrg","wwrtsbwrg","wyrzbwrg","Βίρτσμπουργκ","Вирцбург","Вюрцбург","Горад Вюрцбург","Վյուրցբուրգ","וירצבורג","فورتسبورغ","ورزبرگ","وورتسبورگ","เวือร์ซบูร์ก","ვიურცბურგი","ヴュルツブルク","维尔茨堡","뷔르츠부르크"],"latitude":"49.79391","longitude":"9.95121","feature_class":"P","feature_code":"PPLA2","country_code":"DE","cc2":"","admin1_code":"02","admin2_code":"096","admin3_code":"09663","admin4_code":"09663000","population":"133731","elevation":"","dem":"204","timezone":"Europe/Berlin","modification_date":"2014-12-19"},{"geonameid":"2805644","name":"Würselen","asciiname":"Wurselen","alternatenames":["Virselen","Vjurzelen","Woeschele","Woesjele","Wuerselen","Wurselen","Wöschele","Wösjele","Würselen","fwrsln","wei er sai lun","wwrsln","Вирселен","Вюрзелен","فورسلن","وورسلن","维尔塞伦"],"latitude":"50.81809","longitude":"6.1347","feature_class":"P","feature_code":"PPL","country_code":"DE","cc2":"","admin1_code":"07","admin2_code":"053","admin3_code":"","admin4_code":"","population":"37074","elevation":"","dem":"190","timezone":"Europe/Berlin","modification_date":"2015-03-04"},{"geonameid":"2805753","name":"Wuppertal","asciiname":"Wuppertal","alternatenames":["Boupertal","Gorad Vupertal'","UWP","Vupertal","Vupertale","Vupertalis","Vupertāle","Vuppertal","Vuppertal'","Wupperdaal","Wuppertal","bupeotal","fwbrtal","vupartala","vuppataru","wu po ta er","wuph phe xrthal","wwprtal","wwprtl","Βούπερταλ","Вупертал","Вупперталь","Горад Вуперталь","וופרטל","فوبرتال","ووپرتال","وپرٹال","वुपर्टाल","วุพเพอร์ทัล","ვუპერტალი","ヴッパータール","伍珀塔尔","부퍼탈"],"latitude":"51.27027","longitude":"7.16755","feature_class":"P","feature_code":"PPLA3","country_code":"DE","cc2":"","admin1_code":"07","admin2_code":"051","admin3_code":"05124","admin4_code":"","population":"360797","elevation":"","dem":"189","timezone":"Europe/Berlin","modification_date":"2014-03-01"},{"geonameid":"2805761","name":"Wunstorf","asciiname":"Wunstorf","alternatenames":["Vunstorf","Wunstorf","wen si tuo fu","wwnstwrf","Вунсторф","وونستورف","文斯托夫"],"latitude":"52.42377","longitude":"9.43585","feature_class":"P","feature_code":"PPL","country_code":"DE","cc2":"","admin1_code":"06","admin2_code":"","admin3_code":"","admin4_code":"","population":"42080","elevation":"","dem":"47","timezone":"Europe/Berlin","modification_date":"2012-08-04"},{"geonameid":"2805762","name":"Wunsiedel","asciiname":"Wunsiedel","alternatenames":["Vunsidel","Vunzidel'","Wunsiedel","vunjideru","wen xi de er","wwnzydl","Вунзидель","Вунсидел","وونزیدل","ヴンジーデル","文西德尔"],"latitude":"50.03923","longitude":"12.00342","feature_class":"P","feature_code":"PPLA3","country_code":"DE","cc2":"","admin1_code":"02","admin2_code":"094","admin3_code":"09479","admin4_code":"09479169","population":"10295","elevation":"","dem":"545","timezone":"Europe/Berlin","modification_date":"2014-01-18"},{"geonameid":"2805785","name":"Wünnenberg","asciiname":"Wunnenberg","alternatenames":[""],"latitude":"51.52002","longitude":"8.69934","feature_class":"P","feature_code":"PPL","country_code":"DE","cc2":"","admin1_code":"07","admin2_code":"057","admin3_code":"","admin4_code":"","population":"12439","elevation":"","dem":"289","timezone":"Europe/Berlin","modification_date":"2012-11-28"},{"geonameid":"2805910","name":"Wülfrath","asciiname":"Wulfrath","alternatenames":["Vilfrat","Viulfratas","Vjul'frat","Wuelfrath","Wülfrath","wei er fu la te","wwlfrat","Вилфрат","Вюльфрат","وولفرات","维尔夫拉特"],"latitude":"51.28195","longitude":"7.03821","feature_class":"P","feature_code":"PPL","country_code":"DE","cc2":"","admin1_code":"07","admin2_code":"","admin3_code":"","admin4_code":"","population":"22355","elevation":"","dem":"189","timezone":"Europe/Berlin","modification_date":"2013-06-05"},{"geonameid":"2805999","name":"Wriezen","asciiname":"Wriezen","alternatenames":["Vricen","fu li cen","wrytsn","Врицен","وریتسن","弗里岑"],"latitude":"52.72091","longitude":"14.13425","feature_class":"P","feature_code":"PPL","country_code":"DE","cc2":"","admin1_code":"11","admin2_code":"","admin3_code":"","admin4_code":"","population":"8213","elevation":"","dem":"12","timezone":"Europe/Berlin","modification_date":"2009-01-28"},{"geonameid":"2806081","name":"Wörth am Rhein","asciiname":"Worth am Rhein","alternatenames":["Vert na Rajni","Vjort-na-Rejne","Woerth am Rhein","Worth","Worth am Rhein","Wörth","Wörth am Rhein","lai yin he pan wei er te","wwrth an dr rayn","Верт на Рајни","Вёрт-на-Рейне","وورث آن در راین","莱茵河畔韦尔特"],"latitude":"49.04888","longitude":"8.25959","feature_class":"P","feature_code":"PPL","country_code":"DE","cc2":"","admin1_code":"08","admin2_code":"","admin3_code":"","admin4_code":"","population":"17272","elevation":"","dem":"116","timezone":"Europe/Berlin","modification_date":"2015-03-04"},{"geonameid":"2806105","name":"Wörrstadt","asciiname":"Worrstadt","alternatenames":["Vershtat","Vjorshtadt","Woerrstadt","Wörrstadt","wwrashtat","Верштат","Вёрштадт","ووراشتات"],"latitude":"49.84861","longitude":"8.12417","feature_class":"P","feature_code":"PPLA4","country_code":"DE","cc2":"","admin1_code":"08","admin2_code":"00","admin3_code":"07331","admin4_code":"07331073","population":"7668","elevation":"","dem":"208","timezone":"Europe/Berlin","modification_date":"2015-03-04"},{"geonameid":"2806108","name":"Worpswede","asciiname":"Worpswede","alternatenames":[""],"latitude":"53.21667","longitude":"8.93333","feature_class":"P","feature_code":"PPLA4","country_code":"DE","cc2":"","admin1_code":"06","admin2_code":"00","admin3_code":"03356","admin4_code":"03356011","population":"9417","elevation":"","dem":"22","timezone":"Europe/Berlin","modification_date":"2011-04-25"},{"geonameid":"2806142","name":"Worms","asciiname":"Worms","alternatenames":["Borbetomagus","Gorad Vorms","Vormatia","Vorms","Vormsa","Vormsas","Woms","Wormacja","Wormatia","Worms","ZQV","boleumseu","fwrms","vu~orumusu","wo er mu si","wrmz  alman","wwrms","Βορμς","Вормс","Горад Вормс","ווארמז","וורמס","فورمس","ورمز، آلمان","ቩርምዝ","ヴォルムス","沃尔姆斯","보름스"],"latitude":"49.63278","longitude":"8.35916","feature_class":"P","feature_code":"PPLA3","country_code":"DE","cc2":"","admin1_code":"08","admin2_code":"00","admin3_code":"07319","admin4_code":"","population":"81099","elevation":"","dem":"104","timezone":"Europe/Berlin","modification_date":"2014-03-01"},{"geonameid":"2806192","name":"Worbis","asciiname":"Worbis","alternatenames":[""],"latitude":"51.41997","longitude":"10.3633","feature_class":"P","feature_code":"PPL","country_code":"DE","cc2":"","admin1_code":"15","admin2_code":"","admin3_code":"","admin4_code":"","population":"5371","elevation":"","dem":"324","timezone":"Europe/Berlin","modification_date":"2012-08-04"},{"geonameid":"2806287","name":"Woltersdorf","asciiname":"Woltersdorf","alternatenames":["Woltersdorf"],"latitude":"52.45","longitude":"13.76667","feature_class":"P","feature_code":"PPLA4","country_code":"DE","cc2":"","admin1_code":"11","admin2_code":"00","admin3_code":"12067","admin4_code":"12067544","population":"7581","elevation":"","dem":"39","timezone":"Europe/Berlin","modification_date":"2011-04-25"},{"geonameid":"2806339","name":"Wolnzach","asciiname":"Wolnzach","alternatenames":["Vol'ncakh","Volncakh","wo er en cha","Волнцах","Вольнцах","沃尔恩察"],"latitude":"48.6038","longitude":"11.62568","feature_class":"P","feature_code":"PPL","country_code":"DE","cc2":"","admin1_code":"02","admin2_code":"091","admin3_code":"09186","admin4_code":"09186162","population":"10973","elevation":"","dem":"413","timezone":"Europe/Berlin","modification_date":"2013-02-19"},{"geonameid":"2806342","name":"Wolmirstedt","asciiname":"Wolmirstedt","alternatenames":["Wolmirstedt"],"latitude":"52.24856","longitude":"11.62945","feature_class":"P","feature_code":"PPL","country_code":"DE","cc2":"","admin1_code":"14","admin2_code":"","admin3_code":"","admin4_code":"","population":"10860","elevation":"","dem":"52","timezone":"Europe/Berlin","modification_date":"2012-08-04"},{"geonameid":"2806501","name":"Wolgast","asciiname":"Wolgast","alternatenames":["Vol'gast","Volgast","Volgaste","Wolgast","Wologoszcz","Wołogoszcz","Wòłogòszcz","vu~orugasuto","wlgast","wo er jia si te","Волгаст","Вольгаст","ولگاست","ヴォルガスト","沃尔加斯特"],"latitude":"54.05275","longitude":"13.77201","feature_class":"P","feature_code":"PPL","country_code":"DE","cc2":"","admin1_code":"12","admin2_code":"","admin3_code":"","admin4_code":"","population":"12664","elevation":"","dem":"16","timezone":"Europe/Berlin","modification_date":"2012-07-04"},{"geonameid":"2806646","name":"Wolfschlugen","asciiname":"Wolfschlugen","alternatenames":["Wolfschlugen"],"latitude":"48.65","longitude":"9.28333","feature_class":"P","feature_code":"PPLA4","country_code":"DE","cc2":"","admin1_code":"01","admin2_code":"081","admin3_code":"08116","admin4_code":"08116073","population":"6108","elevation":"","dem":"373","timezone":"Europe/Berlin","modification_date":"2011-07-31"},{"geonameid":"2806654","name":"Wolfsburg","asciiname":"Wolfsburg","alternatenames":["BWE","Gorad Vol'fsburg","Vol'fsburg","Volfsburg","Volfsburgas","Volfsmpournk","Wolfsboerj","Wolfsbourg","Wolfsburg","Wolfsburgo","Wolfsbuurich","Wolfsbörj","Wulfsborg","bolpeuseubuleukeu","fwlfsbwrgh","volpsburgi","vu~orufusuburuku","wlfzbrg","wo er fu si bao","wwlfsbwrg","wwlfzbwrg","wwlpsbwrg","Βόλφσμπουργκ","Волфсбург","Вольфсбург","Горад Вольфсбург","Վոլֆսբուրգ","וולפסבורג","فولفسبورغ","ولفزبرگ","وولفزبورگ","وولفسبورگ","ვოლფსბურგი","ヴォルフスブルク","沃尔夫斯堡","볼프스부르크"],"latitude":"52.42452","longitude":"10.7815","feature_class":"P","feature_code":"PPLA3","country_code":"DE","cc2":"","admin1_code":"06","admin2_code":"00","admin3_code":"03103","admin4_code":"","population":"123064","elevation":"","dem":"62","timezone":"Europe/Berlin","modification_date":"2014-03-01"},{"geonameid":"2806768","name":"Wolfratshausen","asciiname":"Wolfratshausen","alternatenames":["Vol'fratskhauzen","Volfratskhauzen","wlfratzhawzn","wo er fu la ci hao sen","Волфратсхаузен","Вольфратсхаузен","ولفراتزهاوزن","沃尔夫拉茨豪森"],"latitude":"47.91289","longitude":"11.42166","feature_class":"P","feature_code":"PPL","country_code":"DE","cc2":"","admin1_code":"02","admin2_code":"091","admin3_code":"09173","admin4_code":"09173147","population":"17191","elevation":"","dem":"578","timezone":"Europe/Berlin","modification_date":"2013-02-19"},{"geonameid":"2806799","name":"Wolfhagen","asciiname":"Wolfhagen","alternatenames":["Vol'fkhagen","Volfkhagen","Wolfhagen","vu~orufuhagen","wlfhagn","wo er fu ha gen","Волфхаген","Вольфхаген","ولفهاگن","ヴォルフハーゲン","沃尔夫哈根"],"latitude":"51.32611","longitude":"9.17015","feature_class":"P","feature_code":"PPL","country_code":"DE","cc2":"","admin1_code":"05","admin2_code":"066","admin3_code":"","admin4_code":"","population":"13266","elevation":"","dem":"283","timezone":"Europe/Berlin","modification_date":"2012-12-10"},{"geonameid":"2806852","name":"Wölfersheim","asciiname":"Wolfersheim","alternatenames":["Velferskhajm","Vjol'ferskhajm","Woelfersheim","Wölfersheim","wei er fei er si hai mu","Велферсхајм","Вёльферсхайм","韦尔费尔斯海姆"],"latitude":"50.4","longitude":"8.81667","feature_class":"P","feature_code":"PPLA4","country_code":"DE","cc2":"","admin1_code":"05","admin2_code":"064","admin3_code":"06440","admin4_code":"06440024","population":"9610","elevation":"","dem":"153","timezone":"Europe/Berlin","modification_date":"2015-01-27"},{"geonameid":"2806914","name":"Wolfenbüttel","asciiname":"Wolfenbuettel","alternatenames":["Guelpherbytum","Vol'fenbjuttel'","Volfenbitel","Volfenbjutel","Wolfenbuettel","Wolfenbuttel","Wolfenbüttel","Wulfenbuettel","Wulfenbüttel","wlfnbwtl","wo er fen bi te er","Волфенбител","Волфенбютел","Вольфенбюттель","ولفنبوتل","沃爾芬比特爾"],"latitude":"52.16442","longitude":"10.54095","feature_class":"P","feature_code":"PPLA3","country_code":"DE","cc2":"","admin1_code":"06","admin2_code":"00","admin3_code":"03158","admin4_code":"","population":"54740","elevation":"","dem":"80","timezone":"Europe/Berlin","modification_date":"2014-01-23"},{"geonameid":"2806919","name":"Wolfen","asciiname":"Wolfen","alternatenames":["Vol'fen","Wolfen","Вольфен"],"latitude":"51.66122","longitude":"12.26873","feature_class":"P","feature_code":"PPL","country_code":"DE","cc2":"","admin1_code":"14","admin2_code":"","admin3_code":"","admin4_code":"","population":"25251","elevation":"","dem":"90","timezone":"Europe/Berlin","modification_date":"2012-09-06"},{"geonameid":"2806946","name":"Wolfach","asciiname":"Wolfach","alternatenames":["Vol'fakh","Volfakh","Wolfach","wlfakh","wo er fa","Волфах","Вольфах","ولفاخ","沃尔法"],"latitude":"48.29319","longitude":"8.2158","feature_class":"P","feature_code":"PPL","country_code":"DE","cc2":"","admin1_code":"01","admin2_code":"083","admin3_code":"08317","admin4_code":"08317145","population":"5998","elevation":"","dem":"277","timezone":"Europe/Berlin","modification_date":"2013-02-16"},{"geonameid":"2807184","name":"Witzenhausen","asciiname":"Witzenhausen","alternatenames":["Vicenkhauzen","Vitcenkhauzen","Witzenhausen","Witzenhusa","vu~ittsu~enhauzen","wei cen hao sen","Витценхаузен","Виценхаузен","ویتسن‌هاوزن","ヴィッツェンハウゼン","维岑豪森"],"latitude":"51.34103","longitude":"9.8554","feature_class":"P","feature_code":"PPL","country_code":"DE","cc2":"","admin1_code":"05","admin2_code":"","admin3_code":"","admin4_code":"","population":"16055","elevation":"","dem":"151","timezone":"Europe/Berlin","modification_date":"2012-08-04"},{"geonameid":"2807201","name":"Wittstock","asciiname":"Wittstock","alternatenames":[""],"latitude":"53.16118","longitude":"12.48287","feature_class":"P","feature_code":"PPL","country_code":"DE","cc2":"","admin1_code":"11","admin2_code":"","admin3_code":"","admin4_code":"","population":"17361","elevation":"","dem":"66","timezone":"Europe/Berlin","modification_date":"2009-03-31"},{"geonameid":"2807218","name":"Wittmund","asciiname":"Wittmund","alternatenames":["Vitmund","Wittmund","wei te meng de","wytmwnd","Витмунд","ویتموند","维特蒙德"],"latitude":"53.57674","longitude":"7.77839","feature_class":"P","feature_code":"PPLA3","country_code":"DE","cc2":"","admin1_code":"06","admin2_code":"00","admin3_code":"03462","admin4_code":"","population":"21355","elevation":"","dem":"4","timezone":"Europe/Berlin","modification_date":"2014-01-23"},{"geonameid":"2807240","name":"Wittlich","asciiname":"Wittlich","alternatenames":["Vitlikh","Vittlikh","Wittlech","Wittlich","vu~ittorihi","wei te li xi","wytlysh","Витлих","Виттлих","ویتلیش","ヴィットリヒ","维特利希"],"latitude":"49.98596","longitude":"6.89308","feature_class":"P","feature_code":"PPLA3","country_code":"DE","cc2":"","admin1_code":"08","admin2_code":"00","admin3_code":"07231","admin4_code":"","population":"17887","elevation":"","dem":"178","timezone":"Europe/Berlin","modification_date":"2014-01-21"},{"geonameid":"2807257","name":"Wittingen","asciiname":"Wittingen","alternatenames":["Vitingen","Vittingen","wei ting gen","wytyngn","Витинген","Виттинген","ویتینگن","维廷根"],"latitude":"52.72694","longitude":"10.73613","feature_class":"P","feature_code":"PPL","country_code":"DE","cc2":"","admin1_code":"06","admin2_code":"00","admin3_code":"","admin4_code":"","population":"12427","elevation":"","dem":"84","timezone":"Europe/Berlin","modification_date":"2010-11-22"},{"geonameid":"2807265","name":"Wittichenau","asciiname":"Wittichenau","alternatenames":["Kulow","Vitihenava","Vitikhenau","Vittikhenau","Wittichenau","wei di xie nao","wytyshnaw","Витихенау","Виттихенау","ویتیشناو","维蒂歇瑙"],"latitude":"51.38496","longitude":"14.24403","feature_class":"P","feature_code":"PPL","country_code":"DE","cc2":"","admin1_code":"13","admin2_code":"","admin3_code":"","admin4_code":"","population":"6261","elevation":"","dem":"126","timezone":"Europe/Berlin","modification_date":"2012-01-20"},{"geonameid":"2807335","name":"Wittenburg","asciiname":"Wittenburg","alternatenames":["Vitenburg","Vitenburga","Vittenburg","Wittenburg","wei teng bao","wytnbwrg","Витенбург","Виттенбург","ویتنبورگ","维滕堡"],"latitude":"53.50599","longitude":"11.08049","feature_class":"P","feature_code":"PPL","country_code":"DE","cc2":"","admin1_code":"12","admin2_code":"","admin3_code":"","admin4_code":"","population":"5041","elevation":"","dem":"43","timezone":"Europe/Berlin","modification_date":"2012-07-04"},{"geonameid":"2807344","name":"Wittenberge","asciiname":"Wittenberge","alternatenames":["Vitenberge","Vittenberge","Wittenberge","wei teng bei ge","wytnbrg","Витенберге","Виттенберге","ویتنبرگ","维滕贝格"],"latitude":"53.00543","longitude":"11.75032","feature_class":"P","feature_code":"PPL","country_code":"DE","cc2":"","admin1_code":"11","admin2_code":"","admin3_code":"","admin4_code":"","population":"20171","elevation":"","dem":"23","timezone":"Europe/Berlin","modification_date":"2012-07-04"},{"geonameid":"2807360","name":"Wittenau","asciiname":"Wittenau","alternatenames":["Berlin-Wittenau"],"latitude":"52.59319","longitude":"13.32127","feature_class":"P","feature_code":"PPLX","country_code":"DE","cc2":"","admin1_code":"16","admin2_code":"00","admin3_code":"11000","admin4_code":"11000000","population":"29054","elevation":"","dem":"41","timezone":"Europe/Berlin","modification_date":"2012-06-09"},{"geonameid":"2807363","name":"Witten","asciiname":"Witten","alternatenames":["Gorad Vitehn","Viten","Vitenas","Vitten","Witten","ZQR","biten","fytn","vu~itten","wei teng","wytn","Витен","Виттен","Горад Вітэн","فيتن","ویتن","ویٹن","ヴィッテン","维滕","비텐"],"latitude":"51.44362","longitude":"7.35258","feature_class":"P","feature_code":"PPL","country_code":"DE","cc2":"","admin1_code":"07","admin2_code":"","admin3_code":"","admin4_code":"","population":"101247","elevation":"","dem":"119","timezone":"Europe/Berlin","modification_date":"2012-08-04"},{"geonameid":"2807440","name":"Wissen","asciiname":"Wissen","alternatenames":["Wissen"],"latitude":"50.77915","longitude":"7.73466","feature_class":"P","feature_code":"PPL","country_code":"DE","cc2":"","admin1_code":"08","admin2_code":"","admin3_code":"","admin4_code":"","population":"8547","elevation":"","dem":"193","timezone":"Europe/Berlin","modification_date":"2012-09-06"},{"geonameid":"2807465","name":"Wismar","asciiname":"Wismar","alternatenames":["Gorad Vismar","Vismar","Vismara","Vismāra","Vizmar","Wismar","Wismer","Wysmar","Wyszomierz","vismari","vu~isumaru","wei si ma","wysmar","Визмар","Висмар","Вісмар","Горад Вісмар","ویسمار","ვისმარი","ヴィスマール","维斯马"],"latitude":"53.89314","longitude":"11.45286","feature_class":"P","feature_code":"PPLA3","country_code":"DE","cc2":"","admin1_code":"12","admin2_code":"00","admin3_code":"13074","admin4_code":"","population":"45255","elevation":"","dem":"1","timezone":"Europe/Berlin","modification_date":"2014-01-22"},{"geonameid":"2807549","name":"Wirges","asciiname":"Wirges","alternatenames":["Wirges"],"latitude":"50.47195","longitude":"7.79844","feature_class":"P","feature_code":"PPL","country_code":"DE","cc2":"","admin1_code":"08","admin2_code":"","admin3_code":"","admin4_code":"","population":"5201","elevation":"","dem":"271","timezone":"Europe/Berlin","modification_date":"2012-09-06"},{"geonameid":"2807594","name":"Wipperfürth","asciiname":"Wipperfurth","alternatenames":["Viperfirt","Viperfiurtas","Vipperfjurt","Wipperfuerth","Wipperfurta","Wipperfurth","Wipperfürth","wei pei er fei er te","wyprfwrth","Виперфирт","Випперфюрт","ویپرفورث","维佩尔菲尔特"],"latitude":"51.1161","longitude":"7.39865","feature_class":"P","feature_code":"PPL","country_code":"DE","cc2":"","admin1_code":"07","admin2_code":"","admin3_code":"","admin4_code":"","population":"23723","elevation":"","dem":"290","timezone":"Europe/Berlin","modification_date":"2012-08-04"},{"geonameid":"2807736","name":"Winterlingen","asciiname":"Winterlingen","alternatenames":[""],"latitude":"48.18333","longitude":"9.11667","feature_class":"P","feature_code":"PPLA4","country_code":"DE","cc2":"","admin1_code":"01","admin2_code":"084","admin3_code":"08417","admin4_code":"08417075","population":"6722","elevation":"","dem":"781","timezone":"Europe/Berlin","modification_date":"2011-04-25"},{"geonameid":"2807748","name":"Winterhude","asciiname":"Winterhude","alternatenames":[""],"latitude":"53.6","longitude":"10","feature_class":"P","feature_code":"PPLX","country_code":"DE","cc2":"","admin1_code":"04","admin2_code":"","admin3_code":"","admin4_code":"","population":"51297","elevation":"","dem":"22","timezone":"Europe/Berlin","modification_date":"2011-08-21"},{"geonameid":"2807788","name":"Winterberg","asciiname":"Winterberg","alternatenames":["Vinterberg","Winterberg","wen te er bei ge","wyntrbrg","Винтерберг","وینتربرگ","温特尔贝格"],"latitude":"51.19248","longitude":"8.53468","feature_class":"P","feature_code":"PPL","country_code":"DE","cc2":"","admin1_code":"07","admin2_code":"059","admin3_code":"","admin4_code":"","population":"14601","elevation":"","dem":"679","timezone":"Europe/Berlin","modification_date":"2012-11-14"},{"geonameid":"2807825","name":"Winterbach","asciiname":"Winterbach","alternatenames":[""],"latitude":"48.79918","longitude":"9.47914","feature_class":"P","feature_code":"PPLA4","country_code":"DE","cc2":"","admin1_code":"01","admin2_code":"081","admin3_code":"08119","admin4_code":"08119086","population":"7844","elevation":"","dem":"243","timezone":"Europe/Berlin","modification_date":"2011-04-25"},{"geonameid":"2807845","name":"Winsen","asciiname":"Winsen","alternatenames":["Winsen"],"latitude":"53.35753","longitude":"10.21282","feature_class":"P","feature_code":"PPLA3","country_code":"DE","cc2":"","admin1_code":"06","admin2_code":"00","admin3_code":"03353","admin4_code":"","population":"32662","elevation":"","dem":"6","timezone":"Europe/Berlin","modification_date":"2014-02-08"},{"geonameid":"2807846","name":"Winsen","asciiname":"Winsen","alternatenames":["Winsen (Aller)","Winsen an der Aller"],"latitude":"52.68301","longitude":"9.91362","feature_class":"P","feature_code":"PPLA3","country_code":"DE","cc2":"","admin1_code":"06","admin2_code":"00","admin3_code":"03351","admin4_code":"","population":"12838","elevation":"","dem":"33","timezone":"Europe/Berlin","modification_date":"2014-03-14"},{"geonameid":"2807872","name":"Winnenden","asciiname":"Winnenden","alternatenames":["Vinenden","Vinnenden","Winnenden","wen nen deng","wynndn","Виненден","Винненден","وینندن","温嫩登"],"latitude":"48.87563","longitude":"9.39819","feature_class":"P","feature_code":"PPL","country_code":"DE","cc2":"","admin1_code":"01","admin2_code":"081","admin3_code":"08119","admin4_code":"08119085","population":"27783","elevation":"","dem":"293","timezone":"Europe/Berlin","modification_date":"2013-02-16"},{"geonameid":"2808101","name":"Windsbach","asciiname":"Windsbach","alternatenames":["Vindsbakh","Windsbach","vu~intsubahha","wen ci ba he","wyndzbakh","Виндсбах","ویندزباخ","ヴィンツバッハ","温茨巴赫"],"latitude":"49.24786","longitude":"10.82651","feature_class":"P","feature_code":"PPL","country_code":"DE","cc2":"","admin1_code":"02","admin2_code":"095","admin3_code":"09571","admin4_code":"09571226","population":"6235","elevation":"","dem":"389","timezone":"Europe/Berlin","modification_date":"2013-02-19"},{"geonameid":"2808148","name":"Windischeschenbach","asciiname":"Windischeschenbach","alternatenames":["Windischeschenbach"],"latitude":"49.80108","longitude":"12.1571","feature_class":"P","feature_code":"PPL","country_code":"DE","cc2":"","admin1_code":"02","admin2_code":"093","admin3_code":"09374","admin4_code":"09374168","population":"5659","elevation":"","dem":"450","timezone":"Europe/Berlin","modification_date":"2013-02-19"},{"geonameid":"2808406","name":"Wilthen","asciiname":"Wilthen","alternatenames":["Vil'ten","Vilten","Viltene","Wilthen","Wjelecin","Wjelećin","wei er teng","wyltn","Вилтен","Вильтен","Вільтен","ویلتن","维尔滕"],"latitude":"51.09745","longitude":"14.3929","feature_class":"P","feature_code":"PPL","country_code":"DE","cc2":"","admin1_code":"13","admin2_code":"","admin3_code":"","admin4_code":"","population":"6304","elevation":"","dem":"289","timezone":"Europe/Berlin","modification_date":"2012-06-05"},{"geonameid":"2808436","name":"Wilsdruff","asciiname":"Wilsdruff","alternatenames":["Vil'sdruf","Vilsdruf","Vilsdrufa","Wilsdruff","wei er si de lu fu","wylzdrwf","Вилсдруф","Вильсдруф","ویلزدروف","维尔斯德鲁夫"],"latitude":"51.05199","longitude":"13.53657","feature_class":"P","feature_code":"PPL","country_code":"DE","cc2":"","admin1_code":"13","admin2_code":"00","admin3_code":"","admin4_code":"","population":"13772","elevation":"","dem":"269","timezone":"Europe/Berlin","modification_date":"2014-01-02"},{"geonameid":"2808461","name":"Wilnsdorf","asciiname":"Wilnsdorf","alternatenames":["Vil'nsdorf","Vilnsdorf","Wilnsdorf","wei er en si duo fu","Вилнсдорф","Вильнсдорф","维尔恩斯多夫"],"latitude":"50.81667","longitude":"8.1","feature_class":"P","feature_code":"PPLA4","country_code":"DE","cc2":"","admin1_code":"07","admin2_code":"059","admin3_code":"05970","admin4_code":"05970044","population":"21505","elevation":"","dem":"396","timezone":"Europe/Berlin","modification_date":"2011-04-25"},{"geonameid":"2808473","name":"Wilmersdorf","asciiname":"Wilmersdorf Bezirk","alternatenames":["Berlin-Wilmersdorf","Vil'mersdorf","wylmrsdrf","wylmrsdwrp","Вильмерсдорф","וילמרסדורף","ویلمرسدرف"],"latitude":"52.48333","longitude":"13.31667","feature_class":"P","feature_code":"PPLX","country_code":"DE","cc2":"","admin1_code":"16","admin2_code":"00","admin3_code":"11000","admin4_code":"11000000","population":"94113","elevation":"","dem":"39","timezone":"Europe/Berlin","modification_date":"2012-06-09"},{"geonameid":"2808493","name":"Willstätt","asciiname":"Willstatt","alternatenames":["Willstaett","Willstatt","Willstätt"],"latitude":"48.53333","longitude":"7.88333","feature_class":"P","feature_code":"PPLA4","country_code":"DE","cc2":"","admin1_code":"01","admin2_code":"083","admin3_code":"08317","admin4_code":"08317141","population":"9061","elevation":"","dem":"142","timezone":"Europe/Berlin","modification_date":"2015-03-04"},{"geonameid":"2808533","name":"Willingshausen","asciiname":"Willingshausen","alternatenames":["Willingshausen"],"latitude":"50.85","longitude":"9.2","feature_class":"P","feature_code":"PPLA4","country_code":"DE","cc2":"","admin1_code":"05","admin2_code":"066","admin3_code":"06634","admin4_code":"06634026","population":"5385","elevation":"","dem":"230","timezone":"Europe/Berlin","modification_date":"2011-04-25"},{"geonameid":"2808544","name":"Willingen","asciiname":"Willingen","alternatenames":["Vilingen","Villingen","Willingen","Willingeni vald","vu~iringen","wei lin gen","Вилинген","Виллинген","ヴィリンゲン","维林根"],"latitude":"51.29418","longitude":"8.6091","feature_class":"P","feature_code":"PPL","country_code":"DE","cc2":"","admin1_code":"05","admin2_code":"","admin3_code":"","admin4_code":"","population":"6564","elevation":"","dem":"571","timezone":"Europe/Berlin","modification_date":"2012-08-04"},{"geonameid":"2808559","name":"Willich","asciiname":"Willich","alternatenames":["Vilikh","Villikh","Willich","wei li xi","wylysh","Вилих","Виллих","ویلیش","維利希"],"latitude":"51.26371","longitude":"6.54734","feature_class":"P","feature_code":"PPL","country_code":"DE","cc2":"","admin1_code":"07","admin2_code":"051","admin3_code":"","admin4_code":"","population":"51843","elevation":"","dem":"43","timezone":"Europe/Berlin","modification_date":"2012-11-26"},{"geonameid":"2808619","name":"Willebadessen","asciiname":"Willebadessen","alternatenames":["Vilebadesen","Villebadessen","wei lai ba de sen","wyllbadasn","Вилебадесен","Виллебадессен","ویللباداسن","维莱巴德森"],"latitude":"51.62564","longitude":"9.03694","feature_class":"P","feature_code":"PPL","country_code":"DE","cc2":"","admin1_code":"07","admin2_code":"057","admin3_code":"","admin4_code":"","population":"8821","elevation":"","dem":"221","timezone":"Europe/Berlin","modification_date":"2010-11-15"},{"geonameid":"2808644","name":"Wilkau-Haßlau","asciiname":"Wilkau-Hasslau","alternatenames":["Vil'kau-Khaslau","Vilkau-Khaslau","Vilkava-Haslava","Wilkau-Hasslau","Wilkau-Haßlau","wei er kao-ha si lao","wylkwa-haslwa","Вилкау-Хаслау","Вилькау-Хаслау","ویلکوا-هاسلوا","维尔考-哈斯劳"],"latitude":"50.67504","longitude":"12.51482","feature_class":"P","feature_code":"PPL","country_code":"DE","cc2":"","admin1_code":"13","admin2_code":"","admin3_code":"","admin4_code":"","population":"11850","elevation":"","dem":"279","timezone":"Europe/Berlin","modification_date":"2015-03-04"},{"geonameid":"2808649","name":"Wilhermsdorf","asciiname":"Wilhermsdorf","alternatenames":["Vil'khermsdorf","Vilkhermsdorf","Wilhermsdorf","Вилхермсдорф","Вильхермсдорф"],"latitude":"49.48308","longitude":"10.71555","feature_class":"P","feature_code":"PPL","country_code":"DE","cc2":"","admin1_code":"02","admin2_code":"095","admin3_code":"09573","admin4_code":"09573133","population":"5105","elevation":"","dem":"320","timezone":"Europe/Berlin","modification_date":"2013-02-19"},{"geonameid":"2808662","name":"Wilhelmstadt","asciiname":"Wilhelmstadt","alternatenames":["Berlin-Wilhelmstadt","Wilhelmstadt"],"latitude":"52.52462","longitude":"13.17707","feature_class":"P","feature_code":"PPLX","country_code":"DE","cc2":"","admin1_code":"16","admin2_code":"00","admin3_code":"11000","admin4_code":"11000000","population":"37624","elevation":"","dem":"33","timezone":"Europe/Berlin","modification_date":"2012-06-09"},{"geonameid":"2808664","name":"Wilhelmsruh","asciiname":"Wilhelmsruh","alternatenames":["Berlin-Wilhelmsruh","Wilhelmsruh"],"latitude":"52.5871","longitude":"13.36855","feature_class":"P","feature_code":"PPLX","country_code":"DE","cc2":"","admin1_code":"16","admin2_code":"00","admin3_code":"11000","admin4_code":"11000000","population":"7079","elevation":"","dem":"44","timezone":"Europe/Berlin","modification_date":"2012-08-04"},{"geonameid":"2808720","name":"Wilhelmshaven","asciiname":"Wilhelmshaven","alternatenames":["Gorad Vil'gel'mskhafen","Vil'gel'msgafen","Vil'gel'mskhafen","Vilchelmschafen","Vilhelmshafenas","Vilkhelmskhafen","WVN","Wilhelmshaven","Willelmeshaefen","Willelmeshæfen","Willemshaven","Wuelmshoawen","Wülmshoawen","bilhelleumseuhapen","fylhlmshafn","vu~iruherumusuhafen","wei lian gang","wylhmshafn","Βιλχελμσχάφεν","Вилхелмсхафен","Вильгельмсхафен","Вільгельмсгафен","Горад Вільгельмсхафен","וילהלמסהאפן","فيلهلمسهافن","ویلهمسهافن","ヴィルヘルムスハーフェン","威廉港","빌헬름스하펜"],"latitude":"53.52998","longitude":"8.11253","feature_class":"P","feature_code":"PPLA3","country_code":"DE","cc2":"","admin1_code":"06","admin2_code":"00","admin3_code":"03405","admin4_code":"","population":"84393","elevation":"","dem":"3","timezone":"Europe/Berlin","modification_date":"2014-03-01"},{"geonameid":"2808893","name":"Wildeshausen","asciiname":"Wildeshausen","alternatenames":["Vil'deskhauzen","Vildeskhauzen","Wildeshausen","Wilshusen","wei er de si hao sen","Вилдесхаузен","Вильдесхаузен","ویلدس‌هاوزن","维尔德斯豪森"],"latitude":"52.89446","longitude":"8.43375","feature_class":"P","feature_code":"PPLA3","country_code":"DE","cc2":"","admin1_code":"06","admin2_code":"00","admin3_code":"03458","admin4_code":"","population":"18114","elevation":"","dem":"27","timezone":"Europe/Berlin","modification_date":"2014-01-22"},{"geonameid":"2809013","name":"Wildberg","asciiname":"Wildberg","alternatenames":[""],"latitude":"48.62336","longitude":"8.74518","feature_class":"P","feature_code":"PPL","country_code":"DE","cc2":"","admin1_code":"01","admin2_code":"082","admin3_code":"08235","admin4_code":"08235080","population":"10187","elevation":"","dem":"401","timezone":"Europe/Berlin","modification_date":"2013-02-19"},{"geonameid":"2809025","name":"Bad Wildbad","asciiname":"Bad Wildbad","alternatenames":["Bad Wildbad","Bad Wildbad im Schwarzwald","Stadt Bad Wildbad im Schwarzwald","Wildbad","Wildbad im Schwarzwald"],"latitude":"48.75071","longitude":"8.5504","feature_class":"P","feature_code":"PPL","country_code":"DE","cc2":"","admin1_code":"01","admin2_code":"082","admin3_code":"08235","admin4_code":"08235079","population":"9565","elevation":"","dem":"432","timezone":"Europe/Berlin","modification_date":"2015-02-05"},{"geonameid":"2809092","name":"Wietze","asciiname":"Wietze","alternatenames":["Wietze"],"latitude":"52.65","longitude":"9.83333","feature_class":"P","feature_code":"PPLA4","country_code":"DE","cc2":"","admin1_code":"06","admin2_code":"00","admin3_code":"03351","admin4_code":"03351023","population":"8216","elevation":"","dem":"34","timezone":"Europe/Berlin","modification_date":"2011-04-25"},{"geonameid":"2809100","name":"Wietmarschen","asciiname":"Wietmarschen","alternatenames":["Vitmarshen","wei te ma er shen","Витмаршен","维特马尔申"],"latitude":"52.53333","longitude":"7.13333","feature_class":"P","feature_code":"PPLA4","country_code":"DE","cc2":"","admin1_code":"06","admin2_code":"00","admin3_code":"03456","admin4_code":"03456025","population":"10903","elevation":"","dem":"21","timezone":"Europe/Berlin","modification_date":"2011-04-25"},{"geonameid":"2809134","name":"Wiesmoor","asciiname":"Wiesmoor","alternatenames":["Vismor","wei si mo er","wyzmwr","Висмор","ویزمور","维斯莫尔"],"latitude":"53.41667","longitude":"7.73333","feature_class":"P","feature_code":"PPLA4","country_code":"DE","cc2":"","admin1_code":"06","admin2_code":"00","admin3_code":"03452","admin4_code":"03452025","population":"13157","elevation":"","dem":"15","timezone":"Europe/Berlin","modification_date":"2011-07-31"},{"geonameid":"2809138","name":"Wiesloch","asciiname":"Wiesloch","alternatenames":["Vislokh","Wiesloch","Wissloch","vu~isurohho","wei si luo he","wyzlkh","Вислох","ویزلخ","ヴィースロッホ","維斯洛赫"],"latitude":"49.29504","longitude":"8.69846","feature_class":"P","feature_code":"PPL","country_code":"DE","cc2":"","admin1_code":"01","admin2_code":"082","admin3_code":"08226","admin4_code":"08226098","population":"25630","elevation":"","dem":"134","timezone":"Europe/Berlin","modification_date":"2013-02-16"},{"geonameid":"2809259","name":"Wiesenburg","asciiname":"Wiesenburg","alternatenames":["Wiesenburg"],"latitude":"52.11456","longitude":"12.45534","feature_class":"P","feature_code":"PPL","country_code":"DE","cc2":"","admin1_code":"11","admin2_code":"","admin3_code":"","admin4_code":"","population":"5380","elevation":"","dem":"172","timezone":"Europe/Berlin","modification_date":"2012-06-05"},{"geonameid":"2809346","name":"Wiesbaden","asciiname":"Wiesbaden","alternatenames":["Aquae Mattiacae","Gorad Visbadehn","Uisibada","Visbaden","Visbadene","Vizmpanten","Vysbadenas","Vīsbādene","WIE","Wiasban","Wiasbån","Wiesbaden","Wissbade","biseubaden","fysbadn","visabadena","visbadeni","vu~isubaden","wayzbadn","wei si ba deng","wi sba dein","wysbadn","Βιζμπάντεν","Висбаден","Вісбаден","Горад Вісбадэн","Վիսբադեն","וויסבאדן","ויסבאדן","فيسبادن","وائزبادن","ویسبادن","वीसबाडेन","วีสบาเดิน","ვისბადენი","ヴィースバーデン","威斯巴登","비스바덴"],"latitude":"50.08258","longitude":"8.24932","feature_class":"P","feature_code":"PPLA","country_code":"DE","cc2":"","admin1_code":"05","admin2_code":"064","admin3_code":"","admin4_code":"","population":"272432","elevation":"","dem":"128","timezone":"Europe/Berlin","modification_date":"2012-11-23"},{"geonameid":"2809403","name":"Wiernsheim","asciiname":"Wiernsheim","alternatenames":[""],"latitude":"48.88333","longitude":"8.85","feature_class":"P","feature_code":"PPLA4","country_code":"DE","cc2":"","admin1_code":"01","admin2_code":"082","admin3_code":"08236","admin4_code":"08236065","population":"6391","elevation":"","dem":"423","timezone":"Europe/Berlin","modification_date":"2011-04-25"},{"geonameid":"2809517","name":"Wiehl","asciiname":"Wiehl","alternatenames":["Vil","Vil'","Wiehl","wei he er","wyl","Вил","Виль","ویل","维赫尔"],"latitude":"50.9495","longitude":"7.55062","feature_class":"P","feature_code":"PPL","country_code":"DE","cc2":"","admin1_code":"07","admin2_code":"","admin3_code":"","admin4_code":"","population":"26291","elevation":"","dem":"197","timezone":"Europe/Berlin","modification_date":"2012-09-06"},{"geonameid":"2809544","name":"Wiefelstede","asciiname":"Wiefelstede","alternatenames":["Vifel'stede","Vifelstede","Wiefelstaee","Wiefelstäe","wei fei er si te de","Вифелстеде","Вифельстеде","维费尔斯特德"],"latitude":"53.25","longitude":"8.11667","feature_class":"P","feature_code":"PPLA4","country_code":"DE","cc2":"","admin1_code":"06","admin2_code":"00","admin3_code":"03451","admin4_code":"03451008","population":"14775","elevation":"","dem":"13","timezone":"Europe/Berlin","modification_date":"2011-04-25"},{"geonameid":"2809778","name":"Wickede","asciiname":"Wickede","alternatenames":["Vikede","Vikkede","Wickede","wei ke de","Викеде","Виккеде","维克德"],"latitude":"51.4964","longitude":"7.86587","feature_class":"P","feature_code":"PPL","country_code":"DE","cc2":"","admin1_code":"07","admin2_code":"","admin3_code":"","admin4_code":"","population":"12504","elevation":"","dem":"168","timezone":"Europe/Berlin","modification_date":"2012-08-04"},{"geonameid":"2809889","name":"Wetzlar","asciiname":"Wetzlar","alternatenames":["Betslar","Gorad Veclar","Veclar","Veclara","Veclaras","Veclaro","Veclāra","Vetclar","Vetzlar","Weslar","Weslår","Wetzlar","Wetzlaria","ZQQ","becheulla-eo","ftslar","vu~ettsura","wei ci la er","weth s lar","wtslar","wzlr","Βέτσλαρ","Ветцлар","Вецлар","Горад Вецлар","וצלר","فتسلار","وتسلار","เวทซลาร์","ヴェッツラー","韦茨拉尔","베츨라어"],"latitude":"50.56109","longitude":"8.50495","feature_class":"P","feature_code":"PPLA3","country_code":"DE","cc2":"","admin1_code":"05","admin2_code":"065","admin3_code":"06532","admin4_code":"","population":"52656","elevation":"","dem":"169","timezone":"Europe/Berlin","modification_date":"2014-01-16"},{"geonameid":"2809897","name":"Wetzendorf","asciiname":"Wetzendorf","alternatenames":[""],"latitude":"49.47056","longitude":"11.04148","feature_class":"P","feature_code":"PPLX","country_code":"DE","cc2":"","admin1_code":"02","admin2_code":"095","admin3_code":"09564","admin4_code":"09564000","population":"8268","elevation":"305","dem":"304","timezone":"Europe/Berlin","modification_date":"2013-02-19"},{"geonameid":"2809919","name":"Wettringen","asciiname":"Wettringen","alternatenames":[""],"latitude":"52.20939","longitude":"7.31895","feature_class":"P","feature_code":"PPLA4","country_code":"DE","cc2":"","admin1_code":"07","admin2_code":"055","admin3_code":"05566","admin4_code":"05566096","population":"7897","elevation":"","dem":"49","timezone":"Europe/Berlin","modification_date":"2011-04-25"},{"geonameid":"2809984","name":"Wetter (Ruhr)","asciiname":"Wetter (Ruhr)","alternatenames":["Stadt Wetter (Ruhr)","Wetter","Wetter (Ruhr)"],"latitude":"51.38747","longitude":"7.39277","feature_class":"P","feature_code":"PPL","country_code":"DE","cc2":"","admin1_code":"07","admin2_code":"","admin3_code":"","admin4_code":"","population":"29146","elevation":"","dem":"126","timezone":"Europe/Berlin","modification_date":"2012-08-04"},{"geonameid":"2809985","name":"Wetter","asciiname":"Wetter","alternatenames":["Veter","Vetter","Wetter","vu~etta","wtr","Ветер","Веттер","وتر","ヴェッター"],"latitude":"50.90254","longitude":"8.72366","feature_class":"P","feature_code":"PPL","country_code":"DE","cc2":"","admin1_code":"05","admin2_code":"","admin3_code":"","admin4_code":"","population":"9457","elevation":"","dem":"213","timezone":"Europe/Berlin","modification_date":"2012-09-06"},{"geonameid":"2810136","name":"Westhausen","asciiname":"Westhausen","alternatenames":["Westhausen"],"latitude":"48.88333","longitude":"10.18333","feature_class":"P","feature_code":"PPLA4","country_code":"DE","cc2":"","admin1_code":"01","admin2_code":"081","admin3_code":"08136","admin4_code":"08136082","population":"5884","elevation":"","dem":"487","timezone":"Europe/Berlin","modification_date":"2011-04-25"},{"geonameid":"2810188","name":"Westerstede","asciiname":"Westerstede","alternatenames":["Vesterstede","Westerstaee","Westerstede","Westerstäe","wei si te er si te de","wstrashtdh","Вестерстеде","وستراشتده","韦斯特尔斯特德"],"latitude":"53.25682","longitude":"7.92737","feature_class":"P","feature_code":"PPLA3","country_code":"DE","cc2":"","admin1_code":"06","admin2_code":"00","admin3_code":"03451","admin4_code":"","population":"21902","elevation":"","dem":"8","timezone":"Europe/Berlin","modification_date":"2014-01-21"},{"geonameid":"2810204","name":"Westerrönfeld","asciiname":"Westerronfeld","alternatenames":["Westerroenfeld","Westerronfeld","Westerrönfeld"],"latitude":"54.28333","longitude":"9.65","feature_class":"P","feature_code":"PPLA4","country_code":"DE","cc2":"","admin1_code":"10","admin2_code":"00","admin3_code":"01058","admin4_code":"01058172","population":"5227","elevation":"","dem":"8","timezone":"Europe/Berlin","modification_date":"2015-03-04"},{"geonameid":"2810284","name":"Westerland","asciiname":"Westerland","alternatenames":["GWT","Vesterland","Waeaesterloen'","Weesterloen","Weesterlön","Westerland","Wäästerlön'","Вестерланд"],"latitude":"54.9079","longitude":"8.30326","feature_class":"P","feature_code":"PPL","country_code":"DE","cc2":"","admin1_code":"10","admin2_code":"00","admin3_code":"","admin4_code":"","population":"8967","elevation":"","dem":"8","timezone":"Europe/Berlin","modification_date":"2014-07-18"},{"geonameid":"2810289","name":"Westerkappeln","asciiname":"Westerkappeln","alternatenames":["Vesterkapeln","Vesterkappel'n","Westerkappeln","wei si te er ka pei er en","Вестеркапелн","Вестеркаппельн","韦斯特尔卡佩尔恩"],"latitude":"52.31667","longitude":"7.88333","feature_class":"P","feature_code":"PPLA4","country_code":"DE","cc2":"","admin1_code":"07","admin2_code":"055","admin3_code":"05566","admin4_code":"05566092","population":"11397","elevation":"","dem":"64","timezone":"Europe/Berlin","modification_date":"2011-04-25"},{"geonameid":"2810413","name":"Westerburg","asciiname":"Westerburg","alternatenames":["Vesterburg","Westerburg","vu~esutaburuku","wei si te er bao","wstrbwrg","Вестербург","وستربورگ","ヴェスターブルク","韦斯特尔堡"],"latitude":"50.55938","longitude":"7.97482","feature_class":"P","feature_code":"PPL","country_code":"DE","cc2":"","admin1_code":"08","admin2_code":"","admin3_code":"","admin4_code":"","population":"5863","elevation":"","dem":"325","timezone":"Europe/Berlin","modification_date":"2012-09-06"},{"geonameid":"2810538","name":"Westend","asciiname":"Westend","alternatenames":["Berlin-Westend"],"latitude":"52.51708","longitude":"13.27636","feature_class":"P","feature_code":"PPLX","country_code":"DE","cc2":"","admin1_code":"16","admin2_code":"00","admin3_code":"11000","admin4_code":"11000000","population":"38501","elevation":"","dem":"60","timezone":"Europe/Berlin","modification_date":"2012-06-09"},{"geonameid":"2810587","name":"Weßling","asciiname":"Wessling","alternatenames":[""],"latitude":"48.07452","longitude":"11.2482","feature_class":"P","feature_code":"PPLA4","country_code":"DE","cc2":"","admin1_code":"02","admin2_code":"091","admin3_code":"09188","admin4_code":"09188144","population":"5172","elevation":"","dem":"596","timezone":"Europe/Berlin","modification_date":"2011-04-25"},{"geonameid":"2810612","name":"Wesseling","asciiname":"Wesseling","alternatenames":["Veseling","Vesseling","Wesseling","wei sai lin ge","wzlyngn","Веселинг","Весселинг","وزلینگن","韦塞林格"],"latitude":"50.82709","longitude":"6.9747","feature_class":"P","feature_code":"PPL","country_code":"DE","cc2":"","admin1_code":"07","admin2_code":"","admin3_code":"","admin4_code":"","population":"35665","elevation":"","dem":"50","timezone":"Europe/Berlin","modification_date":"2012-09-06"},{"geonameid":"2810678","name":"Wesel","asciiname":"Wesel","alternatenames":["Vezel","Vezel'","Wesel","wei sai er","wzl","Везел","Везель","وزل","韋塞爾"],"latitude":"51.6669","longitude":"6.62037","feature_class":"P","feature_code":"PPLA3","country_code":"DE","cc2":"","admin1_code":"07","admin2_code":"051","admin3_code":"05170","admin4_code":"","population":"61685","elevation":"","dem":"23","timezone":"Europe/Berlin","modification_date":"2014-01-18"},{"geonameid":"2810702","name":"Wertingen","asciiname":"Wertingen","alternatenames":["Vertingen","Wertingen","Wertingeni vald","wei er ting gen","wrtyngn","Вертинген","ورتینگن","韦尔廷根"],"latitude":"48.56314","longitude":"10.68149","feature_class":"P","feature_code":"PPL","country_code":"DE","cc2":"","admin1_code":"02","admin2_code":"097","admin3_code":"09773","admin4_code":"09773182","population":"8958","elevation":"","dem":"428","timezone":"Europe/Berlin","modification_date":"2013-02-19"},{"geonameid":"2810710","name":"Werther","asciiname":"Werther","alternatenames":["Verter","wei er te er","wrta","Вертер","ورتا","韦尔特尔"],"latitude":"52.07771","longitude":"8.41793","feature_class":"P","feature_code":"PPL","country_code":"DE","cc2":"","admin1_code":"07","admin2_code":"057","admin3_code":"","admin4_code":"","population":"11575","elevation":"","dem":"129","timezone":"Europe/Berlin","modification_date":"2010-11-15"},{"geonameid":"2810716","name":"Wertheim","asciiname":"Wertheim","alternatenames":["Vertkhajm","Wertheim","Wertheim am Main","vu~erutohaimu","wei er tai mu","wrthaym am mayn","Вертхајм","ورتهایم آم ماین","ヴェルトハイム","韦尔泰姆"],"latitude":"49.759","longitude":"9.50852","feature_class":"P","feature_code":"PPL","country_code":"DE","cc2":"","admin1_code":"01","admin2_code":"081","admin3_code":"08128","admin4_code":"08128131","population":"24869","elevation":"","dem":"174","timezone":"Europe/Berlin","modification_date":"2013-02-19"},{"geonameid":"2810808","name":"Wernigerode","asciiname":"Wernigerode","alternatenames":["Gorad Vernigerodeh","Vernigerode","Wernigerode","vu~erunigerode","wei er ni ge luo de","Вернигероде","Верніґероде","Горад Вернігеродэ","ورنیگه‌روده","ヴェルニゲローデ","韦尔尼格罗德"],"latitude":"51.83652","longitude":"10.78216","feature_class":"P","feature_code":"PPL","country_code":"DE","cc2":"","admin1_code":"14","admin2_code":"","admin3_code":"","admin4_code":"","population":"34463","elevation":"","dem":"237","timezone":"Europe/Berlin","modification_date":"2012-08-04"},{"geonameid":"2810815","name":"Werneuchen","asciiname":"Werneuchen","alternatenames":["Vernojkhen","wei er nuo yi heng","wrnwyshn","Вернойхен","Вернојхен","ورنویشن","韦尔诺伊亨"],"latitude":"52.63275","longitude":"13.73437","feature_class":"P","feature_code":"PPL","country_code":"DE","cc2":"","admin1_code":"11","admin2_code":"","admin3_code":"","admin4_code":"","population":"7767","elevation":"","dem":"73","timezone":"Europe/Berlin","modification_date":"2009-01-29"},{"geonameid":"2810832","name":"Werneck","asciiname":"Werneck","alternatenames":["Vernek","Werneck","wei er nei ke","Вернек","韦尔内克"],"latitude":"49.98201","longitude":"10.09884","feature_class":"P","feature_code":"PPL","country_code":"DE","cc2":"","admin1_code":"02","admin2_code":"096","admin3_code":"09678","admin4_code":"09678193","population":"10673","elevation":"","dem":"220","timezone":"Europe/Berlin","modification_date":"2013-02-19"},{"geonameid":"2810833","name":"Werne","asciiname":"Werne","alternatenames":["Verne","Waeen","Werina","Werne an der Lippe","Wäen","wei er nei","wrnh","Верне","ورنه","韦尔内"],"latitude":"51.66446","longitude":"7.63421","feature_class":"P","feature_code":"PPL","country_code":"DE","cc2":"","admin1_code":"07","admin2_code":"","admin3_code":"","admin4_code":"","population":"30810","elevation":"60","dem":"60","timezone":"Europe/Berlin","modification_date":"2010-01-29"},{"geonameid":"2810840","name":"Wernberg-Köblitz","asciiname":"Wernberg-Koblitz","alternatenames":["Vernberg-Keblic","Vernberg-Kjoblic","Wernberg","Wernberg-Koblitz","Wernberg-Köblitz","wei er en bei er ge-ke bu li ci","Вернберг-Кеблиц","Вернберг-Кёблиц","韦尔恩贝尔格-克布利茨"],"latitude":"49.53931","longitude":"12.1613","feature_class":"P","feature_code":"PPL","country_code":"DE","cc2":"","admin1_code":"02","admin2_code":"093","admin3_code":"09376","admin4_code":"09376150","population":"5830","elevation":"","dem":"380","timezone":"Europe/Berlin","modification_date":"2013-02-19"},{"geonameid":"2810841","name":"Wernau","asciiname":"Wernau","alternatenames":["Vernau","wei er nao","wrnaw","Вернау","ورناو","韦尔瑙"],"latitude":"48.69306","longitude":"9.41533","feature_class":"P","feature_code":"PPL","country_code":"DE","cc2":"","admin1_code":"01","admin2_code":"081","admin3_code":"08116","admin4_code":"08116072","population":"12518","elevation":"","dem":"260","timezone":"Europe/Berlin","modification_date":"2013-02-16"},{"geonameid":"2810848","name":"Wermsdorf","asciiname":"Wermsdorf","alternatenames":["Vermsdorf","Wermsdorf","wei er mu si duo fu","Вермсдорф","韦尔姆斯多夫"],"latitude":"51.28333","longitude":"12.95","feature_class":"P","feature_code":"PPLA4","country_code":"DE","cc2":"","admin1_code":"13","admin2_code":"00","admin3_code":"14730","admin4_code":"14730330","population":"6074","elevation":"","dem":"179","timezone":"Europe/Berlin","modification_date":"2014-01-02"},{"geonameid":"2810855","name":"Wermelskirchen","asciiname":"Wermelskirchen","alternatenames":["Vermel'skirkhen","Vermelskirkhen","Wermelskirchen","wei er mei er si ji er xing","wrmlzkyrshn","Вермелскирхен","Вермельскирхен","ورملزکیرشن","韦尔梅尔斯基尔兴"],"latitude":"51.1397","longitude":"7.21583","feature_class":"P","feature_code":"PPL","country_code":"DE","cc2":"","admin1_code":"07","admin2_code":"","admin3_code":"","admin4_code":"","population":"36816","elevation":"","dem":"302","timezone":"Europe/Berlin","modification_date":"2012-08-04"},{"geonameid":"2810860","name":"Werlte","asciiname":"Werlte","alternatenames":["Verl'te","Verlte","Верлте","Верльте"],"latitude":"52.85","longitude":"7.68333","feature_class":"P","feature_code":"PPLA4","country_code":"DE","cc2":"","admin1_code":"06","admin2_code":"00","admin3_code":"03454","admin4_code":"03454057","population":"9255","elevation":"","dem":"35","timezone":"Europe/Berlin","modification_date":"2011-07-31"},{"geonameid":"2810878","name":"Werl","asciiname":"Werl","alternatenames":["Gorad Verl'","Verl","Verl'","Werl","Werle","wei er","wrl","Верл","Верль","Горад Верль","ورل","韦尔"],"latitude":"51.55493","longitude":"7.91403","feature_class":"P","feature_code":"PPL","country_code":"DE","cc2":"","admin1_code":"07","admin2_code":"059","admin3_code":"05974","admin4_code":"","population":"32149","elevation":"","dem":"92","timezone":"Europe/Berlin","modification_date":"2012-08-04"},{"geonameid":"2810919","name":"Werdohl","asciiname":"Werdohl","alternatenames":["Verdol","Verdol'","Werdohl","wei er duo er","wrdl","Вердол","Вердоль","وردل","韦尔多尔"],"latitude":"51.26011","longitude":"7.76608","feature_class":"P","feature_code":"PPL","country_code":"DE","cc2":"","admin1_code":"07","admin2_code":"","admin3_code":"","admin4_code":"","population":"20366","elevation":"","dem":"201","timezone":"Europe/Berlin","modification_date":"2012-08-04"},{"geonameid":"2810945","name":"Werder","asciiname":"Werder","alternatenames":["Verder","Verderis","wrda","Вердер","وردا"],"latitude":"52.37874","longitude":"12.934","feature_class":"P","feature_code":"PPL","country_code":"DE","cc2":"","admin1_code":"11","admin2_code":"00","admin3_code":"","admin4_code":"","population":"22384","elevation":"","dem":"33","timezone":"Europe/Berlin","modification_date":"2010-11-22"},{"geonameid":"2810969","name":"Werdau","asciiname":"Werdau","alternatenames":["Verdau","Verdava","Werdau","wei er dao","wrdwa","Вердау","وردوا","韦尔道"],"latitude":"50.73604","longitude":"12.37534","feature_class":"P","feature_code":"PPL","country_code":"DE","cc2":"","admin1_code":"13","admin2_code":"","admin3_code":"","admin4_code":"","population":"24424","elevation":"","dem":"274","timezone":"Europe/Berlin","modification_date":"2012-09-06"},{"geonameid":"2811013","name":"Wenzenbach","asciiname":"Wenzenbach","alternatenames":[""],"latitude":"49.07561","longitude":"12.19954","feature_class":"P","feature_code":"PPLA4","country_code":"DE","cc2":"","admin1_code":"02","admin2_code":"093","admin3_code":"09375","admin4_code":"09375208","population":"8101","elevation":"","dem":"358","timezone":"Europe/Berlin","modification_date":"2012-08-15"},{"geonameid":"2811031","name":"Wentorf bei Hamburg","asciiname":"Wentorf bei Hamburg","alternatenames":["Wentorf bei Hamburg"],"latitude":"53.5","longitude":"10.25","feature_class":"P","feature_code":"PPLA4","country_code":"DE","cc2":"","admin1_code":"10","admin2_code":"00","admin3_code":"01053","admin4_code":"01053129","population":"12104","elevation":"","dem":"38","timezone":"Europe/Berlin","modification_date":"2015-02-05"},{"geonameid":"2811072","name":"Wennigsen","asciiname":"Wennigsen","alternatenames":["Venigsen","Vennigzen","Wennigsen am Deister","wei ni ge sen","Венигсен","Веннигзен","韦尼格森"],"latitude":"52.27404","longitude":"9.57287","feature_class":"P","feature_code":"PPL","country_code":"DE","cc2":"","admin1_code":"06","admin2_code":"","admin3_code":"","admin4_code":"","population":"14137","elevation":"","dem":"91","timezone":"Europe/Berlin","modification_date":"2010-08-19"},{"geonameid":"2811204","name":"Wendlingen am Neckar","asciiname":"Wendlingen am Neckar","alternatenames":["Vendlingen am Nekar","Vendlingen-na-Nekkare","Wendlingen","nei ka he pan wen de lin gen","wndlyngn an dr nka","Вендлинген ам Некар","Вендлинген-на-Неккаре","وندلینگن آن در نکا","内卡河畔文德林根"],"latitude":"48.67124","longitude":"9.37632","feature_class":"P","feature_code":"PPL","country_code":"DE","cc2":"","admin1_code":"01","admin2_code":"081","admin3_code":"08116","admin4_code":"08116071","population":"15728","elevation":"","dem":"268","timezone":"Europe/Berlin","modification_date":"2013-02-19"},{"geonameid":"2811278","name":"Wenden","asciiname":"Wenden","alternatenames":["Venden","Wenden","Венден"],"latitude":"50.96667","longitude":"7.86667","feature_class":"P","feature_code":"PPLA4","country_code":"DE","cc2":"","admin1_code":"07","admin2_code":"059","admin3_code":"05966","admin4_code":"05966028","population":"19924","elevation":"","dem":"405","timezone":"Europe/Berlin","modification_date":"2011-07-31"},{"geonameid":"2811292","name":"Wendelstein","asciiname":"Wendelstein","alternatenames":["Vendel'shtajn","Vendelshtajn","Wendelstein","vu~enderushutain","wen de er si tai yin","Венделштајн","Вендельштайн","ヴェンデルシュタイン","文德尔斯泰因"],"latitude":"49.3523","longitude":"11.15069","feature_class":"P","feature_code":"PPL","country_code":"DE","cc2":"","admin1_code":"02","admin2_code":"095","admin3_code":"09576","admin4_code":"09576151","population":"16220","elevation":"","dem":"342","timezone":"Europe/Berlin","modification_date":"2013-02-19"},{"geonameid":"2811317","name":"Wendeburg","asciiname":"Wendeburg","alternatenames":["Vendeburg","wen de bao","Вендебург","文德堡"],"latitude":"52.32957","longitude":"10.39255","feature_class":"P","feature_code":"PPLA4","country_code":"DE","cc2":"","admin1_code":"06","admin2_code":"00","admin3_code":"03157","admin4_code":"03157008","population":"10147","elevation":"","dem":"69","timezone":"Europe/Berlin","modification_date":"2011-07-31"},{"geonameid":"2811342","name":"Wemding","asciiname":"Wemding","alternatenames":["Vemding","Wemding","Wemdingen","vu~emudingu","wei mu ding","wmdyng","Вемдинг","ومدینگ","ヴェムディング","韦姆丁"],"latitude":"48.87461","longitude":"10.72452","feature_class":"P","feature_code":"PPL","country_code":"DE","cc2":"","admin1_code":"02","admin2_code":"097","admin3_code":"09779","admin4_code":"09779228","population":"5669","elevation":"","dem":"458","timezone":"Europe/Berlin","modification_date":"2013-02-19"},{"geonameid":"2811354","name":"Welzheim","asciiname":"Welzheim","alternatenames":["Vel'ckhajm","Velckhajm","wei er ci hai mu","wltshaym","Велцхајм","Вельцхайм","ولتسهایم","韦尔茨海姆"],"latitude":"48.87675","longitude":"9.63434","feature_class":"P","feature_code":"PPL","country_code":"DE","cc2":"","admin1_code":"01","admin2_code":"081","admin3_code":"08119","admin4_code":"08119084","population":"11306","elevation":"","dem":"508","timezone":"Europe/Berlin","modification_date":"2013-02-16"},{"geonameid":"2811361","name":"Welver","asciiname":"Welver","alternatenames":["Kirchwelver","Vel'fer","Velver","Welver","wei er fei er","Велвер","Вельфер","韦尔费尔"],"latitude":"51.61667","longitude":"7.96667","feature_class":"P","feature_code":"PPLA4","country_code":"DE","cc2":"","admin1_code":"07","admin2_code":"059","admin3_code":"05974","admin4_code":"05974048","population":"12993","elevation":"","dem":"76","timezone":"Europe/Berlin","modification_date":"2011-07-31"},{"geonameid":"2811461","name":"Wellingsbüttel","asciiname":"Wellingsbuettel","alternatenames":[""],"latitude":"53.64104","longitude":"10.0798","feature_class":"P","feature_code":"PPLX","country_code":"DE","cc2":"","admin1_code":"04","admin2_code":"","admin3_code":"","admin4_code":"","population":"10088","elevation":"","dem":"27","timezone":"Europe/Berlin","modification_date":"2011-08-21"},{"geonameid":"2811611","name":"Weitramsdorf","asciiname":"Weitramsdorf","alternatenames":[""],"latitude":"50.25","longitude":"10.88333","feature_class":"P","feature_code":"PPLA4","country_code":"DE","cc2":"","admin1_code":"02","admin2_code":"094","admin3_code":"09473","admin4_code":"09473175","population":"5183","elevation":"","dem":"325","timezone":"Europe/Berlin","modification_date":"2011-04-25"},{"geonameid":"2811614","name":"Weitnau","asciiname":"Weitnau","alternatenames":["Weitnau"],"latitude":"47.64171","longitude":"10.12732","feature_class":"P","feature_code":"PPL","country_code":"DE","cc2":"","admin1_code":"02","admin2_code":"097","admin3_code":"09780","admin4_code":"09780144","population":"5143","elevation":"","dem":"791","timezone":"Europe/Berlin","modification_date":"2013-02-19"},{"geonameid":"2811644","name":"Weiterstadt","asciiname":"Weiterstadt","alternatenames":["Gorad Vajtehrshtat","Vajtershtadt","Vajtershtat","Weiterstadt","vu~aitashutatto","waytrashtat","wei te er si ta te","Вайтерштадт","Вајтерштат","Горад Вайтэрштат","وایتراشتات","ヴァイターシュタット","魏特尔斯塔特"],"latitude":"49.9039","longitude":"8.58874","feature_class":"P","feature_code":"PPL","country_code":"DE","cc2":"","admin1_code":"05","admin2_code":"","admin3_code":"","admin4_code":"","population":"24253","elevation":"","dem":"109","timezone":"Europe/Berlin","modification_date":"2012-09-06"},{"geonameid":"2811698","name":"Weißwasser","asciiname":"Weisswasser","alternatenames":["Bela Woda","Betla Woda","Biala Woda","Bialawoda","Biała Woda","Białawoda","Bětła Woda","Běła Woda","Vajsvaser","Vajsvasser","Veisvasere","Weisswasser","Weisswasser/O.L.","Weisswasser/Oberlausitz","Weißwasser","Weißwasser/O.L.","Weißwasser/Oberlausitz","wayswasr","wei si wa sai er","Вайсвасер","Вайсвассер","Вајсвасер","وایسواسر","魏斯瓦塞尔"],"latitude":"51.50403","longitude":"14.64017","feature_class":"P","feature_code":"PPL","country_code":"DE","cc2":"","admin1_code":"13","admin2_code":"","admin3_code":"","admin4_code":"","population":"22099","elevation":"","dem":"139","timezone":"Europe/Berlin","modification_date":"2015-03-04"},{"geonameid":"2811837","name":"Weißenthurm","asciiname":"Weissenthurm","alternatenames":["Vajsenturm","Weissenthurm","Weißenthurm","vu~aisentsurumu","waysntwrm","wei sen tu er mu","Вайсентурм","Вајсентурм","وایسنتورم","ヴァイセンツルム","魏森图尔姆"],"latitude":"50.41719","longitude":"7.45072","feature_class":"P","feature_code":"PPL","country_code":"DE","cc2":"","admin1_code":"08","admin2_code":"","admin3_code":"","admin4_code":"","population":"7639","elevation":"","dem":"79","timezone":"Europe/Berlin","modification_date":"2015-03-04"},{"geonameid":"2811879","name":"Weißenhorn","asciiname":"Weissenhorn","alternatenames":["Vajsenkhorn","Weissenhorn","Weißenhorn","waynhwrn","wei sen huo er en","Вайсенхорн","Вајсенхорн","واینهورن","魏森霍尔恩"],"latitude":"48.30501","longitude":"10.16047","feature_class":"P","feature_code":"PPL","country_code":"DE","cc2":"","admin1_code":"02","admin2_code":"097","admin3_code":"09775","admin4_code":"09775164","population":"13377","elevation":"","dem":"503","timezone":"Europe/Berlin","modification_date":"2015-03-04"},{"geonameid":"2811899","name":"Weißenfels","asciiname":"Weissenfels","alternatenames":["Gorad Vajsehnfel's","Leucopetra","Vajsenfel's","Vajsenfels","Weissenfels","Weißenfels","waysnflz","wei sen fei er si","Вайсенфельс","Вајсенфелс","Горад Вайсэнфельс","وایسنفلز","魏森费尔斯"],"latitude":"51.20148","longitude":"11.96843","feature_class":"P","feature_code":"PPL","country_code":"DE","cc2":"","admin1_code":"14","admin2_code":"","admin3_code":"","admin4_code":"","population":"29792","elevation":"","dem":"102","timezone":"Europe/Berlin","modification_date":"2012-09-06"},{"geonameid":"2811909","name":"Weißenburg in Bayern","asciiname":"Weissenburg in Bayern","alternatenames":["Vajsenburg","Vajsenburg in Bajern","Veisenburgas Bavarijoje","Weissenburg","Weissenburg in Bayern","Weissenburgum Noricorum","Weißenburg","bai en zhou wei sen bao","waysnbwrg dr bayrn","Вайсенбург","Вајсенбург ин Бајерн","وایسنبورگ در بایرن","拜恩州魏森堡"],"latitude":"49.03095","longitude":"10.97221","feature_class":"P","feature_code":"PPL","country_code":"DE","cc2":"","admin1_code":"02","admin2_code":"095","admin3_code":"09577","admin4_code":"09577177","population":"17801","elevation":"","dem":"428","timezone":"Europe/Berlin","modification_date":"2013-02-19"},{"geonameid":"2812053","name":"Weissach","asciiname":"Weissach","alternatenames":[""],"latitude":"48.84687","longitude":"8.92828","feature_class":"P","feature_code":"PPL","country_code":"DE","cc2":"","admin1_code":"01","admin2_code":"081","admin3_code":"08115","admin4_code":"08115052","population":"7712","elevation":"","dem":"358","timezone":"Europe/Berlin","modification_date":"2011-07-31"},{"geonameid":"2812071","name":"Weiskirchen","asciiname":"Weiskirchen","alternatenames":[""],"latitude":"49.55","longitude":"6.81667","feature_class":"P","feature_code":"PPLA4","country_code":"DE","cc2":"","admin1_code":"09","admin2_code":"00","admin3_code":"10042","admin4_code":"10042117","population":"6316","elevation":"","dem":"352","timezone":"Europe/Berlin","modification_date":"2011-04-25"},{"geonameid":"2812086","name":"Weisendorf","asciiname":"Weisendorf","alternatenames":[""],"latitude":"49.62283","longitude":"10.82531","feature_class":"P","feature_code":"PPL","country_code":"DE","cc2":"","admin1_code":"02","admin2_code":"095","admin3_code":"09572","admin4_code":"09572164","population":"6118","elevation":"","dem":"308","timezone":"Europe/Berlin","modification_date":"2013-02-19"},{"geonameid":"2812145","name":"Weinstadt-Endersbach","asciiname":"Weinstadt-Endersbach","alternatenames":["Endersbach"],"latitude":"48.81311","longitude":"9.36387","feature_class":"P","feature_code":"PPL","country_code":"DE","cc2":"","admin1_code":"01","admin2_code":"081","admin3_code":"08119","admin4_code":"08119091","population":"26166","elevation":"","dem":"235","timezone":"Europe/Berlin","modification_date":"2013-02-16"},{"geonameid":"2812158","name":"Weinsberg","asciiname":"Weinsberg","alternatenames":["Vajnsberg","Weinsberg","vu~ainsuberuku","waynzbrg","wei yin si bei er ge","Вайнсберг","Вајнсберг","واینزبرگ","ヴァインスベルク","韦因斯贝尔格"],"latitude":"49.15127","longitude":"9.28762","feature_class":"P","feature_code":"PPL","country_code":"DE","cc2":"","admin1_code":"01","admin2_code":"081","admin3_code":"08125","admin4_code":"08125102","population":"11855","elevation":"","dem":"203","timezone":"Europe/Berlin","modification_date":"2013-02-16"},{"geonameid":"2812174","name":"Weinheim","asciiname":"Weinheim","alternatenames":["Vajnkhajm","Weinheim","Woinem","vu~ainhaimu","waynhaym","wei yin hai mu","wyynhyym","Вайнхайм","Вајнхајм","ויינהיים","واینهایم","ヴァインハイム","韦因海姆"],"latitude":"49.54887","longitude":"8.66697","feature_class":"P","feature_code":"PPL","country_code":"DE","cc2":"","admin1_code":"01","admin2_code":"082","admin3_code":"08226","admin4_code":"08226096","population":"43325","elevation":"","dem":"118","timezone":"Europe/Berlin","modification_date":"2013-02-16"},{"geonameid":"2812197","name":"Weingarten","asciiname":"Weingarten","alternatenames":["Weingarten"],"latitude":"49.05457","longitude":"8.52678","feature_class":"P","feature_code":"PPL","country_code":"DE","cc2":"","admin1_code":"01","admin2_code":"082","admin3_code":"08215","admin4_code":"08215090","population":"9556","elevation":"","dem":"115","timezone":"Europe/Berlin","modification_date":"2013-02-15"},{"geonameid":"2812204","name":"Weingarten","asciiname":"Weingarten","alternatenames":["Vajngarten","Weingarten","faynghartn","wayngartn","wei yin jia er teng","Вайнгартен","Вајнгартен","فاينغارتن","واینگارتن","韦因加尔滕"],"latitude":"47.81009","longitude":"9.63863","feature_class":"P","feature_code":"PPL","country_code":"DE","cc2":"","admin1_code":"01","admin2_code":"084","admin3_code":"08436","admin4_code":"08436082","population":"23802","elevation":"","dem":"461","timezone":"Europe/Berlin","modification_date":"2013-02-19"},{"geonameid":"2812225","name":"Weinböhla","asciiname":"Weinbohla","alternatenames":["Vajnbela","Vajnbjola","Weinboehla","Weinboehla vald","Weinbohla","Weinböhla","Weinböhla vald","wei yin bo he la","Вайнбела","Вайнбёла","Вајнбела","韦因伯赫拉"],"latitude":"51.16667","longitude":"13.56667","feature_class":"P","feature_code":"PPLA4","country_code":"DE","cc2":"","admin1_code":"13","admin2_code":"00","admin3_code":"14627","admin4_code":"14627310","population":"10456","elevation":"","dem":"137","timezone":"Europe/Berlin","modification_date":"2015-03-04"},{"geonameid":"2812482","name":"Weimar","asciiname":"Weimar","alternatenames":["Gorad Vejmar","Vaimari","Vajmar","Vajmaro","Veimar","Veimara","Veimaras","Veimāra","Vejmar","Veymar","Vimaria","Vymar","Výmar","Wehimala","Weimar","baimaleu","faymr","va'imara","vaimari","vu~aimaru","waymar","waymr","wei ma","wi mar","Βαϊμάρη","Ваймар","Вајмар","Веймар","Горад Веймар","ויימאר","فايمر","وائمر","وایمار","वाईमार","ไวมาร์","ვაიმარი","ヴァイマル","魏玛","바이마르"],"latitude":"50.9803","longitude":"11.32903","feature_class":"P","feature_code":"PPLA3","country_code":"DE","cc2":"","admin1_code":"15","admin2_code":"00","admin3_code":"16055","admin4_code":"","population":"64727","elevation":"","dem":"220","timezone":"Europe/Berlin","modification_date":"2014-03-01"},{"geonameid":"2812497","name":"Weilmünster","asciiname":"Weilmunster","alternatenames":["Vajl'mjunster","Vajlminster","Weilmuenster","Weilmünster","wei er ming si te er","Вайльмюнстер","Вајлминстер","魏尔明斯特尔"],"latitude":"50.43143","longitude":"8.37673","feature_class":"P","feature_code":"PPL","country_code":"DE","cc2":"","admin1_code":"05","admin2_code":"","admin3_code":"","admin4_code":"","population":"9402","elevation":"","dem":"179","timezone":"Europe/Berlin","modification_date":"2015-01-27"},{"geonameid":"2812502","name":"Weil im Schönbuch","asciiname":"Weil im Schonbuch","alternatenames":["Weil","Weil im Schoenbuch","Weil im Schönbuch"],"latitude":"48.6227","longitude":"9.06355","feature_class":"P","feature_code":"PPLA4","country_code":"DE","cc2":"","admin1_code":"01","admin2_code":"081","admin3_code":"08115","admin4_code":"08115051","population":"10037","elevation":"","dem":"481","timezone":"Europe/Berlin","modification_date":"2015-03-04"},{"geonameid":"2812509","name":"Weilheim an der Teck","asciiname":"Weilheim an der Teck","alternatenames":[""],"latitude":"48.61572","longitude":"9.53751","feature_class":"P","feature_code":"PPL","country_code":"DE","cc2":"","admin1_code":"01","admin2_code":"081","admin3_code":"08116","admin4_code":"08116070","population":"9634","elevation":"","dem":"383","timezone":"Europe/Berlin","modification_date":"2013-02-19"},{"geonameid":"2812515","name":"Weilheim","asciiname":"Weilheim","alternatenames":["Vajl'khajm","Vajlkhajm u Gornoj Bavarskoj","Weilheim","Weilheim in Alta Baviera","Weilheim in Oberbayern","Wilheim","waylhaym dr awbrbayrn","Вайльхайм","Вајлхајм у Горњој Баварској","وایلهایم در اوبربایرن","ヴァイルハイム・イン・オーバーバイエルン"],"latitude":"47.84147","longitude":"11.15484","feature_class":"P","feature_code":"PPLA3","country_code":"DE","cc2":"","admin1_code":"02","admin2_code":"091","admin3_code":"09190","admin4_code":"09190157","population":"21401","elevation":"","dem":"573","timezone":"Europe/Berlin","modification_date":"2014-02-08"},{"geonameid":"2812522","name":"Weilerswist","asciiname":"Weilerswist","alternatenames":["Vajlersvist","Weilerswist","wei lai er si wei si te","Вайлерсвист","Вајлерсвист","魏莱尔斯维斯特"],"latitude":"50.76667","longitude":"6.83333","feature_class":"P","feature_code":"PPLA4","country_code":"DE","cc2":"","admin1_code":"07","admin2_code":"053","admin3_code":"05366","admin4_code":"05366040","population":"16321","elevation":"","dem":"112","timezone":"Europe/Berlin","modification_date":"2011-07-31"},{"geonameid":"2812625","name":"Weil der Stadt","asciiname":"Weil der Stadt","alternatenames":["Vajl der Shtat","Vajl'-der-Shtadt","Weil der Stadt","bail deeo syutateu","wayl shhr","wei er de er si ta te","Вайль-дер-Штадт","Вајл дер Штат","وایل شهر","魏尔德尔斯塔特","바일 데어 슈타트"],"latitude":"48.74953","longitude":"8.87176","feature_class":"P","feature_code":"PPL","country_code":"DE","cc2":"","admin1_code":"01","admin2_code":"081","admin3_code":"08115","admin4_code":"08115050","population":"19338","elevation":"","dem":"397","timezone":"Europe/Berlin","modification_date":"2012-09-06"},{"geonameid":"2812626","name":"Weilburg","asciiname":"Weilburg","alternatenames":["Vajl'burg","Vajlburg","Weilborg","Weilbourg","Weilburg","waylbwrg","wei er bao","Вайльбург","Вајлбург","وایلبورگ","魏爾堡"],"latitude":"50.48438","longitude":"8.26249","feature_class":"P","feature_code":"PPL","country_code":"DE","cc2":"","admin1_code":"05","admin2_code":"","admin3_code":"","admin4_code":"","population":"13798","elevation":"","dem":"165","timezone":"Europe/Berlin","modification_date":"2012-07-19"},{"geonameid":"2812636","name":"Weil am Rhein","asciiname":"Weil am Rhein","alternatenames":["Rejn Vajl'","Stadt Weil am Rhein","Vajl am Rejn","Vajl na Rajni","Vajl'-na-Rejne","Vajl'-na-Rejni","Weil am Rhein","Weil-am-Rhein","lai yin he pan wei er","wayl an dr rayn","Вайл ам Рейн","Вайль-на-Рейне","Вайль-на-Рейні","Вајл на Рајни","Рейн Вайль","وایل آن در راین","ヴァイル・アム・ライン","莱茵河畔魏尔"],"latitude":"47.59331","longitude":"7.62082","feature_class":"P","feature_code":"PPL","country_code":"DE","cc2":"","admin1_code":"01","admin2_code":"083","admin3_code":"08336","admin4_code":"08336091","population":"29548","elevation":"","dem":"277","timezone":"Europe/Berlin","modification_date":"2013-02-16"},{"geonameid":"2812655","name":"Weikersheim","asciiname":"Weikersheim","alternatenames":["Vajkerskhajm","Weikersheim","vu~aikasuhaimu","waykrzhaym","wei ke er si hai mu","Вайкерсхайм","Вајкерсхајм","وایکرزهایم","ヴァイカースハイム","魏克尔斯海姆"],"latitude":"49.47866","longitude":"9.89977","feature_class":"P","feature_code":"PPL","country_code":"DE","cc2":"","admin1_code":"01","admin2_code":"081","admin3_code":"08128","admin4_code":"08128126","population":"7569","elevation":"","dem":"237","timezone":"Europe/Berlin","modification_date":"2013-02-19"},{"geonameid":"2813040","name":"Weiden","asciiname":"Weiden","alternatenames":["Vajden","Weiden","Weyden","Вайден"],"latitude":"49.67682","longitude":"12.15613","feature_class":"P","feature_code":"PPLA3","country_code":"DE","cc2":"","admin1_code":"02","admin2_code":"093","admin3_code":"09363","admin4_code":"09363000","population":"42550","elevation":"","dem":"397","timezone":"Europe/Berlin","modification_date":"2014-02-08"},{"geonameid":"2813110","name":"Weida","asciiname":"Weida","alternatenames":["Weida"],"latitude":"50.77449","longitude":"12.06028","feature_class":"P","feature_code":"PPL","country_code":"DE","cc2":"","admin1_code":"15","admin2_code":"","admin3_code":"","admin4_code":"","population":"8528","elevation":"","dem":"239","timezone":"Europe/Berlin","modification_date":"2012-09-06"},{"geonameid":"2813187","name":"Weißensee","asciiname":"Weissensee","alternatenames":["Berlin-Weissensee","Berlin-Weißensee","Vajsenze","Vajsenzee","Weissensee","wyysnzh","Вайсензе","Вайсензее","וייסנזה"],"latitude":"52.55632","longitude":"13.46649","feature_class":"P","feature_code":"PPLX","country_code":"DE","cc2":"DE","admin1_code":"16","admin2_code":"00","admin3_code":"11000","admin4_code":"11000000","population":"47693","elevation":"","dem":"53","timezone":"Europe/Berlin","modification_date":"2012-06-09"},{"geonameid":"2813216","name":"Wehrheim","asciiname":"Wehrheim","alternatenames":["Verkhajm","Wehrheim","wei lai mu","Верхайм","Верхајм","韦赖姆"],"latitude":"50.3","longitude":"8.56667","feature_class":"P","feature_code":"PPLA4","country_code":"DE","cc2":"","admin1_code":"05","admin2_code":"064","admin3_code":"06434","admin4_code":"06434012","population":"9383","elevation":"","dem":"314","timezone":"Europe/Berlin","modification_date":"2011-04-25"},{"geonameid":"2813262","name":"Wehr","asciiname":"Wehr","alternatenames":[""],"latitude":"47.62983","longitude":"7.90423","feature_class":"P","feature_code":"PPL","country_code":"DE","cc2":"","admin1_code":"01","admin2_code":"083","admin3_code":"08337","admin4_code":"08337116","population":"13037","elevation":"","dem":"358","timezone":"Europe/Berlin","modification_date":"2013-02-16"},{"geonameid":"2813344","name":"Wegscheid","asciiname":"Wegscheid","alternatenames":[""],"latitude":"48.60136","longitude":"13.78733","feature_class":"P","feature_code":"PPL","country_code":"DE","cc2":"","admin1_code":"02","admin2_code":"092","admin3_code":"09275","admin4_code":"09275156","population":"5817","elevation":"","dem":"716","timezone":"Europe/Berlin","modification_date":"2011-07-14"},{"geonameid":"2813390","name":"Wegberg","asciiname":"Wegberg","alternatenames":["Vegberg","Wegberg","wei ge bei ge","wgbrg","Вегберг","وگبرگ","韦格贝格"],"latitude":"51.14221","longitude":"6.28436","feature_class":"P","feature_code":"PPL","country_code":"DE","cc2":"","admin1_code":"07","admin2_code":"","admin3_code":"","admin4_code":"","population":"29622","elevation":"","dem":"67","timezone":"Europe/Berlin","modification_date":"2012-08-04"},{"geonameid":"2813410","name":"Weeze","asciiname":"Weeze","alternatenames":["Vece","Weeze vald","wei ce","Веце","韦策"],"latitude":"51.62678","longitude":"6.19792","feature_class":"P","feature_code":"PPLA4","country_code":"DE","cc2":"","admin1_code":"07","admin2_code":"051","admin3_code":"05154","admin4_code":"05154064","population":"10131","elevation":"","dem":"21","timezone":"Europe/Berlin","modification_date":"2011-04-25"},{"geonameid":"2813433","name":"Weener","asciiname":"Weener","alternatenames":["Vener","Weener","wei nei er","wynr","Венер","وینر","韦内尔"],"latitude":"53.16332","longitude":"7.35052","feature_class":"P","feature_code":"PPL","country_code":"DE","cc2":"","admin1_code":"06","admin2_code":"","admin3_code":"","admin4_code":"","population":"15718","elevation":"","dem":"5","timezone":"Europe/Berlin","modification_date":"2012-08-04"},{"geonameid":"2813464","name":"Wedel","asciiname":"Wedel","alternatenames":["Vedel","Vedel'","Vedelis","Vėdelis","Wedel","wdl","wei de er","Ведел","Ведель","ودل","韦德尔"],"latitude":"53.58374","longitude":"9.69835","feature_class":"P","feature_code":"PPL","country_code":"DE","cc2":"","admin1_code":"10","admin2_code":"","admin3_code":"","admin4_code":"","population":"31995","elevation":"","dem":"11","timezone":"Europe/Berlin","modification_date":"2011-08-23"},{"geonameid":"2813472","name":"Wedding","asciiname":"Wedding Bezirk","alternatenames":["Berlin-Wedding","Veding","wdyng","wei ding","Вединг","ודינג","威丁"],"latitude":"52.54734","longitude":"13.35594","feature_class":"P","feature_code":"PPLX","country_code":"DE","cc2":"","admin1_code":"16","admin2_code":"00","admin3_code":"11000","admin4_code":"11000000","population":"78290","elevation":"","dem":"41","timezone":"Europe/Berlin","modification_date":"2014-04-12"},{"geonameid":"2813660","name":"Wathlingen","asciiname":"Wathlingen","alternatenames":["Vatlingen","Waditlagun [a. 1022]","Wateln","Wathlingen","Wodeln","wa te lin gen","Ватлинген","瓦特林根"],"latitude":"52.5369","longitude":"10.15069","feature_class":"P","feature_code":"PPL","country_code":"DE","cc2":"","admin1_code":"06","admin2_code":"00","admin3_code":"03351","admin4_code":"03351021","population":"6431","elevation":"","dem":"44","timezone":"Europe/Berlin","modification_date":"2014-08-18"},{"geonameid":"2813700","name":"Wassertrüdingen","asciiname":"Wassertrudingen","alternatenames":["Vasertridingen","Vassertrjudingen","Wassertrudingen","Wassertruedingen","Wassertrüdingen","vu~assatoryudingen","wa sai er te lu ding gen","wayrtrwdyngn","Васертридинген","Вассертрюдинген","وایرترودینگن","ヴァッサートリューディンゲン","瓦塞尔特吕丁根"],"latitude":"49.04328","longitude":"10.59906","feature_class":"P","feature_code":"PPL","country_code":"DE","cc2":"","admin1_code":"02","admin2_code":"095","admin3_code":"09571","admin4_code":"09571214","population":"6245","elevation":"","dem":"427","timezone":"Europe/Berlin","modification_date":"2015-03-04"},{"geonameid":"2813755","name":"Wasserburg am Inn","asciiname":"Wasserburg am Inn","alternatenames":["Vaserburg na Inu","Vasserburg-na-Inne","Wassabuag am Inn","Wasserburg","wayrbwrg an dr ayn","yin he pan wa sai er bu er ge","Васербург на Ину","Вассербург-на-Инне","وایربورگ آن در این","因河畔瓦塞尔布尔格"],"latitude":"48.0525","longitude":"12.22341","feature_class":"P","feature_code":"PPL","country_code":"DE","cc2":"","admin1_code":"02","admin2_code":"091","admin3_code":"09187","admin4_code":"09187182","population":"12374","elevation":"","dem":"461","timezone":"Europe/Berlin","modification_date":"2013-02-19"},{"geonameid":"2813786","name":"Wassenberg","asciiname":"Wassenberg","alternatenames":["Vasenberg","Vassenberg","Wassenberg","wa sen bei ge","waznbrg","Васенберг","Вассенберг","وازنبرگ","瓦森贝格"],"latitude":"51.10009","longitude":"6.15484","feature_class":"P","feature_code":"PPL","country_code":"DE","cc2":"","admin1_code":"07","admin2_code":"053","admin3_code":"","admin4_code":"","population":"16641","elevation":"","dem":"48","timezone":"Europe/Berlin","modification_date":"2012-12-13"},{"geonameid":"2814005","name":"Warstein","asciiname":"Warstein","alternatenames":["Stadt Warstein","Varshtajn","Warstein","wa er si tai yin","warashtayn","Варштайн","Варштајн","واراشتاین","瓦尔斯泰因"],"latitude":"51.44488","longitude":"8.34851","feature_class":"P","feature_code":"PPL","country_code":"DE","cc2":"","admin1_code":"07","admin2_code":"","admin3_code":"","admin4_code":"","population":"28532","elevation":"","dem":"346","timezone":"Europe/Berlin","modification_date":"2012-08-04"},{"geonameid":"2814055","name":"Warnemünde","asciiname":"Warnemuende","alternatenames":["Seebad Warnemuende","Seebad Warnemünde","Varnemjunde","Warnemuenn","Warnemünn","Wmd","vu~anemyunde","wa er nei ming de","Варнемюнде","ヴァーネミュンデ","瓦尔内明德"],"latitude":"54.1767","longitude":"12.08402","feature_class":"P","feature_code":"PPLX","country_code":"DE","cc2":"","admin1_code":"12","admin2_code":"00","admin3_code":"13003","admin4_code":"13003000","population":"8441","elevation":"","dem":"4","timezone":"Europe/Berlin","modification_date":"2014-07-19"},{"geonameid":"2814127","name":"Warendorf","asciiname":"Warendorf","alternatenames":["Gorad Varehndorf","Varendorf","Warendorf","Warendorp","Warnduorp","wa lun duo er fu","warndwrf","Варендорф","Горад Варэндорф","وارندورف","瓦伦多尔夫"],"latitude":"51.95109","longitude":"7.98756","feature_class":"P","feature_code":"PPLA3","country_code":"DE","cc2":"","admin1_code":"07","admin2_code":"055","admin3_code":"05570","admin4_code":"","population":"38707","elevation":"","dem":"58","timezone":"Europe/Berlin","modification_date":"2014-01-18"},{"geonameid":"2814131","name":"Waren","asciiname":"Waren","alternatenames":["Varen","Varene pie Mirica","Vārene pie Mīrica","Waren","warn","Варен","وارن"],"latitude":"53.5204","longitude":"12.67985","feature_class":"P","feature_code":"PPL","country_code":"DE","cc2":"","admin1_code":"12","admin2_code":"","admin3_code":"","admin4_code":"","population":"21470","elevation":"","dem":"66","timezone":"Europe/Berlin","modification_date":"2012-07-04"},{"geonameid":"2814146","name":"Wardenburg","asciiname":"Wardenburg","alternatenames":["Vardenburg","Варденбург"],"latitude":"53.06667","longitude":"8.2","feature_class":"P","feature_code":"PPLA4","country_code":"DE","cc2":"","admin1_code":"06","admin2_code":"00","admin3_code":"03458","admin4_code":"03458013","population":"16019","elevation":"","dem":"7","timezone":"Europe/Berlin","modification_date":"2011-04-25"},{"geonameid":"2814153","name":"Warburg","asciiname":"Warburg","alternatenames":["Varburg","Varburgum Vestphalorum","Waberich","Warburg","wa er bao","warbwrg","Варбург","واربورگ","瓦尔堡"],"latitude":"51.49011","longitude":"9.14641","feature_class":"P","feature_code":"PPL","country_code":"DE","cc2":"","admin1_code":"07","admin2_code":"","admin3_code":"","admin4_code":"","population":"24317","elevation":"","dem":"200","timezone":"Europe/Berlin","modification_date":"2012-08-04"},{"geonameid":"2814181","name":"Wanzleben","asciiname":"Wanzleben","alternatenames":["Vancleben","Wanzleben","Ванцлебен"],"latitude":"52.06087","longitude":"11.4408","feature_class":"P","feature_code":"PPL","country_code":"DE","cc2":"","admin1_code":"14","admin2_code":"","admin3_code":"","admin4_code":"","population":"5397","elevation":"","dem":"97","timezone":"Europe/Berlin","modification_date":"2012-08-04"},{"geonameid":"2814195","name":"Wannweil","asciiname":"Wannweil","alternatenames":[""],"latitude":"48.51667","longitude":"9.15","feature_class":"P","feature_code":"PPLA4","country_code":"DE","cc2":"","admin1_code":"01","admin2_code":"084","admin3_code":"08415","admin4_code":"08415080","population":"5092","elevation":"","dem":"320","timezone":"Europe/Berlin","modification_date":"2011-04-25"},