{"country_data":{"ISO":"JM","ISO3":"JAM","ISO_Numeric":"388","fips":"JM","country":"Jamaica","capital":"Kingston","area":"10991","Population":"2847232","Continent":"NA","tld":".jm","CurrencyCode":"JMD","CurrencyName":"Dollar","Phone":"+1-876","Postal_Code_Format":"","Postal_Code_Regex":"","Languages":"en-JM","geonameid":"3489940","neighbours":"","EquivalentFipsCode":""},"cities":[{"geonameid":"3487963","name":"Yallahs","asciiname":"Yallahs","alternatenames":["Yallahs","Yallahs Bay","Yallahs Village"],"latitude":"17.8748","longitude":"-76.56245","feature_class":"P","feature_code":"PPL","country_code":"JM","cc2":"","admin1_code":"14","admin2_code":"","admin3_code":"","admin4_code":"","population":"7644","elevation":"","dem":"29","timezone":"America/Jamaica","modification_date":"2012-01-16"},{"geonameid":"3488380","name":"Stony Hill","asciiname":"Stony Hill","alternatenames":[""],"latitude":"18.07916","longitude":"-76.78473","feature_class":"P","feature_code":"PPL","country_code":"JM","cc2":"","admin1_code":"08","admin2_code":"","admin3_code":"","admin4_code":"","population":"8551","elevation":"","dem":"544","timezone":"America/Jamaica","modification_date":"2014-10-14"},{"geonameid":"3488465","name":"Spanish Town","asciiname":"Spanish Town","alternatenames":["Hispanurbo","Saint Jago de la Vega","Spanis Taoun","Spanis Taunas","Spanish Town","Spanish-Taun","Spaniš Taunas","sbanysh tawn","seupaenisitaun","xi ban ya zhen","Σπάνις Τάουν","Спаниш-Таун","سبانيش تاون","スパニッシュ・タウン","西班牙鎮","스패니시타운"],"latitude":"17.99107","longitude":"-76.95742","feature_class":"P","feature_code":"PPLA","country_code":"JM","cc2":"","admin1_code":"10","admin2_code":"","admin3_code":"","admin4_code":"","population":"145018","elevation":"","dem":"31","timezone":"America/Jamaica","modification_date":"2012-01-16"},{"geonameid":"3488613","name":"Savanna-la-Mar","asciiname":"Savanna-la-Mar","alternatenames":["Sav","Sav-la-Mar","Savanna-la-Mar","Savannah la Mar"],"latitude":"18.21895","longitude":"-78.1332","feature_class":"P","feature_code":"PPLA","country_code":"JM","cc2":"","admin1_code":"16","admin2_code":"","admin3_code":"","admin4_code":"","population":"16553","elevation":"","dem":"7","timezone":"America/Jamaica","modification_date":"2013-08-11"},{"geonameid":"3488620","name":"Santa Cruz","asciiname":"Santa Cruz","alternatenames":["Santa Cruz"],"latitude":"18.05336","longitude":"-77.69836","feature_class":"P","feature_code":"PPL","country_code":"JM","cc2":"","admin1_code":"11","admin2_code":"","admin3_code":"","admin4_code":"","population":"8217","elevation":"","dem":"13","timezone":"America/Jamaica","modification_date":"2012-01-16"},{"geonameid":"3488713","name":"Saint Ann’s Bay","asciiname":"Saint Ann's Bay","alternatenames":["Saint Ann's Bay","Saint Ann’s Bay","Santa Gloria","St Ann's Bay"],"latitude":"18.43581","longitude":"-77.20098","feature_class":"P","feature_code":"PPLA","country_code":"JM","cc2":"","admin1_code":"09","admin2_code":"","admin3_code":"","admin4_code":"","population":"13671","elevation":"","dem":"14","timezone":"America/Jamaica","modification_date":"2013-08-04"},{"geonameid":"3488726","name":"Runaway Bay","asciiname":"Runaway Bay","alternatenames":["Runaway Bay","Runaway Bay Settlement","Runaway Bay Village","Runaway Village","Runnaway-Bay"],"latitude":"18.45962","longitude":"-77.3357","feature_class":"P","feature_code":"PPL","country_code":"JM","cc2":"","admin1_code":"09","admin2_code":"","admin3_code":"","admin4_code":"","population":"6517","elevation":"","dem":"13","timezone":"America/Jamaica","modification_date":"2012-01-16"},{"geonameid":"3488977","name":"Porus","asciiname":"Porus","alternatenames":["Porus"],"latitude":"18.03535","longitude":"-77.41166","feature_class":"P","feature_code":"PPL","country_code":"JM","cc2":"","admin1_code":"04","admin2_code":"","admin3_code":"","admin4_code":"","population":"5923","elevation":"","dem":"128","timezone":"America/Jamaica","modification_date":"2012-01-16"},{"geonameid":"3488981","name":"Portmore","asciiname":"Portmore","alternatenames":["Portmore"],"latitude":"17.95032","longitude":"-76.88215","feature_class":"P","feature_code":"PPL","country_code":"JM","cc2":"","admin1_code":"10","admin2_code":"","admin3_code":"","admin4_code":"","population":"102861","elevation":"","dem":"139","timezone":"America/Jamaica","modification_date":"2014-08-12"},{"geonameid":"3488985","name":"Port Maria","asciiname":"Port Maria","alternatenames":[""],"latitude":"18.36849","longitude":"-76.88946","feature_class":"P","feature_code":"PPLA","country_code":"JM","cc2":"","admin1_code":"13","admin2_code":"","admin3_code":"","admin4_code":"","population":"7906","elevation":"","dem":"2","timezone":"America/Jamaica","modification_date":"2012-01-16"},{"geonameid":"3489005","name":"Port Antonio","asciiname":"Port Antonio","alternatenames":["POT","Port Antonio","Port-Antonio","Saint Francois","Порт-Антонио"],"latitude":"18.17615","longitude":"-76.4509","feature_class":"P","feature_code":"PPLA","country_code":"JM","cc2":"","admin1_code":"07","admin2_code":"","admin3_code":"","admin4_code":"","population":"14400","elevation":"","dem":"13","timezone":"America/Jamaica","modification_date":"2014-08-07"},{"geonameid":"3489011","name":"Point Hill","asciiname":"Point Hill","alternatenames":[""],"latitude":"18.08988","longitude":"-77.10759","feature_class":"P","feature_code":"PPL","country_code":"JM","cc2":"","admin1_code":"10","admin2_code":"","admin3_code":"","admin4_code":"","population":"5344","elevation":"","dem":"613","timezone":"America/Jamaica","modification_date":"2011-04-18"},{"geonameid":"3489225","name":"Old Harbour Bay","asciiname":"Old Harbour Bay","alternatenames":[""],"latitude":"17.90918","longitude":"-77.09718","feature_class":"P","feature_code":"PPL","country_code":"JM","cc2":"","admin1_code":"10","admin2_code":"","admin3_code":"","admin4_code":"","population":"7912","elevation":"","dem":"5","timezone":"America/Jamaica","modification_date":"2011-04-18"},{"geonameid":"3489227","name":"Old Harbour","asciiname":"Old Harbour","alternatenames":["Old Harbor","Old Harbour"],"latitude":"17.94144","longitude":"-77.10898","feature_class":"P","feature_code":"PPL","country_code":"JM","cc2":"","admin1_code":"10","admin2_code":"","admin3_code":"","admin4_code":"","population":"26024","elevation":"","dem":"30","timezone":"America/Jamaica","modification_date":"2012-01-16"},{"geonameid":"3489239","name":"Ocho Rios","asciiname":"Ocho Rios","alternatenames":["Las Chorreras","OCJ","Ocho Rios","Ocho Ríos","Ocho-Rios","Otso Rios","ao qiao li ao si","awtshw ryws","ocho・riosu","Ότσο Ρίος","Очо-Риос","أوتشو ريوس","オーチョ・リオス","奧喬里奧斯"],"latitude":"18.4025","longitude":"-77.1048","feature_class":"P","feature_code":"PPL","country_code":"JM","cc2":"","admin1_code":"09","admin2_code":"","admin3_code":"","admin4_code":"","population":"9450","elevation":"","dem":"25","timezone":"America/Jamaica","modification_date":"2014-07-16"},{"geonameid":"3489297","name":"New Kingston","asciiname":"New Kingston","alternatenames":[""],"latitude":"18.00747","longitude":"-76.78319","feature_class":"P","feature_code":"PPLX","country_code":"JM","cc2":"","admin1_code":"08","admin2_code":"","admin3_code":"","admin4_code":"","population":"583958","elevation":"","dem":"99","timezone":"America/Jamaica","modification_date":"2008-03-10"},{"geonameid":"3489440","name":"Morant Bay","asciiname":"Morant Bay","alternatenames":["Morant","Morant Bay"],"latitude":"17.88145","longitude":"-76.40927","feature_class":"P","feature_code":"PPLA","country_code":"JM","cc2":"","admin1_code":"14","admin2_code":"","admin3_code":"","admin4_code":"","population":"9368","elevation":"","dem":"22","timezone":"America/Jamaica","modification_date":"2012-01-16"},{"geonameid":"3489460","name":"Montego Bay","asciiname":"Montego Bay","alternatenames":["Bahia Montego","Bahía Montego","MBJ","Mantica Bahia","Montego","Montego Bay","Montego Bejus","Montego Bėjus","Montego-Bej","Montenko Bey","Monteqo-Bey","mamtego be","meng te ge bei","mwntgwby","mwntyghw bay","Μοντέγκο Μπέυ","Монтего-Бей","مونتيغو باي","مونتگوبی","माँटेगो बे","モンテゴ・ベイ","蒙特哥貝"],"latitude":"18.47116","longitude":"-77.91883","feature_class":"P","feature_code":"PPLA","country_code":"JM","cc2":"","admin1_code":"12","admin2_code":"","admin3_code":"","admin4_code":"","population":"82867","elevation":"","dem":"12","timezone":"America/Jamaica","modification_date":"2013-06-27"},{"geonameid":"3489523","name":"May Pen","asciiname":"May Pen","alternatenames":["May Pen"],"latitude":"17.96454","longitude":"-77.24515","feature_class":"P","feature_code":"PPLA","country_code":"JM","cc2":"","admin1_code":"01","admin2_code":"","admin3_code":"","admin4_code":"","population":"44755","elevation":"","dem":"81","timezone":"America/Jamaica","modification_date":"2012-01-16"},{"geonameid":"3489577","name":"Mandeville","asciiname":"Mandeville","alternatenames":["MVJ","Mandevil'","Mandeville","Мандевиль"],"latitude":"18.04168","longitude":"-77.50714","feature_class":"P","feature_code":"PPLA","country_code":"JM","cc2":"","admin1_code":"04","admin2_code":"","admin3_code":"","admin4_code":"","population":"47115","elevation":"","dem":"609","timezone":"America/Jamaica","modification_date":"2014-01-19"},{"geonameid":"3489657","name":"Lucea","asciiname":"Lucea","alternatenames":["Lucea"],"latitude":"18.45095","longitude":"-78.17356","feature_class":"P","feature_code":"PPLA","country_code":"JM","cc2":"","admin1_code":"02","admin2_code":"","admin3_code":"","admin4_code":"","population":"6289","elevation":"","dem":"12","timezone":"America/Jamaica","modification_date":"2012-01-16"},{"geonameid":"3489758","name":"Lionel Town","asciiname":"Lionel Town","alternatenames":["Lionel Town"],"latitude":"17.81007","longitude":"-77.24061","feature_class":"P","feature_code":"PPL","country_code":"JM","cc2":"","admin1_code":"01","admin2_code":"","admin3_code":"","admin4_code":"","population":"5362","elevation":"","dem":"11","timezone":"America/Jamaica","modification_date":"2012-05-05"},{"geonameid":"3489760","name":"Linstead","asciiname":"Linstead","alternatenames":[""],"latitude":"18.13683","longitude":"-77.03171","feature_class":"P","feature_code":"PPL","country_code":"JM","cc2":"","admin1_code":"10","admin2_code":"","admin3_code":"","admin4_code":"","population":"20660","elevation":"","dem":"119","timezone":"America/Jamaica","modification_date":"2008-02-22"},{"geonameid":"3489854","name":"Kingston","asciiname":"Kingston","alternatenames":["KIN","Kin'nkston","Kingston","jing si dui","kingseuteon","kingusuton","kyngstwn","Κίνγκστον","Кингстон","کینگستون","キングストン","京斯敦","킹스턴"],"latitude":"17.99702","longitude":"-76.79358","feature_class":"P","feature_code":"PPLC","country_code":"JM","cc2":"","admin1_code":"17","admin2_code":"","admin3_code":"","admin4_code":"","population":"937700","elevation":"","dem":"65","timezone":"America/Jamaica","modification_date":"2015-06-03"},{"geonameid":"3490106","name":"Hayes","asciiname":"Hayes","alternatenames":["Hayes"],"latitude":"17.87569","longitude":"-77.23711","feature_class":"P","feature_code":"PPL","country_code":"JM","cc2":"","admin1_code":"01","admin2_code":"","admin3_code":"","admin4_code":"","population":"9701","elevation":"","dem":"38","timezone":"America/Jamaica","modification_date":"2012-05-05"},{"geonameid":"3490165","name":"Half Way Tree","asciiname":"Half Way Tree","alternatenames":["Half Way Tree"],"latitude":"18.01248","longitude":"-76.79928","feature_class":"P","feature_code":"PPLA","country_code":"JM","cc2":"","admin1_code":"08","admin2_code":"","admin3_code":"","admin4_code":"","population":"18552","elevation":"","dem":"72","timezone":"America/Jamaica","modification_date":"2013-07-03"},{"geonameid":"3490520","name":"Falmouth","asciiname":"Falmouth","alternatenames":["Falmouth"],"latitude":"18.49358","longitude":"-77.65587","feature_class":"P","feature_code":"PPLA","country_code":"JM","cc2":"","admin1_code":"15","admin2_code":"","admin3_code":"","admin4_code":"","population":"7779","elevation":"","dem":"5","timezone":"America/Jamaica","modification_date":"2013-06-27"},{"geonameid":"3490539","name":"Ewarton","asciiname":"Ewarton","alternatenames":[""],"latitude":"18.18333","longitude":"-77.08536","feature_class":"P","feature_code":"PPL","country_code":"JM","cc2":"","admin1_code":"10","admin2_code":"","admin3_code":"","admin4_code":"","population":"12797","elevation":"","dem":"226","timezone":"America/Jamaica","modification_date":"2014-08-06"},{"geonameid":"3490880","name":"Constant Spring","asciiname":"Constant Spring","alternatenames":["Constant Spring"],"latitude":"18.05078","longitude":"-76.79372","feature_class":"P","feature_code":"PPL","country_code":"JM","cc2":"","admin1_code":"08","admin2_code":"","admin3_code":"","admin4_code":"","population":"12830","elevation":"","dem":"155","timezone":"America/Jamaica","modification_date":"2012-05-05"},{"geonameid":"3491161","name":"Bull Savanna","asciiname":"Bull Savanna","alternatenames":[""],"latitude":"17.88678","longitude":"-77.59022","feature_class":"P","feature_code":"PPL","country_code":"JM","cc2":"","admin1_code":"11","admin2_code":"","admin3_code":"","admin4_code":"","population":"6962","elevation":"","dem":"270","timezone":"America/Jamaica","modification_date":"2011-04-18"},{"geonameid":"3491293","name":"Bog Walk","asciiname":"Bog Walk","alternatenames":[""],"latitude":"18.10205","longitude":"-77.00541","feature_class":"P","feature_code":"PPL","country_code":"JM","cc2":"","admin1_code":"10","admin2_code":"","admin3_code":"","admin4_code":"","population":"12873","elevation":"","dem":"86","timezone":"America/Jamaica","modification_date":"2008-02-22"},{"geonameid":"3491355","name":"Black River","asciiname":"Black River","alternatenames":[""],"latitude":"18.02636","longitude":"-77.84873","feature_class":"P","feature_code":"PPLA","country_code":"JM","cc2":"","admin1_code":"11","admin2_code":"","admin3_code":"","admin4_code":"","population":"4229","elevation":"","dem":"5","timezone":"America/Jamaica","modification_date":"2013-06-27"},{"geonameid":"3491556","name":"Annotto Bay","asciiname":"Annotto Bay","alternatenames":["Annatto Bay","Annotta Bay","Annotto Bay"],"latitude":"18.2717","longitude":"-76.76523","feature_class":"P","feature_code":"PPL","country_code":"JM","cc2":"","admin1_code":"13","admin2_code":"","admin3_code":"","admin4_code":"","population":"5504","elevation":"","dem":"5","timezone":"America/Jamaica","modification_date":"2012-02-24"},{"geonameid":"3488465","name":"Spanish Town","asciiname":"Spanish Town","alternatenames":["Hispanurbo","Saint Jago de la Vega","Spanis Taoun","Spanis Taunas","Spanish Town","Spanish-Taun","Spaniš Taunas","sbanysh tawn","seupaenisitaun","xi ban ya zhen","Σπάνις Τάουν","Спаниш-Таун","سبانيش تاون","スパニッシュ・タウン","西班牙鎮","스패니시타운"],"latitude":"17.99107","longitude":"-76.95742","feature_class":"P","feature_code":"PPLA","country_code":"JM","cc2":"","admin1_code":"10","admin2_code":"","admin3_code":"","admin4_code":"","population":"145018","elevation":"","dem":"31","timezone":"America/Jamaica","modification_date":"2012-01-16"},{"geonameid":"3488613","name":"Savanna-la-Mar","asciiname":"Savanna-la-Mar","alternatenames":["Sav","Sav-la-Mar","Savanna-la-Mar","Savannah la Mar"],"latitude":"18.21895","longitude":"-78.1332","feature_class":"P","feature_code":"PPLA","country_code":"JM","cc2":"","admin1_code":"16","admin2_code":"","admin3_code":"","admin4_code":"","population":"16553","elevation":"","dem":"7","timezone":"America/Jamaica","modification_date":"2013-08-11"},{"geonameid":"3488981","name":"Portmore","asciiname":"Portmore","alternatenames":["Portmore"],"latitude":"17.95032","longitude":"-76.88215","feature_class":"P","feature_code":"PPL","country_code":"JM","cc2":"","admin1_code":"10","admin2_code":"","admin3_code":"","admin4_code":"","population":"102861","elevation":"","dem":"139","timezone":"America/Jamaica","modification_date":"2014-08-12"},{"geonameid":"3489227","name":"Old Harbour","asciiname":"Old Harbour","alternatenames":["Old Harbor","Old Harbour"],"latitude":"17.94144","longitude":"-77.10898","feature_class":"P","feature_code":"PPL","country_code":"JM","cc2":"","admin1_code":"10","admin2_code":"","admin3_code":"","admin4_code":"","population":"26024","elevation":"","dem":"30","timezone":"America/Jamaica","modification_date":"2012-01-16"},{"geonameid":"3489297","name":"New Kingston","asciiname":"New Kingston","alternatenames":[""],"latitude":"18.00747","longitude":"-76.78319","feature_class":"P","feature_code":"PPLX","country_code":"JM","cc2":"","admin1_code":"08","admin2_code":"","admin3_code":"","admin4_code":"","population":"583958","elevation":"","dem":"99","timezone":"America/Jamaica","modification_date":"2008-03-10"},{"geonameid":"3489460","name":"Montego Bay","asciiname":"Montego Bay","alternatenames":["Bahia Montego","Bahía Montego","MBJ","Mantica Bahia","Montego","Montego Bay","Montego Bejus","Montego Bėjus","Montego-Bej","Montenko Bey","Monteqo-Bey","mamtego be","meng te ge bei","mwntgwby","mwntyghw bay","Μοντέγκο Μπέυ","Монтего-Бей","مونتيغو باي","مونتگوبی","माँटेगो बे","モンテゴ・ベイ","蒙特哥貝"],"latitude":"18.47116","longitude":"-77.91883","feature_class":"P","feature_code":"PPLA","country_code":"JM","cc2":"","admin1_code":"12","admin2_code":"","admin3_code":"","admin4_code":"","population":"82867","elevation":"","dem":"12","timezone":"America/Jamaica","modification_date":"2013-06-27"},{"geonameid":"3489523","name":"May Pen","asciiname":"May Pen","alternatenames":["May Pen"],"latitude":"17.96454","longitude":"-77.24515","feature_class":"P","feature_code":"PPLA","country_code":"JM","cc2":"","admin1_code":"01","admin2_code":"","admin3_code":"","admin4_code":"","population":"44755","elevation":"","dem":"81","timezone":"America/Jamaica","modification_date":"2012-01-16"},{"geonameid":"3489577","name":"Mandeville","asciiname":"Mandeville","alternatenames":["MVJ","Mandevil'","Mandeville","Мандевиль"],"latitude":"18.04168","longitude":"-77.50714","feature_class":"P","feature_code":"PPLA","country_code":"JM","cc2":"","admin1_code":"04","admin2_code":"","admin3_code":"","admin4_code":"","population":"47115","elevation":"","dem":"609","timezone":"America/Jamaica","modification_date":"2014-01-19"},{"geonameid":"3489760","name":"Linstead","asciiname":"Linstead","alternatenames":[""],"latitude":"18.13683","longitude":"-77.03171","feature_class":"P","feature_code":"PPL","country_code":"JM","cc2":"","admin1_code":"10","admin2_code":"","admin3_code":"","admin4_code":"","population":"20660","elevation":"","dem":"119","timezone":"America/Jamaica","modification_date":"2008-02-22"},{"geonameid":"3489854","name":"Kingston","asciiname":"Kingston","alternatenames":["KIN","Kin'nkston","Kingston","jing si dui","kingseuteon","kingusuton","kyngstwn","Κίνγκστον","Кингстон","کینگستون","キングストン","京斯敦","킹스턴"],"latitude":"17.99702","longitude":"-76.79358","feature_class":"P","feature_code":"PPLC","country_code":"JM","cc2":"","admin1_code":"17","admin2_code":"","admin3_code":"","admin4_code":"","population":"937700","elevation":"","dem":"65","timezone":"America/Jamaica","modification_date":"2015-06-03"},{"geonameid":"3490165","name":"Half Way Tree","asciiname":"Half Way Tree","alternatenames":["Half Way Tree"],"latitude":"18.01248","longitude":"-76.79928","feature_class":"P","feature_code":"PPLA","country_code":"JM","cc2":"","admin1_code":"08","admin2_code":"","admin3_code":"","admin4_code":"","population":"18552","elevation":"","dem":"72","timezone":"America/Jamaica","modification_date":"2013-07-03"}]}