{"country_data":{"ISO":"MX","ISO3":"MEX","ISO_Numeric":"484","fips":"MX","country":"Mexico","capital":"Mexico City","area":"1972550","Population":"112468855","Continent":"NA","tld":".mx","CurrencyCode":"MXN","CurrencyName":"Peso","Phone":"52","Postal_Code_Format":"#####","Postal_Code_Regex":"^(\\d{5})$","Languages":"es-MX","geonameid":"3996063","neighbours":"GT,US,BZ","EquivalentFipsCode":""},"cities":[{"geonameid":"3482886","name":"Cuauhtémoc","asciiname":"Cuauhtemoc","alternatenames":["Cuauhtemoc","Cuauhtémoc"],"latitude":"22.54408","longitude":"-98.15074","feature_class":"P","feature_code":"PPL","country_code":"MX","cc2":"","admin1_code":"28","admin2_code":"003","admin3_code":"","admin4_code":"","population":"5924","elevation":"","dem":"16","timezone":"America/Monterrey","modification_date":"2015-06-22"},{"geonameid":"3482946","name":"Santa Martha","asciiname":"Santa Martha","alternatenames":[""],"latitude":"22.34278","longitude":"-98.70639","feature_class":"P","feature_code":"PPL","country_code":"MX","cc2":"","admin1_code":"24","admin2_code":"040","admin3_code":"","admin4_code":"","population":"2374","elevation":"","dem":"95","timezone":"America/Mexico_City","modification_date":"2013-08-01"},{"geonameid":"3482969","name":"Gustavo A. Madero","asciiname":"Gustavo A. Madero","alternatenames":["Gustavo A. Madero"],"latitude":"22.8694","longitude":"-98.75886","feature_class":"P","feature_code":"PPL","country_code":"MX","cc2":"","admin1_code":"28","admin2_code":"012","admin3_code":"","admin4_code":"","population":"1185772","elevation":"","dem":"60","timezone":"America/Monterrey","modification_date":"2015-06-22"},{"geonameid":"3483063","name":"Xicoténcatl","asciiname":"Xicotencatl","alternatenames":["Xicohtencatl","Xicohténcatl","Xicotencate","Xicotencatl","Xicoténcatl"],"latitude":"22.99623","longitude":"-98.94218","feature_class":"P","feature_code":"PPL","country_code":"MX","cc2":"","admin1_code":"28","admin2_code":"043","admin3_code":"","admin4_code":"","population":"9346","elevation":"","dem":"95","timezone":"America/Monterrey","modification_date":"2015-06-22"},{"geonameid":"3483197","name":"San Fernando","asciiname":"San Fernando","alternatenames":["San Fernando","San Fernando de Presas"],"latitude":"24.84749","longitude":"-98.14828","feature_class":"P","feature_code":"PPL","country_code":"MX","cc2":"","admin1_code":"28","admin2_code":"035","admin3_code":"","admin4_code":"","population":"29171","elevation":"","dem":"44","timezone":"America/Monterrey","modification_date":"2015-06-22"},{"geonameid":"3483328","name":"El Control","asciiname":"El Control","alternatenames":["Control Cik","El Control"],"latitude":"25.95867","longitude":"-97.81281","feature_class":"P","feature_code":"PPL","country_code":"MX","cc2":"","admin1_code":"28","admin2_code":"022","admin3_code":"","admin4_code":"","population":"3136","elevation":"","dem":"24","timezone":"America/Matamoros","modification_date":"2015-01-06"},{"geonameid":"3483393","name":"Ciudad Díaz Ordaz","asciiname":"Ciudad Diaz Ordaz","alternatenames":["Ciudad Diaz Ordaz","Ciudad Díaz Ordaz","Gustavo Diaz Ordaz","Gustavo Díaz Ordaz","San Miguel de Camargo"],"latitude":"26.23186","longitude":"-98.5956","feature_class":"P","feature_code":"PPL","country_code":"MX","cc2":"","admin1_code":"28","admin2_code":"015","admin3_code":"","admin4_code":"","population":"12698","elevation":"","dem":"45","timezone":"America/Monterrey","modification_date":"2015-06-22"},{"geonameid":"3483609","name":"Nueva Primavera","asciiname":"Nueva Primavera","alternatenames":["Nueva Primavera"],"latitude":"21.91342","longitude":"-98.85785","feature_class":"P","feature_code":"PPL","country_code":"MX","cc2":"","admin1_code":"24","admin2_code":"040","admin3_code":"","admin4_code":"","population":"1278","elevation":"","dem":"51","timezone":"America/Mexico_City","modification_date":"2014-11-05"},{"geonameid":"3483637","name":"Tamcuime","asciiname":"Tamcuime","alternatenames":[""],"latitude":"21.60137","longitude":"-99.01077","feature_class":"P","feature_code":"PPL","country_code":"MX","cc2":"","admin1_code":"24","admin2_code":"003","admin3_code":"","admin4_code":"","population":"2080","elevation":"","dem":"96","timezone":"America/Mexico_City","modification_date":"2013-08-01"},{"geonameid":"3483646","name":"Tampate","asciiname":"Tampate","alternatenames":["Tampate","Tampote"],"latitude":"21.63639","longitude":"-99.02552","feature_class":"P","feature_code":"PPL","country_code":"MX","cc2":"","admin1_code":"24","admin2_code":"003","admin3_code":"","admin4_code":"","population":"3359","elevation":"","dem":"77","timezone":"America/Mexico_City","modification_date":"2014-06-04"},{"geonameid":"3513966","name":"Zumpango","asciiname":"Zumpango","alternatenames":["NLU","Zumpango","Zumpango de Ocampo","Zumpango-de-Okampo","Зумпанго-де-Окампо"],"latitude":"19.7967","longitude":"-99.09946","feature_class":"P","feature_code":"PPL","country_code":"MX","cc2":"","admin1_code":"15","admin2_code":"120","admin3_code":"","admin4_code":"","population":"50742","elevation":"","dem":"2258","timezone":"America/Mexico_City","modification_date":"2014-02-01"},{"geonameid":"3513967","name":"Zumpango del Río","asciiname":"Zumpango del Rio","alternatenames":["Xumpango","Zumpango","Zumpango del Rio","Zumpango del Río","Zumpango-del'-Rio","Зумпанго-дель-Рио"],"latitude":"17.65319","longitude":"-99.52607","feature_class":"P","feature_code":"PPL","country_code":"MX","cc2":"","admin1_code":"12","admin2_code":"075","admin3_code":"","admin4_code":"","population":"21143","elevation":"","dem":"1047","timezone":"America/Mexico_City","modification_date":"2015-06-22"},{"geonameid":"3513969","name":"Zumpahuacán","asciiname":"Zumpahuacan","alternatenames":["Zumpahuacan","Zumpahuacán"],"latitude":"18.91642","longitude":"-99.56568","feature_class":"P","feature_code":"PPL","country_code":"MX","cc2":"","admin1_code":"15","admin2_code":"088","admin3_code":"","admin4_code":"","population":"4450","elevation":"","dem":"2376","timezone":"America/Mexico_City","modification_date":"2015-06-22"},{"geonameid":"3513976","name":"Zozocolco de Hidalgo","asciiname":"Zozocolco de Hidalgo","alternatenames":["Bozocalco","Zozocolco","Zozocolco de Hidalgo"],"latitude":"20.14048","longitude":"-97.57567","feature_class":"P","feature_code":"PPLA2","country_code":"MX","cc2":"","admin1_code":"21","admin2_code":"","admin3_code":"","admin4_code":"","population":"3370","elevation":"","dem":"298","timezone":"America/Mexico_City","modification_date":"2014-06-05"},{"geonameid":"3513986","name":"Zoquiopan","asciiname":"Zoquiopan","alternatenames":["Zoquiapan","Zoquiopan"],"latitude":"20.00898","longitude":"-97.59606","feature_class":"P","feature_code":"PPLA2","country_code":"MX","cc2":"","admin1_code":"21","admin2_code":"216","admin3_code":"","admin4_code":"","population":"0","elevation":"","dem":"1048","timezone":"America/Mexico_City","modification_date":"2015-06-22"},{"geonameid":"3514007","name":"Zongozotla","asciiname":"Zongozotla","alternatenames":["Zongozotla"],"latitude":"19.97848","longitude":"-97.72704","feature_class":"P","feature_code":"PPL","country_code":"MX","cc2":"","admin1_code":"21","admin2_code":"215","admin3_code":"","admin4_code":"","population":"4467","elevation":"","dem":"1131","timezone":"America/Mexico_City","modification_date":"2015-06-22"},{"geonameid":"3514008","name":"Zongolica","asciiname":"Zongolica","alternatenames":["Zongolica"],"latitude":"18.66673","longitude":"-96.99707","feature_class":"P","feature_code":"PPL","country_code":"MX","cc2":"","admin1_code":"30","admin2_code":"201","admin3_code":"","admin4_code":"","population":"6411","elevation":"","dem":"1219","timezone":"America/Mexico_City","modification_date":"2015-06-22"},{"geonameid":"3514013","name":"Santa María Zolotepec","asciiname":"Santa Maria Zolotepec","alternatenames":["Santa Maria Zolotepec","Santa María Zolotepec","Zolotepec"],"latitude":"19.41728","longitude":"-99.49327","feature_class":"P","feature_code":"PPL","country_code":"MX","cc2":"","admin1_code":"15","admin2_code":"115","admin3_code":"","admin4_code":"","population":"9857","elevation":"","dem":"2636","timezone":"America/Mexico_City","modification_date":"2015-06-22"},{"geonameid":"3514021","name":"Zitlala","asciiname":"Zitlala","alternatenames":["Zitlala"],"latitude":"17.69049","longitude":"-99.18642","feature_class":"P","feature_code":"PPL","country_code":"MX","cc2":"","admin1_code":"12","admin2_code":"074","admin3_code":"","admin4_code":"","population":"6065","elevation":"","dem":"1369","timezone":"America/Mexico_City","modification_date":"2014-09-05"},{"geonameid":"3514026","name":"Zinacantán","asciiname":"Zinacantan","alternatenames":["Zinacantan","Zinacantán","Zinacatan","Zinacatán"],"latitude":"16.7607","longitude":"-92.72381","feature_class":"P","feature_code":"PPL","country_code":"MX","cc2":"","admin1_code":"05","admin2_code":"111","admin3_code":"","admin4_code":"","population":"3742","elevation":"","dem":"2154","timezone":"America/Mexico_City","modification_date":"2015-06-22"},{"geonameid":"3514027","name":"Zimatlán de Álvarez","asciiname":"Zimatlan de Alvarez","alternatenames":["Zimatlan","Zimatlan de Alvarez","Zimatlán","Zimatlán de Álvarez"],"latitude":"16.86939","longitude":"-96.78435","feature_class":"P","feature_code":"PPLA2","country_code":"MX","cc2":"","admin1_code":"20","admin2_code":"570","admin3_code":"","admin4_code":"","population":"10014","elevation":"","dem":"1505","timezone":"America/Mexico_City","modification_date":"2015-06-22"},{"geonameid":"3514031","name":"Zimapan","asciiname":"Zimapan","alternatenames":["Zimapan","Zimapán"],"latitude":"20.73814","longitude":"-99.3818","feature_class":"P","feature_code":"PPL","country_code":"MX","cc2":"","admin1_code":"13","admin2_code":"084","admin3_code":"","admin4_code":"","population":"12455","elevation":"","dem":"1779","timezone":"America/Mexico_City","modification_date":"2015-06-22"},{"geonameid":"3514043","name":"Zempoala","asciiname":"Zempoala","alternatenames":["Zempoala"],"latitude":"19.91587","longitude":"-98.666","feature_class":"P","feature_code":"PPLA2","country_code":"MX","cc2":"","admin1_code":"13","admin2_code":"083","admin3_code":"","admin4_code":"","population":"5814","elevation":"","dem":"2460","timezone":"America/Mexico_City","modification_date":"2015-06-22"},{"geonameid":"3514044","name":"Zempoala","asciiname":"Zempoala","alternatenames":[""],"latitude":"19.44515","longitude":"-96.40749","feature_class":"P","feature_code":"PPL","country_code":"MX","cc2":"","admin1_code":"30","admin2_code":"191","admin3_code":"","admin4_code":"","population":"9436","elevation":"","dem":"29","timezone":"America/Mexico_City","modification_date":"2015-06-22"},{"geonameid":"3514049","name":"Zaragoza","asciiname":"Zaragoza","alternatenames":[""],"latitude":"21.27975","longitude":"-97.72055","feature_class":"P","feature_code":"PPL","country_code":"MX","cc2":"","admin1_code":"30","admin2_code":"013","admin3_code":"","admin4_code":"","population":"8260","elevation":"","dem":"199","timezone":"America/Mexico_City","modification_date":"2015-06-22"},{"geonameid":"3514051","name":"Zaragoza","asciiname":"Zaragoza","alternatenames":["Zaragosa","Zaragoza"],"latitude":"19.77097","longitude":"-97.55506","feature_class":"P","feature_code":"PPL","country_code":"MX","cc2":"","admin1_code":"21","admin2_code":"211","admin3_code":"","admin4_code":"","population":"10575","elevation":"","dem":"2311","timezone":"America/Mexico_City","modification_date":"2015-06-22"},{"geonameid":"3514052","name":"Zaragoza de Guadalupe","asciiname":"Zaragoza de Guadalupe","alternatenames":["Zaragoza","Zaragoza de Guadalupe"],"latitude":"19.1483","longitude":"-99.64405","feature_class":"P","feature_code":"PPL","country_code":"MX","cc2":"","admin1_code":"17","admin2_code":"","admin3_code":"","admin4_code":"","population":"6896","elevation":"","dem":"2861","timezone":"America/Mexico_City","modification_date":"2014-09-05"},{"geonameid":"3514060","name":"Zapotlán de Juárez","asciiname":"Zapotlan de Juarez","alternatenames":["Zapotlan","Zapotlan de Juarez","Zapotlán","Zapotlán de Juárez"],"latitude":"19.97709","longitude":"-98.8642","feature_class":"P","feature_code":"PPLA2","country_code":"MX","cc2":"","admin1_code":"13","admin2_code":"082","admin3_code":"","admin4_code":"","population":"8344","elevation":"","dem":"2380","timezone":"America/Mexico_City","modification_date":"2015-06-22"},{"geonameid":"3514064","name":"Zapotitlán Palmas","asciiname":"Zapotitlan Palmas","alternatenames":["Palmas","Zapotitlan","Zapotitlan Palmas","Zapotitlán Palmas"],"latitude":"17.88965","longitude":"-97.81849","feature_class":"P","feature_code":"PPLA2","country_code":"MX","cc2":"","admin1_code":"20","admin2_code":"568","admin3_code":"","admin4_code":"","population":"0","elevation":"","dem":"1918","timezone":"America/Mexico_City","modification_date":"2015-06-22"},{"geonameid":"3514134","name":"Zacualtipán","asciiname":"Zacualtipan","alternatenames":["Zacualtipan","Zacualtipán"],"latitude":"20.65002","longitude":"-98.65628","feature_class":"P","feature_code":"PPL","country_code":"MX","cc2":"","admin1_code":"13","admin2_code":"081","admin3_code":"","admin4_code":"","population":"17090","elevation":"","dem":"1990","timezone":"America/Mexico_City","modification_date":"2015-06-22"},{"geonameid":"3514138","name":"Zacualpan","asciiname":"Zacualpan","alternatenames":["Zacoalpan","Zacualpan"],"latitude":"18.71591","longitude":"-99.78064","feature_class":"P","feature_code":"PPL","country_code":"MX","cc2":"","admin1_code":"15","admin2_code":"117","admin3_code":"","admin4_code":"","population":"3360","elevation":"","dem":"2139","timezone":"America/Mexico_City","modification_date":"2015-06-22"},{"geonameid":"3514148","name":"Zacatlán","asciiname":"Zacatlan","alternatenames":["Sakatlan","Zacatlan","Zacatlan de las Manzanas","Zacatlán","Zacatlān","Сакатлан"],"latitude":"19.93372","longitude":"-97.96119","feature_class":"P","feature_code":"PPL","country_code":"MX","cc2":"","admin1_code":"21","admin2_code":"208","admin3_code":"","admin4_code":"","population":"31707","elevation":"","dem":"2038","timezone":"America/Mexico_City","modification_date":"2015-06-22"},{"geonameid":"3514162","name":"Zacatepec","asciiname":"Zacatepec","alternatenames":["Zacatepec"],"latitude":"19.26631","longitude":"-97.5328","feature_class":"P","feature_code":"PPL","country_code":"MX","cc2":"","admin1_code":"21","admin2_code":"108","admin3_code":"","admin4_code":"","population":"10204","elevation":"","dem":"2368","timezone":"America/Mexico_City","modification_date":"2015-06-22"},{"geonameid":"3514163","name":"Zacatepec","asciiname":"Zacatepec","alternatenames":["Zacatepec"],"latitude":"18.65388","longitude":"-99.19054","feature_class":"P","feature_code":"PPL","country_code":"MX","cc2":"","admin1_code":"17","admin2_code":"031","admin3_code":"","admin4_code":"","population":"21533","elevation":"","dem":"921","timezone":"America/Mexico_City","modification_date":"2015-06-22"},{"geonameid":"3514179","name":"Zacapoaxtla","asciiname":"Zacapoaxtla","alternatenames":["Sakapoastla","Zacapoaxtla","Сакапоастла"],"latitude":"19.87271","longitude":"-97.58899","feature_class":"P","feature_code":"PPL","country_code":"MX","cc2":"","admin1_code":"21","admin2_code":"207","admin3_code":"","admin4_code":"","population":"8771","elevation":"","dem":"1826","timezone":"America/Mexico_City","modification_date":"2015-06-22"},{"geonameid":"3514181","name":"Zacapala","asciiname":"Zacapala","alternatenames":["San Juan Evangelista Zacapala","Zacalapa","Zacapala"],"latitude":"18.59415","longitude":"-98.06583","feature_class":"P","feature_code":"PPLA2","country_code":"MX","cc2":"","admin1_code":"21","admin2_code":"206","admin3_code":"","admin4_code":"","population":"0","elevation":"","dem":"1326","timezone":"America/Mexico_City","modification_date":"2015-06-22"},{"geonameid":"3514185","name":"Zacamixtle","asciiname":"Zacamixtle","alternatenames":["Zacamixtle","Zacamuixtle"],"latitude":"21.24762","longitude":"-97.72155","feature_class":"P","feature_code":"PPL","country_code":"MX","cc2":"","admin1_code":"30","admin2_code":"153","admin3_code":"","admin4_code":"","population":"1248","elevation":"","dem":"142","timezone":"America/Mexico_City","modification_date":"2013-07-31"},{"geonameid":"3514189","name":"Villa de Zaachila","asciiname":"Villa de Zaachila","alternatenames":["Villa de Zaachila","Zaachila"],"latitude":"16.95098","longitude":"-96.74938","feature_class":"P","feature_code":"PPLA2","country_code":"MX","cc2":"","admin1_code":"20","admin2_code":"565","admin3_code":"","admin4_code":"","population":"13959","elevation":"","dem":"1518","timezone":"America/Mexico_City","modification_date":"2014-10-01"},{"geonameid":"3514200","name":"San Pedro Mártir Yucuxaco","asciiname":"San Pedro Martir Yucuxaco","alternatenames":["San Pedro Martir Yucuxaco","San Pedro Mártir Yucuxaco","Yucuxaca","Yucuxaco"],"latitude":"17.43245","longitude":"-97.611","feature_class":"P","feature_code":"PPLA2","country_code":"MX","cc2":"","admin1_code":"20","admin2_code":"317","admin3_code":"","admin4_code":"","population":"0","elevation":"","dem":"2249","timezone":"America/Mexico_City","modification_date":"2015-06-22"},{"geonameid":"3514234","name":"Santiago Yogana","asciiname":"Santiago Yogana","alternatenames":["Santiago Yogana","Yogana"],"latitude":"16.4613","longitude":"-96.78786","feature_class":"P","feature_code":"PPLA2","country_code":"MX","cc2":"","admin1_code":"20","admin2_code":"563","admin3_code":"","admin4_code":"","population":"0","elevation":"","dem":"1361","timezone":"America/Mexico_City","modification_date":"2015-06-22"},{"geonameid":"3514238","name":"Magdalena Yodocono de Porfirio Díaz","asciiname":"Magdalena Yodocono de Porfirio Diaz","alternatenames":["Magdalena Yodocono de Porfirio Diaz","Magdalena Yodocono de Porfirio Díaz","Yadocono de Porfirio Diaz","Yodocono","Yodocono de Porfirio Diaz","Yodocono de Porfirio Díaz"],"latitude":"17.3847","longitude":"-97.3553","feature_class":"P","feature_code":"PPLA2","country_code":"MX","cc2":"","admin1_code":"20","admin2_code":"562","admin3_code":"","admin4_code":"","population":"0","elevation":"","dem":"2304","timezone":"America/Mexico_City","modification_date":"2015-06-22"},{"geonameid":"3514270","name":"San Agustín Yatareni","asciiname":"San Agustin Yatareni","alternatenames":["San Agustin Yatareni","San Agustín Yatareni","Yelateni"],"latitude":"17.08198","longitude":"-96.66578","feature_class":"P","feature_code":"PPLA2","country_code":"MX","cc2":"","admin1_code":"20","admin2_code":"087","admin3_code":"","admin4_code":"","population":"0","elevation":"","dem":"1608","timezone":"America/Mexico_City","modification_date":"2015-06-22"},{"geonameid":"3514272","name":"Yehualtepec","asciiname":"Yehualtepec","alternatenames":["Yehualtepec"],"latitude":"18.79504","longitude":"-97.66248","feature_class":"P","feature_code":"PPL","country_code":"MX","cc2":"","admin1_code":"21","admin2_code":"205","admin3_code":"","admin4_code":"","population":"6329","elevation":"","dem":"2126","timezone":"America/Mexico_City","modification_date":"2015-06-22"},{"geonameid":"3514277","name":"Yecuatla","asciiname":"Yecuatla","alternatenames":["Yecuatla"],"latitude":"19.86614","longitude":"-96.77836","feature_class":"P","feature_code":"PPLA2","country_code":"MX","cc2":"","admin1_code":"30","admin2_code":"197","admin3_code":"","admin4_code":"","population":"3198","elevation":"","dem":"468","timezone":"America/Mexico_City","modification_date":"2015-06-22"},{"geonameid":"3514278","name":"Yecapixtla","asciiname":"Yecapixtla","alternatenames":["Yacapitztla","Yecapixilac","Yecapixtla"],"latitude":"18.88333","longitude":"-98.865","feature_class":"P","feature_code":"PPL","country_code":"MX","cc2":"","admin1_code":"17","admin2_code":"030","admin3_code":"","admin4_code":"","population":"16811","elevation":"","dem":"1590","timezone":"America/Mexico_City","modification_date":"2013-07-31"},{"geonameid":"3514286","name":"Yaxkukul","asciiname":"Yaxkukul","alternatenames":["Yaxkukul"],"latitude":"21.06139","longitude":"-89.41932","feature_class":"P","feature_code":"PPLA2","country_code":"MX","cc2":"","admin1_code":"31","admin2_code":"105","admin3_code":"","admin4_code":"","population":"0","elevation":"","dem":"16","timezone":"America/Merida","modification_date":"2015-06-22"},{"geonameid":"3514292","name":"Yaxe","asciiname":"Yaxe","alternatenames":["Yaxe"],"latitude":"16.72595","longitude":"-96.47191","feature_class":"P","feature_code":"PPLA2","country_code":"MX","cc2":"","admin1_code":"20","admin2_code":"561","admin3_code":"","admin4_code":"","population":"0","elevation":"","dem":"1505","timezone":"America/Mexico_City","modification_date":"2015-06-22"},{"geonameid":"3514316","name":"Yaxcabá","asciiname":"Yaxcaba","alternatenames":["San Pedro Yaxcaba","Yaxcaba","Yaxcabá"],"latitude":"20.54846","longitude":"-88.82714","feature_class":"P","feature_code":"PPLA2","country_code":"MX","cc2":"","admin1_code":"31","admin2_code":"104","admin3_code":"","admin4_code":"","population":"0","elevation":"","dem":"27","timezone":"America/Merida","modification_date":"2015-06-22"},{"geonameid":"3514321","name":"Yautepec","asciiname":"Yautepec","alternatenames":[""],"latitude":"18.88188","longitude":"-99.06715","feature_class":"P","feature_code":"PPL","country_code":"MX","cc2":"","admin1_code":"17","admin2_code":"029","admin3_code":"","admin4_code":"","population":"41386","elevation":"","dem":"1225","timezone":"America/Mexico_City","modification_date":"2015-06-22"},{"geonameid":"3514326","name":"Yaonahuac","asciiname":"Yaonahuac","alternatenames":["Yaonahuac","Yaonáhuac"],"latitude":"19.87076","longitude":"-97.46587","feature_class":"P","feature_code":"PPL","country_code":"MX","cc2":"","admin1_code":"21","admin2_code":"204","admin3_code":"","admin4_code":"","population":"4191","elevation":"","dem":"1792","timezone":"America/Mexico_City","modification_date":"2015-06-22"},{"geonameid":"3514329","name":"Yanga","asciiname":"Yanga","alternatenames":["San Lorenzo","San Lorenzo Yanga","San Lorenzo de Cerralvo","Yanga"],"latitude":"18.83321","longitude":"-96.79823","feature_class":"P","feature_code":"PPL","country_code":"MX","cc2":"","admin1_code":"30","admin2_code":"196","admin3_code":"","admin4_code":"","population":"5300","elevation":"","dem":"519","timezone":"America/Mexico_City","modification_date":"2015-06-22"},{"geonameid":"3514349","name":"Yajalón","asciiname":"Yajalon","alternatenames":["Yajalon","Yajalón"],"latitude":"17.17276","longitude":"-92.33315","feature_class":"P","feature_code":"PPL","country_code":"MX","cc2":"","admin1_code":"05","admin2_code":"109","admin3_code":"","admin4_code":"","population":"14763","elevation":"","dem":"797","timezone":"America/Mexico_City","modification_date":"2015-06-22"},{"geonameid":"3514395","name":"Xoxolpa","asciiname":"Xoxolpa","alternatenames":["Xoxolpa"],"latitude":"20.87574","longitude":"-98.42386","feature_class":"P","feature_code":"PPL","country_code":"MX","cc2":"","admin1_code":"13","admin2_code":"080","admin3_code":"","admin4_code":"","population":"1197","elevation":"","dem":"629","timezone":"America/Mexico_City","modification_date":"2014-06-05"},{"geonameid":"3514398","name":"Xoxocotla","asciiname":"Xoxocotla","alternatenames":[""],"latitude":"18.68502","longitude":"-99.24608","feature_class":"P","feature_code":"PPL","country_code":"MX","cc2":"","admin1_code":"17","admin2_code":"017","admin3_code":"","admin4_code":"","population":"19790","elevation":"","dem":"1032","timezone":"America/Mexico_City","modification_date":"2015-06-22"},{"geonameid":"3514404","name":"Xopilapa","asciiname":"Xopilapa","alternatenames":[""],"latitude":"18.50472","longitude":"-97.07944","feature_class":"P","feature_code":"PPL","country_code":"MX","cc2":"","admin1_code":"30","admin2_code":"159","admin3_code":"","admin4_code":"","population":"1833","elevation":"","dem":"2483","timezone":"America/Mexico_City","modification_date":"2013-08-01"},{"geonameid":"3514409","name":"Xonacatlán","asciiname":"Xonacatlan","alternatenames":["San Francisco","San Francisco Xonacatlan","San Francisco Xonacatlán","Xonacatlan","Xonacatlan de Vicencio","Xonacatlán","Xonacatlán de Vicencio","Xonacaxtlan","Xonacaxtlán"],"latitude":"19.40513","longitude":"-99.52807","feature_class":"P","feature_code":"PPLA2","country_code":"MX","cc2":"","admin1_code":"17","admin2_code":"","admin3_code":"","admin4_code":"","population":"19687","elevation":"","dem":"2585","timezone":"America/Mexico_City","modification_date":"2014-09-05"},{"geonameid":"3514414","name":"Xometla","asciiname":"Xometla","alternatenames":["Xametla","Xometla"],"latitude":"19.64245","longitude":"-98.88257","feature_class":"P","feature_code":"PPL","country_code":"MX","cc2":"","admin1_code":"17","admin2_code":"","admin3_code":"","admin4_code":"","population":"4454","elevation":"","dem":"2267","timezone":"America/Mexico_City","modification_date":"2014-04-30"},{"geonameid":"3514424","name":"Xocotla","asciiname":"Xocotla","alternatenames":["Xocotla"],"latitude":"19.01511","longitude":"-97.10092","feature_class":"P","feature_code":"PPL","country_code":"MX","cc2":"","admin1_code":"30","admin2_code":"047","admin3_code":"","admin4_code":"","population":"4736","elevation":"","dem":"2013","timezone":"America/Mexico_City","modification_date":"2015-06-22"},{"geonameid":"3514433","name":"Xochitlan Todos Santos","asciiname":"Xochitlan Todos Santos","alternatenames":["Xochitlan","Xochitlan Todos Santos","Xochitlán"],"latitude":"18.70395","longitude":"-97.77609","feature_class":"P","feature_code":"PPL","country_code":"MX","cc2":"","admin1_code":"21","admin2_code":"203","admin3_code":"","admin4_code":"","population":"4659","elevation":"","dem":"1908","timezone":"America/Mexico_City","modification_date":"2015-06-22"},{"geonameid":"3514437","name":"Xochitepec","asciiname":"Xochitepec","alternatenames":["Xochiltepec","Xochitepec"],"latitude":"18.78121","longitude":"-99.23055","feature_class":"P","feature_code":"PPL","country_code":"MX","cc2":"","admin1_code":"17","admin2_code":"028","admin3_code":"","admin4_code":"","population":"16768","elevation":"","dem":"1123","timezone":"America/Mexico_City","modification_date":"2015-06-22"},{"geonameid":"3514440","name":"Xochistlahuaca","asciiname":"Xochistlahuaca","alternatenames":["Xochistlahuaca"],"latitude":"16.78915","longitude":"-98.24172","feature_class":"P","feature_code":"PPL","country_code":"MX","cc2":"","admin1_code":"12","admin2_code":"071","admin3_code":"","admin4_code":"","population":"3566","elevation":"","dem":"375","timezone":"America/Mexico_City","modification_date":"2015-06-22"},{"geonameid":"3514450","name":"Xochimilco","asciiname":"Xochimilco","alternatenames":["Xochimilco"],"latitude":"19.25785","longitude":"-99.10513","feature_class":"P","feature_code":"PPL","country_code":"MX","cc2":"","admin1_code":"09","admin2_code":"013","admin3_code":"","admin4_code":"","population":"404458","elevation":"","dem":"2245","timezone":"America/Mexico_City","modification_date":"2015-06-22"},{"geonameid":"3514454","name":"Xochihuehuetlán","asciiname":"Xochihuehuetlan","alternatenames":["Xochihuehuetlan","Xochihuehuetlán"],"latitude":"17.90619","longitude":"-98.48818","feature_class":"P","feature_code":"PPL","country_code":"MX","cc2":"","admin1_code":"12","admin2_code":"070","admin3_code":"","admin4_code":"","population":"5158","elevation":"","dem":"1041","timezone":"America/Mexico_City","modification_date":"2015-06-22"},{"geonameid":"3514502","name":"Xilitla","asciiname":"Xilitla","alternatenames":["Xililla","Xilitla"],"latitude":"21.38681","longitude":"-98.99009","feature_class":"P","feature_code":"PPL","country_code":"MX","cc2":"","admin1_code":"24","admin2_code":"054","admin3_code":"","admin4_code":"","population":"5906","elevation":"","dem":"654","timezone":"America/Mexico_City","modification_date":"2015-06-22"},{"geonameid":"3514510","name":"Xicotepec de Juárez","asciiname":"Xicotepec de Juarez","alternatenames":["Juarez Xicotepec","Juárez Xicotepec","Villa Juarez","Villa Juárez","Xicotepec de Juarez","Xicotepec de Juárez"],"latitude":"20.27605","longitude":"-97.96111","feature_class":"P","feature_code":"PPL","country_code":"MX","cc2":"","admin1_code":"21","admin2_code":"197","admin3_code":"","admin4_code":"","population":"37424","elevation":"","dem":"1167","timezone":"America/Mexico_City","modification_date":"2015-06-22"},{"geonameid":"3514518","name":"Xico","asciiname":"Xico","alternatenames":["Jico","Xico"],"latitude":"19.42178","longitude":"-97.00819","feature_class":"P","feature_code":"PPLA2","country_code":"MX","cc2":"","admin1_code":"30","admin2_code":"092","admin3_code":"","admin4_code":"","population":"15292","elevation":"","dem":"1318","timezone":"America/Mexico_City","modification_date":"2015-06-22"},{"geonameid":"3514519","name":"San Miguel Xico Viejo","asciiname":"San Miguel Xico Viejo","alternatenames":["San Miguel Xico","San Miguel Xico Viejo","Xico"],"latitude":"19.27022","longitude":"-98.93588","feature_class":"P","feature_code":"PPL","country_code":"MX","cc2":"","admin1_code":"15","admin2_code":"122","admin3_code":"","admin4_code":"","population":"365777","elevation":"","dem":"2286","timezone":"America/Mexico_City","modification_date":"2015-06-22"},{"geonameid":"3514566","name":"Xayacatlán de Bravo","asciiname":"Xayacatlan de Bravo","alternatenames":["Xayacatlan","Xayacatlan de Bravo","Xayacatlán","Xayacatlán de Bravo","Zayacatlan de Bravo","Zayacatlán de Bravo"],"latitude":"18.23712","longitude":"-97.97524","feature_class":"P","feature_code":"PPLA2","country_code":"MX","cc2":"","admin1_code":"21","admin2_code":"196","admin3_code":"","admin4_code":"","population":"1156","elevation":"","dem":"1251","timezone":"America/Mexico_City","modification_date":"2014-09-05"},{"geonameid":"3514576","name":"Santa María Xadani","asciiname":"Santa Maria Xadani","alternatenames":["Santa Maria Xadani","Santa Maria Xandani","Santa María Xadani","Santa María Xandani","Xadani","Xandani"],"latitude":"16.36198","longitude":"-95.01826","feature_class":"P","feature_code":"PPLA2","country_code":"MX","cc2":"","admin1_code":"20","admin2_code":"441","admin3_code":"","admin4_code":"","population":"0","elevation":"","dem":"10","timezone":"America/Mexico_City","modification_date":"2015-06-22"},{"geonameid":"3514583","name":"Xaltianguis","asciiname":"Xaltianguis","alternatenames":["Jaltianguis","Xaltianguis"],"latitude":"17.09869","longitude":"-99.71532","feature_class":"P","feature_code":"PPL","country_code":"MX","cc2":"","admin1_code":"12","admin2_code":"001","admin3_code":"","admin4_code":"","population":"6933","elevation":"","dem":"543","timezone":"America/Mexico_City","modification_date":"2015-06-22"},{"geonameid":"3514584","name":"Xaltepuxtla","asciiname":"Xaltepuxtla","alternatenames":["Xaltepaxtla","Xaltepuxtla"],"latitude":"20.17546","longitude":"-97.97208","feature_class":"P","feature_code":"PPL","country_code":"MX","cc2":"","admin1_code":"21","admin2_code":"183","admin3_code":"","admin4_code":"","population":"3761","elevation":"","dem":"1331","timezone":"America/Mexico_City","modification_date":"2014-06-05"},{"geonameid":"3514589","name":"Xaltepec","asciiname":"Xaltepec","alternatenames":["Xaltepec","Xultepec"],"latitude":"18.87584","longitude":"-97.61203","feature_class":"P","feature_code":"PPL","country_code":"MX","cc2":"","admin1_code":"21","admin2_code":"110","admin3_code":"","admin4_code":"","population":"7353","elevation":"","dem":"2172","timezone":"America/Mexico_City","modification_date":"2015-06-22"},{"geonameid":"3514592","name":"Xalpatlahuac","asciiname":"Xalpatlahuac","alternatenames":["Xalpatlahuac"],"latitude":"17.47066","longitude":"-98.60675","feature_class":"P","feature_code":"PPL","country_code":"MX","cc2":"","admin1_code":"12","admin2_code":"069","admin3_code":"","admin4_code":"","population":"4054","elevation":"","dem":"1547","timezone":"America/Mexico_City","modification_date":"2015-06-22"},{"geonameid":"3514595","name":"Xaloztoc","asciiname":"Xaloztoc","alternatenames":["San Cosme","San Cosme Xalostoc","Xalostoc","Xaloxtoc","Xaloztoc"],"latitude":"19.40775","longitude":"-98.04602","feature_class":"P","feature_code":"PPLA2","country_code":"MX","cc2":"","admin1_code":"29","admin2_code":"039","admin3_code":"","admin4_code":"","population":"0","elevation":"","dem":"2517","timezone":"America/Mexico_City","modification_date":"2015-06-22"},{"geonameid":"3514597","name":"Santa Ana Xalmimilulco","asciiname":"Santa Ana Xalmimilulco","alternatenames":["Santa Ana Xalmimilulco","Xalmimilulco","Xalminilulco"],"latitude":"19.21214","longitude":"-98.37946","feature_class":"P","feature_code":"PPL","country_code":"MX","cc2":"","admin1_code":"21","admin2_code":"074","admin3_code":"","admin4_code":"","population":"14144","elevation":"","dem":"2224","timezone":"America/Mexico_City","modification_date":"2015-06-22"},{"geonameid":"3514633","name":"Vista Hermosa","asciiname":"Vista Hermosa","alternatenames":["Colonia Vista Hermosa","Vista Hermosa"],"latitude":"19.51667","longitude":"-99.21667","feature_class":"P","feature_code":"PPL","country_code":"MX","cc2":"","admin1_code":"15","admin2_code":"104","admin3_code":"","admin4_code":"","population":"6344","elevation":"","dem":"2289","timezone":"America/Mexico_City","modification_date":"2015-06-22"},{"geonameid":"3514643","name":"San Antonio Virreyes","asciiname":"San Antonio Virreyes","alternatenames":["San Antonio Virreyes","Virreyes"],"latitude":"19.40989","longitude":"-97.63697","feature_class":"P","feature_code":"PPL","country_code":"MX","cc2":"","admin1_code":"21","admin2_code":"108","admin3_code":"","admin4_code":"","population":"1600","elevation":"","dem":"2365","timezone":"America/Mexico_City","modification_date":"2014-06-05"},{"geonameid":"3514658","name":"Villa Victoria","asciiname":"Villa Victoria","alternatenames":["Villa Victoria"],"latitude":"19.43693","longitude":"-99.99589","feature_class":"P","feature_code":"PPLA2","country_code":"MX","cc2":"","admin1_code":"15","admin2_code":"114","admin3_code":"","admin4_code":"","population":"3661","elevation":"","dem":"2600","timezone":"America/Mexico_City","modification_date":"2015-06-22"},{"geonameid":"3514660","name":"Camarón de Tejeda","asciiname":"Camaron de Tejeda","alternatenames":["Camaron","Camaron de Tejeda","Camarón","Camarón de Tejeda","Villa Teieda","Villa Tejeda"],"latitude":"19.02166","longitude":"-96.61513","feature_class":"P","feature_code":"PPLA2","country_code":"MX","cc2":"","admin1_code":"30","admin2_code":"007","admin3_code":"","admin4_code":"","population":"0","elevation":"","dem":"352","timezone":"America/Mexico_City","modification_date":"2015-06-22"},{"geonameid":"3514663","name":"Álvaro Obregón","asciiname":"Alvaro Obregon","alternatenames":["Alvaro Obregon","Obergen Villa","Obrogen Villa","San Angel","Villa Obregon","Villa Obregón","Álvaro Obregón"],"latitude":"19.35867","longitude":"-99.20329","feature_class":"P","feature_code":"PPLX","country_code":"MX","cc2":"","admin1_code":"09","admin2_code":"010","admin3_code":"","admin4_code":"","population":"727034","elevation":"","dem":"2338","timezone":"America/Mexico_City","modification_date":"2015-06-22"},{"geonameid":"3514670","name":"Villahermosa","asciiname":"Villahermosa","alternatenames":["Cualnezcaltepec","Cualnezcāltepēc","VSA","Vil'jaehrmosa","Vilaermosa","Viljaermosa","Viljahermosa","Villa Hermosa","Villahermosa","bi ya ai er mo sa","biya-eleumosa","biyaerumosa","fylahyrmwsa","viliaermosa","wylahrmsa  tabaskw","Вильяэрмоса","Виляермоса","Виљаермоса","فيلاهيرموسا","ویلاهرمسا، تاباسکو","ვილიაერმოსა","ビヤエルモサ","比亚埃尔莫萨","비야에르모사"],"latitude":"17.98689","longitude":"-92.93028","feature_class":"P","feature_code":"PPLA","country_code":"MX","cc2":"","admin1_code":"27","admin2_code":"004","admin3_code":"","admin4_code":"","population":"362401","elevation":"","dem":"23","timezone":"America/Mexico_City","modification_date":"2015-06-22"},{"geonameid":"3514674","name":"Gustavo A. Madero","asciiname":"Gustavo A. Madero","alternatenames":["Guadalupe","Guadalupe Hidalgo","Gustavo A. Madero","Villa Gustavo A. Madero","Villa Madero","Villa de Guadalupe","Villa de Guadalupe Hidalgo"],"latitude":"19.49016","longitude":"-99.10978","feature_class":"P","feature_code":"PPLX","country_code":"MX","cc2":"","admin1_code":"09","admin2_code":"005","admin3_code":"","admin4_code":"","population":"1193161","elevation":"","dem":"2248","timezone":"America/Mexico_City","modification_date":"2015-06-22"},{"geonameid":"3514675","name":"Villa Guerrero","asciiname":"Villa Guerrero","alternatenames":["Tecualaya","Villa Guerrero"],"latitude":"18.96252","longitude":"-99.64119","feature_class":"P","feature_code":"PPL","country_code":"MX","cc2":"","admin1_code":"15","admin2_code":"113","admin3_code":"","admin4_code":"","population":"9267","elevation":"","dem":"2170","timezone":"America/Mexico_City","modification_date":"2015-06-22"},{"geonameid":"3514678","name":"El Triunfo","asciiname":"El Triunfo","alternatenames":["El Triunfo","Villa el Triunfo"],"latitude":"17.92323","longitude":"-91.17049","feature_class":"P","feature_code":"PPL","country_code":"MX","cc2":"","admin1_code":"27","admin2_code":"001","admin3_code":"","admin4_code":"","population":"5965","elevation":"","dem":"51","timezone":"America/Mexico_City","modification_date":"2015-06-22"},{"geonameid":"3514682","name":"Villa Cuauhtemoc","asciiname":"Villa Cuauhtemoc","alternatenames":["Cuauhtemoc","Cuauhtémoc","Pueblo Viejo","Villa Cuauhtemoc","Villa Cuauhtémoc"],"latitude":"22.18439","longitude":"-97.83472","feature_class":"P","feature_code":"PPL","country_code":"MX","cc2":"","admin1_code":"30","admin2_code":"133","admin3_code":"","admin4_code":"","population":"9426","elevation":"","dem":"9","timezone":"America/Mexico_City","modification_date":"2015-06-22"},{"geonameid":"3514683","name":"Villa Cuauhtémoc Otzolotepec","asciiname":"Villa Cuauhtemoc Otzolotepec","alternatenames":["Cuauhtemoc","Cuauhtémoc","Villa Cuauhtemoc","Villa Cuauhtemoc Otzolotepec","Villa Cuauhtémoc","Villa Cuauhtémoc Otzolotepec","Villa Cuautemoc"],"latitude":"19.41676","longitude":"-99.55872","feature_class":"P","feature_code":"PPLA2","country_code":"MX","cc2":"","admin1_code":"15","admin2_code":"067","admin3_code":"","admin4_code":"","population":"18303","elevation":"","dem":"2586","timezone":"America/Mexico_City","modification_date":"2015-06-22"},{"geonameid":"3514684","name":"Villa Corzo","asciiname":"Villa Corzo","alternatenames":["Angel Albino Corzo","Villa Corzo"],"latitude":"16.1851","longitude":"-93.26881","feature_class":"P","feature_code":"PPL","country_code":"MX","cc2":"","admin1_code":"05","admin2_code":"107","admin3_code":"","admin4_code":"","population":"9123","elevation":"","dem":"592","timezone":"America/Mexico_City","modification_date":"2015-06-22"},{"geonameid":"3514685","name":"Villa Comaltitlán","asciiname":"Villa Comaltitlan","alternatenames":["Pubelo Nuevo","Pueblo Nuevo","Pueblo Nuevo Comaltitlan","Pueblo Nuevo Comaltitlán","Villa Comaltitlan","Villa Comaltitlán"],"latitude":"15.21451","longitude":"-92.57725","feature_class":"P","feature_code":"PPL","country_code":"MX","cc2":"","admin1_code":"05","admin2_code":"071","admin3_code":"","admin4_code":"","population":"7944","elevation":"","dem":"34","timezone":"America/Mexico_City","modification_date":"2015-06-22"},{"geonameid":"3514686","name":"Tesechoacan","asciiname":"Tesechoacan","alternatenames":["Tesechoacan","Villa Azueta"],"latitude":"18.13749","longitude":"-95.65835","feature_class":"P","feature_code":"PPL","country_code":"MX","cc2":"","admin1_code":"30","admin2_code":"169","admin3_code":"","admin4_code":"","population":"6783","elevation":"","dem":"18","timezone":"America/Mexico_City","modification_date":"2014-07-21"},{"geonameid":"3514688","name":"Villa Aldama","asciiname":"Villa Aldama","alternatenames":["Villa Aldama"],"latitude":"19.64861","longitude":"-97.22333","feature_class":"P","feature_code":"PPL","country_code":"MX","cc2":"","admin1_code":"30","admin2_code":"194","admin3_code":"","admin4_code":"","population":"3291","elevation":"","dem":"2409","timezone":"America/Mexico_City","modification_date":"2013-08-01"},{"geonameid":"3514783","name":"Veracruz","asciiname":"Veracruz","alternatenames":["Chalchiuhcuehcan","Chalchiuhcuehcān","Heroica Veracruz","VER","Veracruz","Veracruz Llave","Veracruz i Veracruz","Verakrus","Verakrusas","Verakruz","belakeuluseu","berakrutha","berakurusu","verakurucu","wei la ke lu si","wer a kru s","wrakrws","Веракруз","Веракрус","وراکروس","बेराक्रुथ","வேராகுரூசு","เวรากรุซ","ვერაკრუსი","ベラクルス","韦拉克鲁斯","베라크루스"],"latitude":"19.18095","longitude":"-96.1429","feature_class":"P","feature_code":"PPL","country_code":"MX","cc2":"","admin1_code":"30","admin2_code":"193","admin3_code":"","admin4_code":"","population":"568313","elevation":"","dem":"15","timezone":"America/Mexico_City","modification_date":"2015-06-22"},{"geonameid":"3514785","name":"Venustiano Carranza","asciiname":"Venustiano Carranza","alternatenames":["San Bartolo","San Bartolome","San Bartolomé","Venustiano Carranza"],"latitude":"16.33945","longitude":"-92.56293","feature_class":"P","feature_code":"PPL","country_code":"MX","cc2":"","admin1_code":"05","admin2_code":"106","admin3_code":"","admin4_code":"","population":"15074","elevation":"","dem":"782","timezone":"America/Mexico_City","modification_date":"2015-06-22"},{"geonameid":"3514833","name":"Veinte de Noviembre","asciiname":"Veinte de Noviembre","alternatenames":[""],"latitude":"14.97759","longitude":"-92.26538","feature_class":"P","feature_code":"PPL","country_code":"MX","cc2":"","admin1_code":"05","admin2_code":"089","admin3_code":"","admin4_code":"","population":"4309","elevation":"","dem":"397","timezone":"America/Mexico_City","modification_date":"2015-06-22"},{"geonameid":"3514843","name":"Vega de Alatorre","asciiname":"Vega de Alatorre","alternatenames":["Vega de Alatorre"],"latitude":"20.02823","longitude":"-96.64751","feature_class":"P","feature_code":"PPL","country_code":"MX","cc2":"","admin1_code":"30","admin2_code":"192","admin3_code":"","admin4_code":"","population":"6710","elevation":"","dem":"27","timezone":"America/Mexico_City","modification_date":"2015-06-22"},{"geonameid":"3514868","name":"Valle Hermoso","asciiname":"Valle Hermoso","alternatenames":["Valle Hermoso"],"latitude":"25.67207","longitude":"-97.81313","feature_class":"P","feature_code":"PPL","country_code":"MX","cc2":"","admin1_code":"28","admin2_code":"040","admin3_code":"","admin4_code":"","population":"47831","elevation":"","dem":"20","timezone":"America/Monterrey","modification_date":"2015-06-22"},{"geonameid":"3514876","name":"Valladolid","asciiname":"Valladolid","alternatenames":["Val'jadolid","Valadoli","Valadolid","Vaładołì","ba li ya duo li de","Вальядолид","Вальядолід","Ваљадолид","巴利亚多利德"],"latitude":"20.68812","longitude":"-88.19936","feature_class":"P","feature_code":"PPL","country_code":"MX","cc2":"","admin1_code":"31","admin2_code":"102","admin3_code":"","admin4_code":"","population":"39663","elevation":"","dem":"24","timezone":"America/Merida","modification_date":"2015-06-22"},{"geonameid":"3514906","name":"Ursulo Galván","asciiname":"Ursulo Galvan","alternatenames":["San Carlos","Ursulo Galvan","Ursulo Galván"],"latitude":"19.40446","longitude":"-96.35959","feature_class":"P","feature_code":"PPL","country_code":"MX","cc2":"","admin1_code":"30","admin2_code":"191","admin3_code":"","admin4_code":"","population":"5200","elevation":"","dem":"14","timezone":"America/Mexico_City","modification_date":"2015-06-22"},{"geonameid":"3514916","name":"Unión Hidalgo","asciiname":"Union Hidalgo","alternatenames":[""],"latitude":"16.4723","longitude":"-94.82952","feature_class":"P","feature_code":"PPL","country_code":"MX","cc2":"","admin1_code":"20","admin2_code":"557","admin3_code":"","admin4_code":"","population":"12736","elevation":"","dem":"15","timezone":"America/Mexico_City","modification_date":"2015-06-22"},{"geonameid":"3514929","name":"Uman","asciiname":"Uman","alternatenames":["San Antonio Tedzidz","Uman","Uman'","Умань"],"latitude":"20.88213","longitude":"-89.74649","feature_class":"P","feature_code":"PPL","country_code":"MX","cc2":"","admin1_code":"31","admin2_code":"101","admin3_code":"","admin4_code":"","population":"28472","elevation":"","dem":"10","timezone":"America/Merida","modification_date":"2015-06-22"},{"geonameid":"3514948","name":"Ucú","asciiname":"Ucu","alternatenames":["Ucu","Ucú"],"latitude":"21.03135","longitude":"-89.74466","feature_class":"P","feature_code":"PPLA2","country_code":"MX","cc2":"","admin1_code":"31","admin2_code":"100","admin3_code":"","admin4_code":"","population":"0","elevation":"","dem":"9","timezone":"America/Merida","modification_date":"2015-06-22"},{"geonameid":"3514952","name":"Uayma","asciiname":"Uayma","alternatenames":["Uayma","Uaymá"],"latitude":"20.71781","longitude":"-88.31693","feature_class":"P","feature_code":"PPL","country_code":"MX","cc2":"","admin1_code":"31","admin2_code":"099","admin3_code":"","admin4_code":"","population":"3126","elevation":"","dem":"26","timezone":"America/Merida","modification_date":"2014-06-05"},{"geonameid":"3514961","name":"Tzucacab","asciiname":"Tzucacab","alternatenames":["Tzucacab","Tzucaceb"],"latitude":"20.07237","longitude":"-89.05022","feature_class":"P","feature_code":"PPL","country_code":"MX","cc2":"","admin1_code":"31","admin2_code":"098","admin3_code":"","admin4_code":"","population":"9819","elevation":"","dem":"37","timezone":"America/Merida","modification_date":"2015-06-22"},{"geonameid":"3514963","name":"San Salvador Tzompantepec","asciiname":"San Salvador Tzompantepec","alternatenames":["San Salvador Tzompantepec","San Salvador Tzompatepec","Tezonpantepec","Tzompantepec"],"latitude":"19.3722","longitude":"-98.08701","feature_class":"P","feature_code":"PPLA2","country_code":"MX","cc2":"","admin1_code":"29","admin2_code":"038","admin3_code":"","admin4_code":"","population":"0","elevation":"","dem":"2512","timezone":"America/Mexico_City","modification_date":"2015-06-22"},{"geonameid":"3514970","name":"Tzinacapan","asciiname":"Tzinacapan","alternatenames":["Tzinacapan"],"latitude":"20.02944","longitude":"-97.54047","feature_class":"P","feature_code":"PPL","country_code":"MX","cc2":"","admin1_code":"21","admin2_code":"043","admin3_code":"","admin4_code":"","population":"2939","elevation":"","dem":"871","timezone":"America/Mexico_City","modification_date":"2014-06-05"},{"geonameid":"3514972","name":"Tzimol","asciiname":"Tzimol","alternatenames":[""],"latitude":"16.26667","longitude":"-92.26667","feature_class":"P","feature_code":"PPL","country_code":"MX","cc2":"","admin1_code":"05","admin2_code":"019","admin3_code":"","admin4_code":"","population":"4178","elevation":"","dem":"1628","timezone":"America/Mexico_City","modification_date":"2015-06-22"},{"geonameid":"3514997","name":"Tuzamapan de Galeana","asciiname":"Tuzamapan de Galeana","alternatenames":["Tuzamapan","Tuzamapan de Galeana"],"latitude":"20.06572","longitude":"-97.5752","feature_class":"P","feature_code":"PPLA2","country_code":"MX","cc2":"","admin1_code":"21","admin2_code":"192","admin3_code":"","admin4_code":"","population":"0","elevation":"","dem":"540","timezone":"America/Mexico_City","modification_date":"2015-06-22"},{"geonameid":"3514998","name":"Tuzamapan","asciiname":"Tuzamapan","alternatenames":["Tuzamapan","Tuzanapan"],"latitude":"19.40253","longitude":"-96.8636","feature_class":"P","feature_code":"PPL","country_code":"MX","cc2":"","admin1_code":"30","admin2_code":"038","admin3_code":"","admin4_code":"","population":"7522","elevation":"","dem":"874","timezone":"America/Mexico_City","modification_date":"2013-07-31"},{"geonameid":"3515001","name":"Tuxtla Gutiérrez","asciiname":"Tuxtla Gutierrez","alternatenames":["Gutierrez","TGZ","Tochtlan Gutierrez","Touxtla Nkoutierres","Tukstla Gutijerez","Tustla Gutieres","Tustla Gutjeresas","Tustla-Gut'erres","Tuxtla","Tuxtla Gtz","Tuxtla Gtz.","Tuxtla Gutierres","Tuxtla Gutierrez","Tuxtla Gutiérrez","Tōchtlān Gutiérrez","tu si te la-gu tie lei si","tugseuteullagutieleseu","tus tla ku ti xerres","twksla gwtyrs. chyapas","twstla ghwtyyrz","twstla gywtyrs","Τούξτλα Γκουτιέρρες","Тукстла Гутијерез","Тустла Гутиерес","Тустла-Гутьеррес","توستلا غوتييرز","توستلا گیوتیرس","توکسلا گوتیرس٬ چیاپاس","ตุซตลากูตีเอร์เรซ","ტუსტლა-გუტიერესი","トゥストラ・グティエレス","图斯特拉－古铁雷斯","툭스틀라구티에레스"],"latitude":"16.75973","longitude":"-93.11308","feature_class":"P","feature_code":"PPLA","country_code":"MX","cc2":"","admin1_code":"05","admin2_code":"101","admin3_code":"","admin4_code":"","population":"481128","elevation":"","dem":"526","timezone":"America/Mexico_City","modification_date":"2015-06-22"},{"geonameid":"3515002","name":"Tuxtla Chico","asciiname":"Tuxtla Chico","alternatenames":["Tuxtla Chico"],"latitude":"14.93804","longitude":"-92.16795","feature_class":"P","feature_code":"PPLA2","country_code":"MX","cc2":"","admin1_code":"05","admin2_code":"102","admin3_code":"","admin4_code":"","population":"7287","elevation":"","dem":"318","timezone":"America/Mexico_City","modification_date":"2015-06-22"},{"geonameid":"3515004","name":"Tuxtla","asciiname":"Tuxtla","alternatenames":["Tuxtla"],"latitude":"20.00037","longitude":"-97.65526","feature_class":"P","feature_code":"PPL","country_code":"MX","cc2":"","admin1_code":"21","admin2_code":"210","admin3_code":"","admin4_code":"","population":"2466","elevation":"","dem":"908","timezone":"America/Mexico_City","modification_date":"2014-06-05"},{"geonameid":"3515011","name":"Tuxpan de Rodríguez Cano","asciiname":"Tuxpan de Rodriguez Cano","alternatenames":["Tuxpam","Tuxpan","Tuxpan de Rodriguez Cano","Tuxpan de Rodríguez Cano","Túxpam"],"latitude":"20.95773","longitude":"-97.40798","feature_class":"P","feature_code":"PPL","country_code":"MX","cc2":"","admin1_code":"30","admin2_code":"189","admin3_code":"","admin4_code":"","population":"134394","elevation":"","dem":"11","timezone":"America/Mexico_City","modification_date":"2015-06-22"},{"geonameid":"3515026","name":"Tunkas","asciiname":"Tunkas","alternatenames":["Tunkas","Tunkás"],"latitude":"20.90294","longitude":"-88.75171","feature_class":"P","feature_code":"PPL","country_code":"MX","cc2":"","admin1_code":"31","admin2_code":"097","admin3_code":"","admin4_code":"","population":"3070","elevation":"","dem":"18","timezone":"America/Merida","modification_date":"2015-06-22"},{"geonameid":"3515040","name":"Tulum","asciiname":"Tulum","alternatenames":["TUY","Tulum","Tulun","Tulún"],"latitude":"20.21173","longitude":"-87.46325","feature_class":"P","feature_code":"PPL","country_code":"MX","cc2":"","admin1_code":"23","admin2_code":"009","admin3_code":"","admin4_code":"","population":"8390","elevation":"","dem":"5","timezone":"America/Cancun","modification_date":"2015-06-22"},{"geonameid":"3515042","name":"Tultitlán","asciiname":"Tultitlan","alternatenames":["Tul'titlan","Tultitla de Mariano Escobedo","Tultitlan","Tultitlá de Mariano Escobedo","Tultitlán","Тультитлан"],"latitude":"19.64756","longitude":"-99.16796","feature_class":"P","feature_code":"PPL","country_code":"MX","cc2":"","admin1_code":"15","admin2_code":"109","admin3_code":"","admin4_code":"","population":"24387","elevation":"","dem":"2256","timezone":"America/Mexico_City","modification_date":"2015-06-22"},{"geonameid":"3515044","name":"Tultepec","asciiname":"Tultepec","alternatenames":["San Pedro de Tultepec","Tultepec"],"latitude":"19.685","longitude":"-99.12806","feature_class":"P","feature_code":"PPL","country_code":"MX","cc2":"","admin1_code":"15","admin2_code":"108","admin3_code":"","admin4_code":"","population":"65338","elevation":"","dem":"2257","timezone":"America/Mexico_City","modification_date":"2013-07-31"},{"geonameid":"3515056","name":"Tulcingo de Valle","asciiname":"Tulcingo de Valle","alternatenames":["Tulcingo","Tulcingo de Valle","Tulcingo del Valle"],"latitude":"18.0437","longitude":"-98.44074","feature_class":"P","feature_code":"PPLA2","country_code":"MX","cc2":"","admin1_code":"21","admin2_code":"191","admin3_code":"","admin4_code":"","population":"5249","elevation":"","dem":"1102","timezone":"America/Mexico_City","modification_date":"2014-09-05"},{"geonameid":"3515062","name":"Tulancingo","asciiname":"Tulancingo","alternatenames":["Tulancingo","Tulancingo de Bravo"],"latitude":"20.08363","longitude":"-98.36332","feature_class":"P","feature_code":"PPL","country_code":"MX","cc2":"","admin1_code":"13","admin2_code":"077","admin3_code":"","admin4_code":"","population":"102383","elevation":"","dem":"2180","timezone":"America/Mexico_City","modification_date":"2015-06-22"},{"geonameid":"3515064","name":"Tula de Allende","asciiname":"Tula de Allende","alternatenames":["El Tule","Tula","Tula de Allende","Tula-de-Al'ende","Тула-де-Альенде"],"latitude":"20.05161","longitude":"-99.34397","feature_class":"P","feature_code":"PPL","country_code":"MX","cc2":"","admin1_code":"13","admin2_code":"076","admin3_code":"","admin4_code":"","population":"27677","elevation":"","dem":"2066","timezone":"America/Mexico_City","modification_date":"2015-06-22"},{"geonameid":"3515068","name":"Tula","asciiname":"Tula","alternatenames":[""],"latitude":"22.99645","longitude":"-99.71171","feature_class":"P","feature_code":"PPL","country_code":"MX","cc2":"","admin1_code":"28","admin2_code":"039","admin3_code":"","admin4_code":"","population":"9054","elevation":"","dem":"1177","timezone":"America/Monterrey","modification_date":"2015-06-22"},{"geonameid":"3515086","name":"Trinidad Zaachila","asciiname":"Trinidad Zaachila","alternatenames":["Trinidad","Trinidad Zaachila","Trinidad de Zaachila","Zaachila","Zoochila"],"latitude":"16.92135","longitude":"-96.76384","feature_class":"P","feature_code":"PPLA2","country_code":"MX","cc2":"","admin1_code":"20","admin2_code":"555","admin3_code":"","admin4_code":"","population":"12240","elevation":"","dem":"1510","timezone":"America/Mexico_City","modification_date":"2015-06-22"},{"geonameid":"3515120","name":"Tres Picos","asciiname":"Tres Picos","alternatenames":["La Tigrera","Tres Picos"],"latitude":"15.88209","longitude":"-93.52867","feature_class":"P","feature_code":"PPL","country_code":"MX","cc2":"","admin1_code":"05","admin2_code":"097","admin3_code":"","admin4_code":"","population":"4881","elevation":"","dem":"28","timezone":"America/Mexico_City","modification_date":"2014-07-30"},{"geonameid":"3515165","name":"Trapiche del Rosario","asciiname":"Trapiche del Rosario","alternatenames":[""],"latitude":"19.54306","longitude":"-96.74111","feature_class":"P","feature_code":"PPL","country_code":"MX","cc2":"","admin1_code":"30","admin2_code":"004","admin3_code":"","admin4_code":"","population":"1379","elevation":"","dem":"481","timezone":"America/Mexico_City","modification_date":"2013-07-31"},{"geonameid":"3515184","name":"Totutla","asciiname":"Totutla","alternatenames":["Tolutla","Totutla"],"latitude":"19.21169","longitude":"-96.96118","feature_class":"P","feature_code":"PPLA2","country_code":"MX","cc2":"","admin1_code":"30","admin2_code":"188","admin3_code":"","admin4_code":"","population":"3464","elevation":"","dem":"1449","timezone":"America/Mexico_City","modification_date":"2015-06-22"},{"geonameid":"3515188","name":"Totontepec Villa de Morelos","asciiname":"Totontepec Villa de Morelos","alternatenames":["Santa Maria Totontepec Villa de Zertuche","Santa María Totontepec Villa de Zertuche","Totontepec","Totontepec Villa de Morelos"],"latitude":"17.25679","longitude":"-96.02786","feature_class":"P","feature_code":"PPLA2","country_code":"MX","cc2":"","admin1_code":"20","admin2_code":"554","admin3_code":"","admin4_code":"","population":"0","elevation":"","dem":"1843","timezone":"America/Mexico_City","modification_date":"2015-06-22"},{"geonameid":"3515192","name":"Totoltepec de Guerrero","asciiname":"Totoltepec de Guerrero","alternatenames":["Totoltepec","Totoltepec de Guerrero"],"latitude":"18.2256","longitude":"-97.85511","feature_class":"P","feature_code":"PPLA2","country_code":"MX","cc2":"","admin1_code":"21","admin2_code":"190","admin3_code":"","admin4_code":"","population":"0","elevation":"","dem":"1379","timezone":"America/Mexico_City","modification_date":"2015-06-22"},{"geonameid":"3515195","name":"Totolapan","asciiname":"Totolapan","alternatenames":["Totolapan"],"latitude":"18.98487","longitude":"-98.92073","feature_class":"P","feature_code":"PPL","country_code":"MX","cc2":"","admin1_code":"17","admin2_code":"027","admin3_code":"","admin4_code":"","population":"5584","elevation":"","dem":"1902","timezone":"America/Mexico_City","modification_date":"2015-06-22"},{"geonameid":"3515202","name":"Totolapa","asciiname":"Totolapa","alternatenames":["Totolapa"],"latitude":"16.54357","longitude":"-92.68019","feature_class":"P","feature_code":"PPLA2","country_code":"MX","cc2":"","admin1_code":"05","admin2_code":"098","admin3_code":"","admin4_code":"","population":"4267","elevation":"","dem":"655","timezone":"America/Mexico_City","modification_date":"2015-06-22"},{"geonameid":"3515205","name":"San Miguel Totocuitlapilco","asciiname":"San Miguel Totocuitlapilco","alternatenames":["San Miguel Totocuitlapilco","Totocuitlapilco"],"latitude":"19.23107","longitude":"-99.59116","feature_class":"P","feature_code":"PPL","country_code":"MX","cc2":"","admin1_code":"17","admin2_code":"","admin3_code":"","admin4_code":"","population":"7966","elevation":"","dem":"2610","timezone":"America/Mexico_City","modification_date":"2014-09-05"},{"geonameid":"3515270","name":"Santo Domingo Tomaltepec","asciiname":"Santo Domingo Tomaltepec","alternatenames":["Santo Domingo Tomaltepec","Tonaltepec"],"latitude":"17.06117","longitude":"-96.6228","feature_class":"P","feature_code":"PPLA2","country_code":"MX","cc2":"","admin1_code":"20","admin2_code":"519","admin3_code":"","admin4_code":"","population":"0","elevation":"","dem":"1587","timezone":"America/Mexico_City","modification_date":"2015-06-22"},{"geonameid":"3515272","name":"Tonalixco","asciiname":"Tonalixco","alternatenames":[""],"latitude":"18.78194","longitude":"-97.05972","feature_class":"P","feature_code":"PPL","country_code":"MX","cc2":"","admin1_code":"30","admin2_code":"185","admin3_code":"","admin4_code":"","population":"1095","elevation":"","dem":"1425","timezone":"America/Mexico_City","modification_date":"2013-07-31"},{"geonameid":"3515290","name":"Tomatlán","asciiname":"Tomatlan","alternatenames":["Tomatlan","Tomatlán"],"latitude":"19.03102","longitude":"-97.00986","feature_class":"P","feature_code":"PPL","country_code":"MX","cc2":"","admin1_code":"30","admin2_code":"186","admin3_code":"","admin4_code":"","population":"4348","elevation":"","dem":"1364","timezone":"America/Mexico_City","modification_date":"2014-06-05"},{"geonameid":"3515302","name":"Toluca","asciiname":"Toluca","alternatenames":["TLC","Tollohcan","Tolouka","Toluca","Toluca Lerdoensis","Toluca de Lerdo","Toluka","Toluka-de-Lerdo","Tōllohcān","to luk a","tolluka","toluka","toruka","tuo lu ka","twlwka","Τολούκα","Толука","Толука-де-Лердо","تولوکا","तोलुका","โตลูกา","ტოლუკა","トルーカ","托卢卡","톨루카"],"latitude":"19.28786","longitude":"-99.65324","feature_class":"P","feature_code":"PPLA","country_code":"MX","cc2":"","admin1_code":"15","admin2_code":"106","admin3_code":"","admin4_code":"","population":"505881","elevation":"","dem":"2671","timezone":"America/Mexico_City","modification_date":"2015-06-22"},{"geonameid":"3515310","name":"Tolome","asciiname":"Tolome","alternatenames":[""],"latitude":"19.26667","longitude":"-96.39472","feature_class":"P","feature_code":"PPL","country_code":"MX","cc2":"","admin1_code":"30","admin2_code":"126","admin3_code":"","admin4_code":"","population":"2715","elevation":"","dem":"28","timezone":"America/Mexico_City","modification_date":"2013-08-01"},{"geonameid":"3515321","name":"Tolcayuca","asciiname":"Tolcayuca","alternatenames":["Tolcayuca"],"latitude":"19.95814","longitude":"-98.91941","feature_class":"P","feature_code":"PPLA2","country_code":"MX","cc2":"","admin1_code":"17","admin2_code":"","admin3_code":"","admin4_code":"","population":"5964","elevation":"","dem":"2388","timezone":"America/Mexico_City","modification_date":"2014-04-30"},{"geonameid":"3515326","name":"Tocuila","asciiname":"Tocuila","alternatenames":["Tocuila","Toquila"],"latitude":"18.95","longitude":"-97.01667","feature_class":"P","feature_code":"PPL","country_code":"MX","cc2":"","admin1_code":"30","admin2_code":"068","admin3_code":"","admin4_code":"","population":"4248","elevation":"","dem":"1221","timezone":"America/Mexico_City","modification_date":"2015-06-22"},{"geonameid":"3515330","name":"Tochtepec","asciiname":"Tochtepec","alternatenames":["Tochtepec"],"latitude":"18.83989","longitude":"-97.82421","feature_class":"P","feature_code":"PPL","country_code":"MX","cc2":"","admin1_code":"21","admin2_code":"189","admin3_code":"","admin4_code":"","population":"6050","elevation":"","dem":"1982","timezone":"America/Mexico_City","modification_date":"2015-06-22"},{"geonameid":"3515332","name":"Tochimilco","asciiname":"Tochimilco","alternatenames":["Tochimilco"],"latitude":"18.9","longitude":"-98.56667","feature_class":"P","feature_code":"PPL","country_code":"MX","cc2":"","admin1_code":"21","admin2_code":"188","admin3_code":"","admin4_code":"","population":"3688","elevation":"","dem":"2146","timezone":"America/Mexico_City","modification_date":"2015-06-22"},{"geonameid":"3515333","name":"Tocatlán","asciiname":"Tocatlan","alternatenames":["Santa Maria","Santa Maria Tocatlan","Santa María","Santa María Tocatlán","Tocatlan","Tocatlán"],"latitude":"19.38865","longitude":"-98.0274","feature_class":"P","feature_code":"PPLA2","country_code":"MX","cc2":"","admin1_code":"29","admin2_code":"035","admin3_code":"","admin4_code":"","population":"5123","elevation":"","dem":"2634","timezone":"America/Mexico_City","modification_date":"2015-06-22"},{"geonameid":"3515343","name":"Tlayacapan","asciiname":"Tlayacapan","alternatenames":["Tlayacapan"],"latitude":"18.95556","longitude":"-98.98111","feature_class":"P","feature_code":"PPL","country_code":"MX","cc2":"","admin1_code":"17","admin2_code":"026","admin3_code":"","admin4_code":"","population":"7989","elevation":"","dem":"1637","timezone":"America/Mexico_City","modification_date":"2013-07-31"},{"geonameid":"3515349","name":"Tlaxco","asciiname":"Tlaxco","alternatenames":["San Agustin Tlaxco","San Agustín Tlaxco","Tlaxco","Tlaxco de Morelos"],"latitude":"19.61442","longitude":"-98.11997","feature_class":"P","feature_code":"PPLA2","country_code":"MX","cc2":"","admin1_code":"29","admin2_code":"034","admin3_code":"","admin4_code":"","population":"12553","elevation":"","dem":"2550","timezone":"America/Mexico_City","modification_date":"2015-06-22"},{"geonameid":"3515351","name":"Tlaxcoapan","asciiname":"Tlaxcoapan","alternatenames":["Tlaxcoapan"],"latitude":"20.09163","longitude":"-99.22042","feature_class":"P","feature_code":"PPL","country_code":"MX","cc2":"","admin1_code":"13","admin2_code":"074","admin3_code":"","admin4_code":"","population":"12772","elevation":"","dem":"2073","timezone":"America/Mexico_City","modification_date":"2015-06-22"},{"geonameid":"3515354","name":"Tlaxco","asciiname":"Tlaxco","alternatenames":["Tlaxco"],"latitude":"20.42345","longitude":"-98.02917","feature_class":"P","feature_code":"PPLA2","country_code":"MX","cc2":"","admin1_code":"21","admin2_code":"187","admin3_code":"","admin4_code":"","population":"5228","elevation":"","dem":"869","timezone":"America/Mexico_City","modification_date":"2015-06-22"},{"geonameid":"3515358","name":"Tlazcalancingo","asciiname":"Tlazcalancingo","alternatenames":["San Bernandino Tlaxcalancingo","Tlazcalancingo"],"latitude":"19.02863","longitude":"-98.28334","feature_class":"P","feature_code":"PPL","country_code":"MX","cc2":"","admin1_code":"21","admin2_code":"119","admin3_code":"","admin4_code":"","population":"20363","elevation":"","dem":"2139","timezone":"America/Mexico_City","modification_date":"2015-06-22"},{"geonameid":"3515363","name":"Tlatlauquitepec","asciiname":"Tlatlauquitepec","alternatenames":["Tatlauquitepec","Tlatlauquitepec"],"latitude":"19.84765","longitude":"-97.49718","feature_class":"P","feature_code":"PPL","country_code":"MX","cc2":"","admin1_code":"21","admin2_code":"186","admin3_code":"","admin4_code":"","population":"9720","elevation":"","dem":"1929","timezone":"America/Mexico_City","modification_date":"2015-06-22"},{"geonameid":"3515369","name":"Tlatenchi","asciiname":"Tlatenchi","alternatenames":["Tlatenchi","Tlatenchu"],"latitude":"18.59639","longitude":"-99.18639","feature_class":"P","feature_code":"PPL","country_code":"MX","cc2":"","admin1_code":"17","admin2_code":"012","admin3_code":"","admin4_code":"","population":"5555","elevation":"","dem":"908","timezone":"America/Mexico_City","modification_date":"2013-07-31"},{"geonameid":"3515373","name":"Tlaquiltenango","asciiname":"Tlaquiltenango","alternatenames":["Tlaquiltenango"],"latitude":"18.63693","longitude":"-99.16208","feature_class":"P","feature_code":"PPL","country_code":"MX","cc2":"","admin1_code":"17","admin2_code":"025","admin3_code":"","admin4_code":"","population":"19056","elevation":"","dem":"924","timezone":"America/Mexico_City","modification_date":"2015-06-22"},{"geonameid":"3515384","name":"Tlapa de Comonfort","asciiname":"Tlapa de Comonfort","alternatenames":["Tlapa","Tlapa de Comonfort","Tlapa-de-Komonfort","Тлапа-де-Комонфорт"],"latitude":"17.54042","longitude":"-98.57952","feature_class":"P","feature_code":"PPL","country_code":"MX","cc2":"","admin1_code":"12","admin2_code":"066","admin3_code":"","admin4_code":"","population":"36873","elevation":"","dem":"1113","timezone":"America/Mexico_City","modification_date":"2015-06-22"},{"geonameid":"3515386","name":"Tlapacoyan","asciiname":"Tlapacoyan","alternatenames":["Tlapacoyan"],"latitude":"19.96268","longitude":"-97.21141","feature_class":"P","feature_code":"PPLA2","country_code":"MX","cc2":"","admin1_code":"30","admin2_code":"183","admin3_code":"","admin4_code":"","population":"33667","elevation":"","dem":"446","timezone":"America/Mexico_City","modification_date":"2015-06-22"},{"geonameid":"3515394","name":"Santa Isabel Tlanepantla","asciiname":"Santa Isabel Tlanepantla","alternatenames":["Santa Isabel Tlanepantla","Tlanepantla"],"latitude":"18.86489","longitude":"-97.88662","feature_class":"P","feature_code":"PPL","country_code":"MX","cc2":"","admin1_code":"21","admin2_code":"182","admin3_code":"","admin4_code":"","population":"4476","elevation":"","dem":"2004","timezone":"America/Mexico_City","modification_date":"2015-06-22"},{"geonameid":"3515397","name":"Tlanchinol","asciiname":"Tlanchinol","alternatenames":["Tlanchinol"],"latitude":"20.9919","longitude":"-98.65715","feature_class":"P","feature_code":"PPL","country_code":"MX","cc2":"","admin1_code":"13","admin2_code":"073","admin3_code":"","admin4_code":"","population":"4180","elevation":"","dem":"1540","timezone":"America/Mexico_City","modification_date":"2015-06-22"},{"geonameid":"3515399","name":"Tlanalapa","asciiname":"Tlanalapa","alternatenames":["Tlanalapa","Tlanalapan"],"latitude":"19.81868","longitude":"-98.60396","feature_class":"P","feature_code":"PPLA2","country_code":"MX","cc2":"","admin1_code":"13","admin2_code":"072","admin3_code":"","admin4_code":"","population":"7511","elevation":"","dem":"2457","timezone":"America/Mexico_City","modification_date":"2015-06-22"},{"geonameid":"3515401","name":"Tlanalapan","asciiname":"Tlanalapan","alternatenames":["Tlanalapa","Tlanalapan"],"latitude":"19.25084","longitude":"-97.27604","feature_class":"P","feature_code":"PPL","country_code":"MX","cc2":"","admin1_code":"21","admin2_code":"093","admin3_code":"","admin4_code":"","population":"11792","elevation":"","dem":"2986","timezone":"America/Mexico_City","modification_date":"2015-06-22"},{"geonameid":"3515404","name":"Tlamixtlahuacan","asciiname":"Tlamixtlahuacan","alternatenames":[""],"latitude":"17.50306","longitude":"-99.22583","feature_class":"P","feature_code":"PPL","country_code":"MX","cc2":"","admin1_code":"12","admin2_code":"028","admin3_code":"","admin4_code":"","population":"3031","elevation":"","dem":"1218","timezone":"America/Mexico_City","modification_date":"2013-08-01"},{"geonameid":"3515410","name":"Tlamacazapa","asciiname":"Tlamacazapa","alternatenames":["San Juan Tlamacazapa","Tlamacaxapa","Tlamacaxpan","Tlamacazapa"],"latitude":"18.49685","longitude":"-99.50185","feature_class":"P","feature_code":"PPL","country_code":"MX","cc2":"","admin1_code":"12","admin2_code":"055","admin3_code":"","admin4_code":"","population":"6234","elevation":"","dem":"1958","timezone":"America/Mexico_City","modification_date":"2013-07-31"},{"geonameid":"3515415","name":"Tlaltizapán","asciiname":"Tlaltizapan","alternatenames":["Tlaltizapan","Tlaltizapán"],"latitude":"18.68594","longitude":"-99.11982","feature_class":"P","feature_code":"PPL","country_code":"MX","cc2":"","admin1_code":"17","admin2_code":"024","admin3_code":"","admin4_code":"","population":"10465","elevation":"","dem":"954","timezone":"America/Mexico_City","modification_date":"2015-06-22"},{"geonameid":"3515420","name":"Tlaltenango","asciiname":"Tlaltenango","alternatenames":[""],"latitude":"19.17163","longitude":"-98.34275","feature_class":"P","feature_code":"PPLA2","country_code":"MX","cc2":"","admin1_code":"21","admin2_code":"181","admin3_code":"","admin4_code":"","population":"5809","elevation":"","dem":"2213","timezone":"America/Mexico_City","modification_date":"2015-06-22"},{"geonameid":"3515428","name":"Tlalpan","asciiname":"Tlalpan","alternatenames":["Tlalpam","Tlalpan"],"latitude":"19.29707","longitude":"-99.16787","feature_class":"P","feature_code":"PPL","country_code":"MX","cc2":"","admin1_code":"09","admin2_code":"012","admin3_code":"","admin4_code":"","population":"607545","elevation":"","dem":"2264","timezone":"America/Mexico_City","modification_date":"2015-06-22"},{"geonameid":"3515431","name":"Tlalnepantla","asciiname":"Tlalnepantla","alternatenames":["Tlalnepantla","Tlalnepantla de Comonfort","Tlalnepantla de Galeana","Tlalnepantla de baz","Tlanepantla de baz","Тлалнепантла"],"latitude":"19.54005","longitude":"-99.19538","feature_class":"P","feature_code":"PPL","country_code":"MX","cc2":"","admin1_code":"15","admin2_code":"104","admin3_code":"","admin4_code":"","population":"715767","elevation":"","dem":"2260","timezone":"America/Mexico_City","modification_date":"2015-06-22"},{"geonameid":"3515434","name":"Tlalnepantla","asciiname":"Tlalnepantla","alternatenames":["Tlalnepantla","Tlanepantla","Тлалнепантла"],"latitude":"19.00917","longitude":"-98.99715","feature_class":"P","feature_code":"PPLA2","country_code":"MX","cc2":"","admin1_code":"17","admin2_code":"023","admin3_code":"","admin4_code":"","population":"3742","elevation":"","dem":"2070","timezone":"America/Mexico_City","modification_date":"2015-06-22"},{"geonameid":"3515438","name":"Tlalmanalco de Velázquez","asciiname":"Tlalmanalco de Velazquez","alternatenames":["Tlalmanalco","Tlalmanalco de Velazquez","Tlalmanalco de Velázquez"],"latitude":"19.20807","longitude":"-98.80138","feature_class":"P","feature_code":"PPLA2","country_code":"MX","cc2":"","admin1_code":"15","admin2_code":"103","admin3_code":"","admin4_code":"","population":"14952","elevation":"","dem":"2388","timezone":"America/Mexico_City","modification_date":"2015-06-22"},{"geonameid":"3515442","name":"Tlalixtac de Cabrera","asciiname":"Tlalixtac de Cabrera","alternatenames":["Tlalixtac","Tlalixtac de Cabrera"],"latitude":"17.07112","longitude":"-96.6471","feature_class":"P","feature_code":"PPLA2","country_code":"MX","cc2":"","admin1_code":"20","admin2_code":"553","admin3_code":"","admin4_code":"","population":"6581","elevation":"","dem":"1583","timezone":"America/Mexico_City","modification_date":"2015-06-22"},{"geonameid":"3515443","name":"Tlalixcoyan","asciiname":"Tlalixcoyan","alternatenames":[""],"latitude":"18.80222","longitude":"-96.06056","feature_class":"P","feature_code":"PPL","country_code":"MX","cc2":"","admin1_code":"30","admin2_code":"181","admin3_code":"","admin4_code":"","population":"3335","elevation":"","dem":"11","timezone":"America/Mexico_City","modification_date":"2014-04-11"},{"geonameid":"3515452","name":"San Andrés Tlalamac","asciiname":"San Andres Tlalamac","alternatenames":["San Andres Tlalamac","San Andrés Tlalámac","Tlalamac"],"latitude":"18.96694","longitude":"-98.80778","feature_class":"P","feature_code":"PPL","country_code":"MX","cc2":"MX","admin1_code":"15","admin2_code":"015","admin3_code":"","admin4_code":"","population":"3497","elevation":"","dem":"2073","timezone":"America/Mexico_City","modification_date":"2013-08-01"},{"geonameid":"3515458","name":"Tlahuelompa (San Francisco Tlahuelompa)","asciiname":"Tlahuelompa (San Francisco Tlahuelompa)","alternatenames":["Tlahuelampa","Tlahuelompa"],"latitude":"20.65082","longitude":"-98.57522","feature_class":"P","feature_code":"PPL","country_code":"MX","cc2":"","admin1_code":"13","admin2_code":"081","admin3_code":"","admin4_code":"","population":"1015","elevation":"","dem":"1674","timezone":"America/Mexico_City","modification_date":"2013-08-01"},{"geonameid":"3515459","name":"Tlahuelilpan","asciiname":"Tlahuelilpan","alternatenames":["Tlahuelilpa","Tlahuelilpa de Ocampo","Tlahuelilpan","Tlanuclipa"],"latitude":"20.13076","longitude":"-99.23145","feature_class":"P","feature_code":"PPL","country_code":"MX","cc2":"","admin1_code":"13","admin2_code":"070","admin3_code":"","admin4_code":"","population":"8137","elevation":"","dem":"2063","timezone":"America/Mexico_City","modification_date":"2015-06-22"},{"geonameid":"3515463","name":"Tlahuac","asciiname":"Tlahuac","alternatenames":[""],"latitude":"19.28348","longitude":"-99.00317","feature_class":"P","feature_code":"PPL","country_code":"MX","cc2":"","admin1_code":"09","admin2_code":"011","admin3_code":"","admin4_code":"","population":"344106","elevation":"","dem":"2237","timezone":"America/Mexico_City","modification_date":"2015-06-22"},{"geonameid":"3515465","name":"Tlacuilotepec","asciiname":"Tlacuilotepec","alternatenames":["Tlacuilotepec"],"latitude":"20.32574","longitude":"-98.06867","feature_class":"P","feature_code":"PPLA2","country_code":"MX","cc2":"","admin1_code":"21","admin2_code":"178","admin3_code":"","admin4_code":"","population":"0","elevation":"","dem":"1303","timezone":"America/Mexico_City","modification_date":"2015-06-22"},{"geonameid":"3515470","name":"San José Tlacotitlán","asciiname":"San Jose Tlacotitlan","alternatenames":[""],"latitude":"18.98583","longitude":"-98.80611","feature_class":"P","feature_code":"PPL","country_code":"MX","cc2":"","admin1_code":"15","admin2_code":"068","admin3_code":"","admin4_code":"","population":"1462","elevation":"","dem":"2156","timezone":"America/Mexico_City","modification_date":"2013-08-01"},{"geonameid":"3515473","name":"Tlacotepec (San Mateo)","asciiname":"Tlacotepec (San Mateo)","alternatenames":[""],"latitude":"20.06028","longitude":"-97.84917","feature_class":"P","feature_code":"PPL","country_code":"MX","cc2":"","admin1_code":"21","admin2_code":"006","admin3_code":"","admin4_code":"","population":"2554","elevation":"","dem":"1306","timezone":"America/Mexico_City","modification_date":"2013-08-01"},{"geonameid":"3515474","name":"Tlacotepec de Mejía","asciiname":"Tlacotepec de Mejia","alternatenames":["San Martin","San Martín","Tlacotepec","Tlacotepec de Mejia","Tlacotepec de Mejía"],"latitude":"19.18946","longitude":"-96.83805","feature_class":"P","feature_code":"PPLA2","country_code":"MX","cc2":"","admin1_code":"30","admin2_code":"179","admin3_code":"","admin4_code":"","population":"0","elevation":"","dem":"903","timezone":"America/Mexico_City","modification_date":"2015-06-22"},{"geonameid":"3515475","name":"Tlacotepec","asciiname":"Tlacotepec","alternatenames":[""],"latitude":"18.80222","longitude":"-98.74972","feature_class":"P","feature_code":"PPL","country_code":"MX","cc2":"","admin1_code":"17","admin2_code":"032","admin3_code":"","admin4_code":"","population":"4914","elevation":"","dem":"1711","timezone":"America/Mexico_City","modification_date":"2015-06-22"},{"geonameid":"3515477","name":"Tlacotepec","asciiname":"Tlacotepec","alternatenames":["Tlacotepec"],"latitude":"17.78978","longitude":"-99.97961","feature_class":"P","feature_code":"PPL","country_code":"MX","cc2":"","admin1_code":"12","admin2_code":"032","admin3_code":"","admin4_code":"","population":"6513","elevation":"","dem":"1540","timezone":"America/Mexico_City","modification_date":"2015-06-22"},{"geonameid":"3515479","name":"Tlacotalpan","asciiname":"Tlacotalpan","alternatenames":["Tlacotalpan"],"latitude":"18.61333","longitude":"-95.6589","feature_class":"P","feature_code":"PPL","country_code":"MX","cc2":"","admin1_code":"30","admin2_code":"178","admin3_code":"","admin4_code":"","population":"8704","elevation":"","dem":"9","timezone":"America/Mexico_City","modification_date":"2015-06-22"},{"geonameid":"3515484","name":"Tlacolula de Matamoros","asciiname":"Tlacolula de Matamoros","alternatenames":["Tlacolula","Tlacolula de Matamoros"],"latitude":"16.95471","longitude":"-96.4759","feature_class":"P","feature_code":"PPLA2","country_code":"MX","cc2":"","admin1_code":"20","admin2_code":"551","admin3_code":"","admin4_code":"","population":"11689","elevation":"","dem":"1625","timezone":"America/Mexico_City","modification_date":"2015-06-22"},{"geonameid":"3515487","name":"Tlacojalpan","asciiname":"Tlacojalpan","alternatenames":["Tlacojalpan"],"latitude":"18.23096","longitude":"-95.94682","feature_class":"P","feature_code":"PPL","country_code":"MX","cc2":"","admin1_code":"30","admin2_code":"176","admin3_code":"","admin4_code":"","population":"4090","elevation":"","dem":"18","timezone":"America/Mexico_City","modification_date":"2015-06-22"},{"geonameid":"3515488","name":"San Jerónimo Tlacochahuaya","asciiname":"San Jeronimo Tlacochahuaya","alternatenames":["San Jeronimo","San Jeronimo Tlacochahuaya","San Jerónimo","San Jerónimo Tlacochahuaya","Tlacochahuay","Tlacochahuaya","Tlacochahuaya de Morelos"],"latitude":"17.00874","longitude":"-96.58275","feature_class":"P","feature_code":"PPLA2","country_code":"MX","cc2":"","admin1_code":"20","admin2_code":"550","admin3_code":"","admin4_code":"","population":"0","elevation":"","dem":"1593","timezone":"America/Mexico_City","modification_date":"2015-06-22"},{"geonameid":"3515490","name":"Tlacoachistlahuaca","asciiname":"Tlacoachistlahuaca","alternatenames":["Tlacoachistlahuaca","Tlacoachixtlahuaca"],"latitude":"16.81045","longitude":"-98.30078","feature_class":"P","feature_code":"PPL","country_code":"MX","cc2":"","admin1_code":"12","admin2_code":"062","admin3_code":"","admin4_code":"","population":"4359","elevation":"","dem":"414","timezone":"America/Mexico_City","modification_date":"2014-10-01"},{"geonameid":"3515496","name":"Tlachichuca","asciiname":"Tlachichuca","alternatenames":["Tlachichuca"],"latitude":"19.11485","longitude":"-97.41915","feature_class":"P","feature_code":"PPL","country_code":"MX","cc2":"","admin1_code":"21","admin2_code":"179","admin3_code":"","admin4_code":"","population":"7096","elevation":"","dem":"2616","timezone":"America/Mexico_City","modification_date":"2015-06-22"},{"geonameid":"3515504","name":"Tizimín","asciiname":"Tizimin","alternatenames":["TZM","Tisimin","Titzimin","Tizimin","Tizimín","Тисимин"],"latitude":"21.14284","longitude":"-88.15119","feature_class":"P","feature_code":"PPL","country_code":"MX","cc2":"","admin1_code":"31","admin2_code":"096","admin3_code":"","admin4_code":"","population":"41993","elevation":"","dem":"21","timezone":"America/Merida","modification_date":"2014-02-02"},{"geonameid":"3515505","name":"Tizayuca","asciiname":"Tizayuca","alternatenames":["Tizayuca","Tizayucan"],"latitude":"19.83721","longitude":"-98.97607","feature_class":"P","feature_code":"PPLA2","country_code":"MX","cc2":"","admin1_code":"17","admin2_code":"","admin3_code":"","admin4_code":"","population":"39323","elevation":"","dem":"2275","timezone":"America/Mexico_City","modification_date":"2014-04-30"},{"geonameid":"3515510","name":"Tixtla de Guerrero","asciiname":"Tixtla de Guerrero","alternatenames":["Tikhtla-de-Gerrero","Tixtla","Тихтла-де-Герреро"],"latitude":"17.56732","longitude":"-99.39799","feature_class":"P","feature_code":"PPL","country_code":"MX","cc2":"","admin1_code":"12","admin2_code":"061","admin3_code":"","admin4_code":"","population":"21130","elevation":"","dem":"1354","timezone":"America/Mexico_City","modification_date":"2015-06-22"},{"geonameid":"3515512","name":"Tixpehual","asciiname":"Tixpehual","alternatenames":["Tixpehual","Tixpeual","Tixpheual","Tixpéual"],"latitude":"20.97739","longitude":"-89.44203","feature_class":"P","feature_code":"PPLA2","country_code":"MX","cc2":"","admin1_code":"31","admin2_code":"095","admin3_code":"","admin4_code":"","population":"3334","elevation":"","dem":"14","timezone":"America/Merida","modification_date":"2015-06-22"},{"geonameid":"3515521","name":"Tixkokob","asciiname":"Tixkokob","alternatenames":["Tixkokob"],"latitude":"21.0022","longitude":"-89.39484","feature_class":"P","feature_code":"PPL","country_code":"MX","cc2":"","admin1_code":"31","admin2_code":"093","admin3_code":"","admin4_code":"","population":"10228","elevation":"","dem":"13","timezone":"America/Merida","modification_date":"2015-06-22"},{"geonameid":"3515527","name":"Tixcacaltuyub","asciiname":"Tixcacaltuyub","alternatenames":["Tixcacaltuyu","Tixcacaltuyub","Tixcacaltuyú"],"latitude":"20.49316","longitude":"-88.91637","feature_class":"P","feature_code":"PPL","country_code":"MX","cc2":"","admin1_code":"31","admin2_code":"104","admin3_code":"","admin4_code":"","population":"2146","elevation":"","dem":"24","timezone":"America/Merida","modification_date":"2014-06-05"},{"geonameid":"3515544","name":"Tinum","asciiname":"Tinum","alternatenames":["Tinum","Tinun","Tinún"],"latitude":"20.76779","longitude":"-88.39164","feature_class":"P","feature_code":"PPLA2","country_code":"MX","cc2":"","admin1_code":"31","admin2_code":"091","admin3_code":"","admin4_code":"","population":"0","elevation":"","dem":"29","timezone":"America/Merida","modification_date":"2015-06-22"},{"geonameid":"3515567","name":"Timucuy","asciiname":"Timucuy","alternatenames":["Timucay","Timucuy","Tixmucuy"],"latitude":"20.81023","longitude":"-89.51383","feature_class":"P","feature_code":"PPLA2","country_code":"MX","cc2":"","admin1_code":"31","admin2_code":"090","admin3_code":"","admin4_code":"","population":"3532","elevation":"","dem":"16","timezone":"America/Merida","modification_date":"2015-06-22"},{"geonameid":"3515570","name":"Tilzapotla","asciiname":"Tilzapotla","alternatenames":[""],"latitude":"18.48991","longitude":"-99.27555","feature_class":"P","feature_code":"PPL","country_code":"MX","cc2":"","admin1_code":"17","admin2_code":"017","admin3_code":"","admin4_code":"","population":"5256","elevation":"","dem":"1014","timezone":"America/Mexico_City","modification_date":"2015-06-22"},{"geonameid":"3515576","name":"Santiago Tillo","asciiname":"Santiago Tillo","alternatenames":["Santiago Tillo","Tillo"],"latitude":"17.46085","longitude":"-97.32019","feature_class":"P","feature_code":"PPLA2","country_code":"MX","cc2":"","admin1_code":"20","admin2_code":"493","admin3_code":"","admin4_code":"","population":"0","elevation":"","dem":"2091","timezone":"America/Mexico_City","modification_date":"2015-06-22"},{"geonameid":"3515582","name":"San Martín Tilcajete","asciiname":"San Martin Tilcajete","alternatenames":["San Martin Tilcajete","San Martín Tilcajete","Tilcajete"],"latitude":"16.86008","longitude":"-96.6949","feature_class":"P","feature_code":"PPLA2","country_code":"MX","cc2":"","admin1_code":"20","admin2_code":"243","admin3_code":"","admin4_code":"","population":"0","elevation":"","dem":"1539","timezone":"America/Mexico_City","modification_date":"2015-06-22"},{"geonameid":"3515600","name":"Tila","asciiname":"Tila","alternatenames":["Tila"],"latitude":"17.30054","longitude":"-92.4273","feature_class":"P","feature_code":"PPL","country_code":"MX","cc2":"","admin1_code":"05","admin2_code":"096","admin3_code":"","admin4_code":"","population":"6089","elevation":"","dem":"1035","timezone":"America/Mexico_City","modification_date":"2015-06-22"},{"geonameid":"3515601","name":"Tikuch","asciiname":"Tikuch","alternatenames":["Ticuch","Tikuch"],"latitude":"20.70301","longitude":"-88.11272","feature_class":"P","feature_code":"PPL","country_code":"MX","cc2":"","admin1_code":"31","admin2_code":"102","admin3_code":"","admin4_code":"","population":"1336","elevation":"","dem":"21","timezone":"America/Merida","modification_date":"2014-06-05"},{"geonameid":"3515603","name":"Tihuatlan","asciiname":"Tihuatlan","alternatenames":["Tihuatlan","Tihuatlán"],"latitude":"20.71449","longitude":"-97.53335","feature_class":"P","feature_code":"PPL","country_code":"MX","cc2":"","admin1_code":"30","admin2_code":"175","admin3_code":"","admin4_code":"","population":"12047","elevation":"","dem":"98","timezone":"America/Mexico_City","modification_date":"2015-06-22"},{"geonameid":"3515604","name":"Tiholop","asciiname":"Tiholop","alternatenames":["Tiholop"],"latitude":"20.33234","longitude":"-88.68958","feature_class":"P","feature_code":"PPL","country_code":"MX","cc2":"","admin1_code":"31","admin2_code":"104","admin3_code":"","admin4_code":"","population":"1463","elevation":"","dem":"30","timezone":"America/Merida","modification_date":"2014-06-05"},{"geonameid":"3515643","name":"Tierra Colorada","asciiname":"Tierra Colorada","alternatenames":["Tierra Colorada"],"latitude":"17.16471","longitude":"-99.52706","feature_class":"P","feature_code":"PPL","country_code":"MX","cc2":"","admin1_code":"12","admin2_code":"039","admin3_code":"","admin4_code":"","population":"10202","elevation":"","dem":"283","timezone":"America/Mexico_City","modification_date":"2015-06-22"},{"geonameid":"3515665","name":"Ticul","asciiname":"Ticul","alternatenames":["Ticul"],"latitude":"20.39833","longitude":"-89.53541","feature_class":"P","feature_code":"PPL","country_code":"MX","cc2":"","admin1_code":"31","admin2_code":"089","admin3_code":"","admin4_code":"","population":"30282","elevation":"","dem":"30","timezone":"America/Merida","modification_date":"2015-06-22"},{"geonameid":"3515679","name":"Santiago Tíanguistenco","asciiname":"Santiago Tianguistenco","alternatenames":["San Tianguistenco","Santiago Tianguistenco","Santiago Tíanguistenco","Tianguistenco","Tianguistenco de Galeana","Tianguistengo"],"latitude":"19.18024","longitude":"-99.46644","feature_class":"P","feature_code":"PPLA2","country_code":"MX","cc2":"","admin1_code":"15","admin2_code":"101","admin3_code":"","admin4_code":"","population":"20104","elevation":"","dem":"2637","timezone":"America/Mexico_City","modification_date":"2015-06-22"},{"geonameid":"3515690","name":"Tezontepec de Aldama","asciiname":"Tezontepec de Aldama","alternatenames":["Texontepec","Tezontepec","Tezontepec Aldama","Tezontepec de Aldama"],"latitude":"20.19073","longitude":"-99.27429","feature_class":"P","feature_code":"PPL","country_code":"MX","cc2":"","admin1_code":"13","admin2_code":"067","admin3_code":"","admin4_code":"","population":"25511","elevation":"","dem":"2006","timezone":"America/Mexico_City","modification_date":"2015-06-22"},{"geonameid":"3515691","name":"Tezontepec","asciiname":"Tezontepec","alternatenames":["Tezontepec"],"latitude":"19.88063","longitude":"-98.81972","feature_class":"P","feature_code":"PPLA2","country_code":"MX","cc2":"","admin1_code":"13","admin2_code":"066","admin3_code":"","admin4_code":"","population":"5369","elevation":"","dem":"2331","timezone":"America/Mexico_City","modification_date":"2015-06-22"},{"geonameid":"3515694","name":"Tezoatlán de Segura y Luna","asciiname":"Tezoatlan de Segura y Luna","alternatenames":["Teosotlan","Teozatlan","Tezoatlan","Tezoatlan de Segura y Luna","Tezoatlán","Tezoatlán de Segura y Luna"],"latitude":"17.65388","longitude":"-97.81068","feature_class":"P","feature_code":"PPLA2","country_code":"MX","cc2":"","admin1_code":"20","admin2_code":"549","admin3_code":"","admin4_code":"","population":"0","elevation":"","dem":"1522","timezone":"America/Mexico_City","modification_date":"2015-06-22"},{"geonameid":"3515696","name":"Teziutlan","asciiname":"Teziutlan","alternatenames":["Teziutlan","Teziutlán"],"latitude":"19.8173","longitude":"-97.35992","feature_class":"P","feature_code":"PPL","country_code":"MX","cc2":"","admin1_code":"21","admin2_code":"174","admin3_code":"","admin4_code":"","population":"70819","elevation":"","dem":"1943","timezone":"America/Mexico_City","modification_date":"2015-06-22"},{"geonameid":"3515710","name":"Texistepec","asciiname":"Texistepec","alternatenames":["Texistepec"],"latitude":"17.89517","longitude":"-94.81702","feature_class":"P","feature_code":"PPL","country_code":"MX","cc2":"","admin1_code":"30","admin2_code":"172","admin3_code":"","admin4_code":"","population":"8758","elevation":"","dem":"50","timezone":"America/Mexico_City","modification_date":"2015-06-22"},{"geonameid":"3515713","name":"Texhuacán","asciiname":"Texhuacan","alternatenames":["Texhuacan","Texhuacán"],"latitude":"18.62233","longitude":"-97.04025","feature_class":"P","feature_code":"PPL","country_code":"MX","cc2":"","admin1_code":"30","admin2_code":"171","admin3_code":"","admin4_code":"","population":"1986","elevation":"","dem":"1998","timezone":"America/Mexico_City","modification_date":"2014-06-05"},{"geonameid":"3515715","name":"Texcoco de Mora","asciiname":"Texcoco de Mora","alternatenames":["Texcoco","Texcoco de Mora","Tezcoco","tesukoko","テスココ"],"latitude":"19.51194","longitude":"-98.88293","feature_class":"P","feature_code":"PPLA2","country_code":"MX","cc2":"","admin1_code":"15","admin2_code":"099","admin3_code":"","admin4_code":"","population":"115378","elevation":"","dem":"2257","timezone":"America/Mexico_City","modification_date":"2015-06-22"},{"geonameid":"3515722","name":"Texcalyacac","asciiname":"Texcalyacac","alternatenames":["San Mateo Texcalyacac","Texcaliacac","Texcalyacac","Texcalyecac"],"latitude":"19.13253","longitude":"-99.50163","feature_class":"P","feature_code":"PPLA2","country_code":"MX","cc2":"","admin1_code":"17","admin2_code":"","admin3_code":"","admin4_code":"","population":"0","elevation":"","dem":"2590","timezone":"America/Mexico_City","modification_date":"2014-09-05"},{"geonameid":"3515724","name":"San Juan Texcalpan","asciiname":"San Juan Texcalpan","alternatenames":[""],"latitude":"18.93583","longitude":"-98.92889","feature_class":"P","feature_code":"PPL","country_code":"MX","cc2":"","admin1_code":"17","admin2_code":"002","admin3_code":"","admin4_code":"","population":"1162","elevation":"","dem":"1603","timezone":"America/Mexico_City","modification_date":"2013-08-01"},{"geonameid":"3515726","name":"Texcala","asciiname":"Texcala","alternatenames":[""],"latitude":"18.93444","longitude":"-98.79472","feature_class":"P","feature_code":"PPL","country_code":"MX","cc2":"","admin1_code":"17","admin2_code":"030","admin3_code":"","admin4_code":"","population":"1444","elevation":"","dem":"2011","timezone":"America/Mexico_City","modification_date":"2013-07-31"},{"geonameid":"3515735","name":"Tetzoyocan","asciiname":"Tetzoyocan","alternatenames":["San Gabriel Tetzoyocan","Tetzoyocan"],"latitude":"18.75716","longitude":"-97.70311","feature_class":"P","feature_code":"PPL","country_code":"MX","cc2":"","admin1_code":"21","admin2_code":"205","admin3_code":"","admin4_code":"","population":"5593","elevation":"","dem":"2012","timezone":"America/Mexico_City","modification_date":"2015-06-22"},{"geonameid":"3515744","name":"Tetiz","asciiname":"Tetiz","alternatenames":["Tetiz"],"latitude":"20.96316","longitude":"-89.93384","feature_class":"P","feature_code":"PPL","country_code":"MX","cc2":"","admin1_code":"31","admin2_code":"087","admin3_code":"","admin4_code":"","population":"3774","elevation":"","dem":"2","timezone":"America/Merida","modification_date":"2015-06-22"},{"geonameid":"3515746","name":"Tetipac","asciiname":"Tetipac","alternatenames":["Teticpac","Tetipac"],"latitude":"18.64778","longitude":"-99.64778","feature_class":"P","feature_code":"PPL","country_code":"MX","cc2":"MX","admin1_code":"12","admin2_code":"060","admin3_code":"","admin4_code":"","population":"2042","elevation":"","dem":"1676","timezone":"America/Mexico_City","modification_date":"2013-07-31"},{"geonameid":"3515751","name":"Tetepango","asciiname":"Tetepango","alternatenames":["Telepango","Tetepango"],"latitude":"20.10168","longitude":"-99.15108","feature_class":"P","feature_code":"PPL","country_code":"MX","cc2":"","admin1_code":"13","admin2_code":"065","admin3_code":"","admin4_code":"","population":"7289","elevation":"","dem":"2100","timezone":"America/Mexico_City","modification_date":"2015-06-22"},{"geonameid":"3515753","name":"Teteltzingo","asciiname":"Teteltzingo","alternatenames":["Tetelcingo","Teteltzingo","Tetelzingo"],"latitude":"19.05141","longitude":"-97.14465","feature_class":"P","feature_code":"PPL","country_code":"MX","cc2":"","admin1_code":"30","admin2_code":"047","admin3_code":"","admin4_code":"","population":"4193","elevation":"","dem":"2287","timezone":"America/Mexico_City","modification_date":"2015-06-22"},{"geonameid":"3515757","name":"Teteles de Avila Castillo","asciiname":"Teteles de Avila Castillo","alternatenames":["Leteles de Avila Camacho","Leteles de Ávila Camacho","Teteles","Teteles de Avila Castillo","Teteles de Ávila Castillo"],"latitude":"19.85748","longitude":"-97.45703","feature_class":"P","feature_code":"PPL","country_code":"MX","cc2":"","admin1_code":"21","admin2_code":"173","admin3_code":"","admin4_code":"","population":"4750","elevation":"","dem":"1878","timezone":"America/Mexico_City","modification_date":"2015-06-22"},{"geonameid":"3515762","name":"Tetela de Ocampo","asciiname":"Tetela de Ocampo","alternatenames":["Tetela","Tetela de Ocampo","Tetetla de Ocampo"],"latitude":"19.8162","longitude":"-97.80756","feature_class":"P","feature_code":"PPL","country_code":"MX","cc2":"","admin1_code":"21","admin2_code":"172","admin3_code":"","admin4_code":"","population":"4234","elevation":"","dem":"1735","timezone":"America/Mexico_City","modification_date":"2015-06-22"},{"geonameid":"3515763","name":"Tetela del Volcán","asciiname":"Tetela del Volcan","alternatenames":["Telela del Volcan","Tetela del Volcan","Tetela del Volcán"],"latitude":"18.89306","longitude":"-98.72972","feature_class":"P","feature_code":"PPL","country_code":"MX","cc2":"","admin1_code":"17","admin2_code":"022","admin3_code":"","admin4_code":"","population":"10199","elevation":"","dem":"2222","timezone":"America/Mexico_City","modification_date":"2013-08-01"},{"geonameid":"3515767","name":"Tetecala","asciiname":"Tetecala","alternatenames":["Tetecala"],"latitude":"18.73009","longitude":"-99.39933","feature_class":"P","feature_code":"PPL","country_code":"MX","cc2":"","admin1_code":"17","admin2_code":"021","admin3_code":"","admin4_code":"","population":"5111","elevation":"","dem":"993","timezone":"America/Mexico_City","modification_date":"2015-06-22"},{"geonameid":"3515769","name":"Tesoco","asciiname":"Tesoco","alternatenames":["Tesoco"],"latitude":"20.72259","longitude":"-88.15456","feature_class":"P","feature_code":"PPL","country_code":"MX","cc2":"","admin1_code":"31","admin2_code":"102","admin3_code":"","admin4_code":"","population":"1362","elevation":"","dem":"24","timezone":"America/Merida","modification_date":"2014-06-05"},{"geonameid":"3515782","name":"Terrenate","asciiname":"Terrenate","alternatenames":["San Nicolas","San Nicolas Terrenate","San Nicolás Terrenate","Terrenate"],"latitude":"19.47384","longitude":"-97.92491","feature_class":"P","feature_code":"PPL","country_code":"MX","cc2":"","admin1_code":"29","admin2_code":"030","admin3_code":"","admin4_code":"","population":"4348","elevation":"","dem":"2630","timezone":"America/Mexico_City","modification_date":"2015-06-22"},{"geonameid":"3515794","name":"Tequixquiac","asciiname":"Tequixquiac","alternatenames":["Santiago Tequixquiac","Tequisquiac","Tequixquiac"],"latitude":"19.90944","longitude":"-99.14472","feature_class":"P","feature_code":"PPL","country_code":"MX","cc2":"","admin1_code":"15","admin2_code":"096","admin3_code":"","admin4_code":"","population":"22676","elevation":"","dem":"2219","timezone":"America/Mexico_City","modification_date":"2013-07-31"},{"geonameid":"3515796","name":"Tequisquiapan","asciiname":"Tequisquiapan","alternatenames":["Tequisquiapam","Tequisquiapan"],"latitude":"20.5225","longitude":"-99.89167","feature_class":"P","feature_code":"PPL","country_code":"MX","cc2":"","admin1_code":"22","admin2_code":"017","admin3_code":"","admin4_code":"","population":"29799","elevation":"","dem":"1881","timezone":"America/Mexico_City","modification_date":"2013-08-03"},{"geonameid":"3515799","name":"Tequila","asciiname":"Tequila","alternatenames":["Roa Barcenas","San Pedro","San Pedro Tequila","Tekila","Tequila","Текила"],"latitude":"18.72998","longitude":"-97.06991","feature_class":"P","feature_code":"PPL","country_code":"MX","cc2":"","admin1_code":"30","admin2_code":"168","admin3_code":"","admin4_code":"","population":"3248","elevation":"","dem":"1696","timezone":"America/Mexico_City","modification_date":"2015-06-22"},{"geonameid":"3515803","name":"San Martín Tequesquipan (Tequesquipan)","asciiname":"San Martin Tequesquipan (Tequesquipan)","alternatenames":["Tequesquipan","Tequexquipan","Tequisquiapan","Tequisquipan"],"latitude":"19.05806","longitude":"-99.94667","feature_class":"P","feature_code":"PPL","country_code":"MX","cc2":"MX","admin1_code":"15","admin2_code":"086","admin3_code":"","admin4_code":"","population":"1039","elevation":"","dem":"2352","timezone":"America/Mexico_City","modification_date":"2013-08-01"},{"geonameid":"3515806","name":"Tepulco","asciiname":"Tepulco","alternatenames":[""],"latitude":"19.11642","longitude":"-97.98793","feature_class":"P","feature_code":"PPL","country_code":"MX","cc2":"","admin1_code":"21","admin2_code":"001","admin3_code":"","admin4_code":"","population":"6214","elevation":"","dem":"2576","timezone":"America/Mexico_City","modification_date":"2015-06-22"},{"geonameid":"3515807","name":"Cuautitlán Izcalli","asciiname":"Cuautitlan Izcalli","alternatenames":["Cuautitlan Izcalli","Cuautitlán Izcalli","Izcalli","San Francisco Tepoiaco","Tepujaco"],"latitude":"19.64388","longitude":"-99.21598","feature_class":"P","feature_code":"PPL","country_code":"MX","cc2":"","admin1_code":"15","admin2_code":"121","admin3_code":"","admin4_code":"","population":"475179","elevation":"","dem":"2288","timezone":"America/Mexico_City","modification_date":"2015-06-22"},{"geonameid":"3515811","name":"Tepoztlán","asciiname":"Tepoztlan","alternatenames":["Tepoxtlan","Tepoxtlán","Tepoztlan","Tepoztlán"],"latitude":"18.98603","longitude":"-99.09914","feature_class":"P","feature_code":"PPL","country_code":"MX","cc2":"","admin1_code":"17","admin2_code":"020","admin3_code":"","admin4_code":"","population":"15963","elevation":"","dem":"1716","timezone":"America/Mexico_City","modification_date":"2015-06-22"},{"geonameid":"3515827","name":"Tepotzotlán","asciiname":"Tepotzotlan","alternatenames":["Tepotzotlan","Tepotzotlán","Tepozotlan"],"latitude":"19.71981","longitude":"-99.2237","feature_class":"P","feature_code":"PPL","country_code":"MX","cc2":"","admin1_code":"15","admin2_code":"095","admin3_code":"","admin4_code":"","population":"44517","elevation":"","dem":"2312","timezone":"America/Mexico_City","modification_date":"2015-06-22"},{"geonameid":"3515848","name":"Tepexi de Rodríguez","asciiname":"Tepexi de Rodriguez","alternatenames":["Tepexi","Tepexi de Rodriguez","Tepexi de Rodríguez"],"latitude":"18.58108","longitude":"-97.92606","feature_class":"P","feature_code":"PPL","country_code":"MX","cc2":"","admin1_code":"21","admin2_code":"169","admin3_code":"","admin4_code":"","population":"4617","elevation":"","dem":"1726","timezone":"America/Mexico_City","modification_date":"2015-06-22"},