{"country_data":{"ISO":"NL","ISO3":"NLD","ISO_Numeric":"528","fips":"NL","country":"Netherlands","capital":"Amsterdam","area":"41526","Population":"16645000","Continent":"EU","tld":".nl","CurrencyCode":"EUR","CurrencyName":"Euro","Phone":"31","Postal_Code_Format":"#### @@","Postal_Code_Regex":"^(\\d{4}[A-Z]{2})$","Languages":"nl-NL,fy-NL","geonameid":"2750405","neighbours":"DE,BE","EquivalentFipsCode":""},"cities":[{"geonameid":"2743477","name":"Zwolle","asciiname":"Zwolle","alternatenames":["Gemeen Zwolle","Gorad Zvolle","Svolla","Swol","Zvole","Zvolle","Zvolė","Zwolle","ci wo lei","jeubolleo","jhvola","s wol lex","zfwlh","zi wo lei","zuvu~ore","zvole","zwwlh","Горад Зволле","Зволе","Зволле","Զվոլե","زفوله","زولے","زووله","झ्वोला","ซโวลเลอ","ზვოლე","ズヴォレ","兹沃勒","즈볼러"],"latitude":"52.5125","longitude":"6.09444","feature_class":"P","feature_code":"PPLA","country_code":"NL","cc2":"","admin1_code":"15","admin2_code":"0193","admin3_code":"","admin4_code":"","population":"111805","elevation":"","dem":"9","timezone":"Europe/Amsterdam","modification_date":"2007-06-03"},{"geonameid":"2743493","name":"Zwijndrecht","asciiname":"Zwijndrecht","alternatenames":["Zvayndrext","Zvejndrekht","Zvejndrekhte","Zwijndrecht","ci wei en de lei he te","zwyndrykht","Звейндрехт","Звейндрехте","Զվայնդրեխտ","زويندريخت","兹韦恩德雷赫特"],"latitude":"51.8175","longitude":"4.63333","feature_class":"P","feature_code":"PPL","country_code":"NL","cc2":"","admin1_code":"11","admin2_code":"0642","admin3_code":"","admin4_code":"","population":"45696","elevation":"","dem":"0","timezone":"Europe/Amsterdam","modification_date":"2010-01-29"},{"geonameid":"2743561","name":"Zwartebroek","asciiname":"Zwartebroek","alternatenames":[""],"latitude":"52.17917","longitude":"5.50417","feature_class":"P","feature_code":"PPL","country_code":"NL","cc2":"","admin1_code":"03","admin2_code":"0203","admin3_code":"","admin4_code":"","population":"1260","elevation":"","dem":"6","timezone":"Europe/Amsterdam","modification_date":"2009-01-06"},{"geonameid":"2743590","name":"De Westereen","asciiname":"De Westereen","alternatenames":["De Westereen","De Westerein","Zwaagwesteinde"],"latitude":"53.25731","longitude":"6.0363","feature_class":"P","feature_code":"PPL","country_code":"NL","cc2":"","admin1_code":"02","admin2_code":"1891","admin3_code":"","admin4_code":"","population":"5175","elevation":"","dem":"2","timezone":"Europe/Amsterdam","modification_date":"2010-09-17"},{"geonameid":"2743608","name":"Zutphen","asciiname":"Zutphen","alternatenames":["Zjutfen","Zutfen","Zutphen","Зютфен"],"latitude":"52.13833","longitude":"6.20139","feature_class":"P","feature_code":"PPL","country_code":"NL","cc2":"","admin1_code":"03","admin2_code":"0301","admin3_code":"","admin4_code":"","population":"36188","elevation":"","dem":"10","timezone":"Europe/Amsterdam","modification_date":"2010-01-29"},{"geonameid":"2743619","name":"Zundert","asciiname":"Zundert","alternatenames":["Groot Zundert","Zjundert","Зюндерт"],"latitude":"51.47167","longitude":"4.65556","feature_class":"P","feature_code":"PPL","country_code":"NL","cc2":"","admin1_code":"06","admin2_code":"0879","admin3_code":"","admin4_code":"","population":"20476","elevation":"","dem":"11","timezone":"Europe/Amsterdam","modification_date":"2010-01-29"},{"geonameid":"2743680","name":"Zuidlaren","asciiname":"Zuidlaren","alternatenames":["Sudlaren","Súdlaren","Zaountlaren","Zuidlaren","ze yi de la lun","Ζαουντλάρεν","泽伊德拉伦"],"latitude":"53.09417","longitude":"6.68194","feature_class":"P","feature_code":"PPL","country_code":"NL","cc2":"","admin1_code":"01","admin2_code":"1730","admin3_code":"","admin4_code":"","population":"10410","elevation":"","dem":"12","timezone":"Europe/Amsterdam","modification_date":"2008-05-03"},{"geonameid":"2743694","name":"Zuidhorn","asciiname":"Zuidhorn","alternatenames":[""],"latitude":"53.24667","longitude":"6.40278","feature_class":"P","feature_code":"PPL","country_code":"NL","cc2":"","admin1_code":"04","admin2_code":"0056","admin3_code":"","admin4_code":"","population":"6559","elevation":"","dem":"4","timezone":"Europe/Amsterdam","modification_date":"2008-12-22"},{"geonameid":"2743856","name":"Zoetermeer","asciiname":"Zoetermeer","alternatenames":["Zeutermaer","Zoetermeer","zwtrmyyr","זוטרמייר"],"latitude":"52.0575","longitude":"4.49306","feature_class":"P","feature_code":"PPL","country_code":"NL","cc2":"","admin1_code":"11","admin2_code":"0637","admin3_code":"","admin4_code":"","population":"115845","elevation":"","dem":"0","timezone":"Europe/Amsterdam","modification_date":"2007-06-03"},{"geonameid":"2743877","name":"Zijtaart","asciiname":"Zijtaart","alternatenames":["Seitaart","Sijtaard","Sijtaart"],"latitude":"51.5925","longitude":"5.54167","feature_class":"P","feature_code":"PPL","country_code":"NL","cc2":"NL","admin1_code":"06","admin2_code":"0860","admin3_code":"","admin4_code":"","population":"1543","elevation":"","dem":"13","timezone":"Europe/Amsterdam","modification_date":"2009-01-09"},{"geonameid":"2743949","name":"Zevenaar","asciiname":"Zevenaar","alternatenames":["Zevenar","Зевенар"],"latitude":"51.93","longitude":"6.07083","feature_class":"P","feature_code":"PPL","country_code":"NL","cc2":"","admin1_code":"03","admin2_code":"0299","admin3_code":"","admin4_code":"","population":"26063","elevation":"","dem":"12","timezone":"Europe/Amsterdam","modification_date":"2010-01-29"},{"geonameid":"2743952","name":"Zetten","asciiname":"Zetten","alternatenames":[""],"latitude":"51.92833","longitude":"5.71389","feature_class":"P","feature_code":"PPL","country_code":"NL","cc2":"","admin1_code":"03","admin2_code":"1734","admin3_code":"","admin4_code":"","population":"5250","elevation":"","dem":"10","timezone":"Europe/Amsterdam","modification_date":"2009-09-03"},{"geonameid":"2743963","name":"Zelhem","asciiname":"Zelhem","alternatenames":[""],"latitude":"52.00667","longitude":"6.34861","feature_class":"P","feature_code":"PPL","country_code":"NL","cc2":"","admin1_code":"03","admin2_code":"1876","admin3_code":"","admin4_code":"","population":"11324","elevation":"","dem":"19","timezone":"Europe/Amsterdam","modification_date":"2007-06-03"},{"geonameid":"2743977","name":"Zeist","asciiname":"Zeist","alternatenames":["Zeist","Zejst","Zeyst","zai si te","zaisuto","zayst","Зейст","Զեյստ","زایست","ザイスト","宰斯特"],"latitude":"52.09","longitude":"5.23333","feature_class":"P","feature_code":"PPL","country_code":"NL","cc2":"","admin1_code":"09","admin2_code":"0355","admin3_code":"","admin4_code":"","population":"60949","elevation":"","dem":"5","timezone":"Europe/Amsterdam","modification_date":"2007-06-03"},{"geonameid":"2743997","name":"Zeewolde","asciiname":"Zeewolde","alternatenames":[""],"latitude":"52.33","longitude":"5.54167","feature_class":"P","feature_code":"PPL","country_code":"NL","cc2":"","admin1_code":"16","admin2_code":"0050","admin3_code":"","admin4_code":"","population":"19022","elevation":"","dem":"-1","timezone":"Europe/Amsterdam","modification_date":"2007-06-03"},{"geonameid":"2744014","name":"Zeeland","asciiname":"Zeeland","alternatenames":["Op-Zeeland","Seelandt","Selant","Zeeland","Zelant","Zelland","Zélland"],"latitude":"51.6975","longitude":"5.67639","feature_class":"P","feature_code":"PPL","country_code":"NL","cc2":"","admin1_code":"06","admin2_code":"1685","admin3_code":"","admin4_code":"","population":"6159","elevation":"","dem":"20","timezone":"Europe/Amsterdam","modification_date":"2014-01-10"},{"geonameid":"2744042","name":"Zandvoort","asciiname":"Zandvoort","alternatenames":["Landvoort","Zandvoort","Зандвоорт"],"latitude":"52.37487","longitude":"4.53409","feature_class":"P","feature_code":"PPL","country_code":"NL","cc2":"","admin1_code":"07","admin2_code":"0473","admin3_code":"","admin4_code":"","population":"16868","elevation":"","dem":"6","timezone":"Europe/Amsterdam","modification_date":"2010-01-30"},{"geonameid":"2744102","name":"Zaltbommel","asciiname":"Zaltbommel","alternatenames":["zarutobomeru","zha er te bo mo er","ザルトボメル","扎爾特博默爾"],"latitude":"51.81","longitude":"5.24444","feature_class":"P","feature_code":"PPL","country_code":"NL","cc2":"","admin1_code":"03","admin2_code":"0297","admin3_code":"","admin4_code":"","population":"26383","elevation":"","dem":"5","timezone":"Europe/Amsterdam","modification_date":"2007-06-03"},{"geonameid":"2744114","name":"Zaanstad","asciiname":"Zaanstad","alternatenames":["Zaanstad"],"latitude":"52.45313","longitude":"4.81356","feature_class":"P","feature_code":"PPL","country_code":"NL","cc2":"","admin1_code":"07","admin2_code":"0479","admin3_code":"","admin4_code":"","population":"140085","elevation":"","dem":"2","timezone":"Europe/Amsterdam","modification_date":"2010-01-30"},{"geonameid":"2744118","name":"Zaandam","asciiname":"Zaandam","alternatenames":["Zaandam","Zandam","Zandamas","zan dan","zandamu","Заандам","Зандам","ザーンダム","赞丹"],"latitude":"52.43854","longitude":"4.82643","feature_class":"P","feature_code":"PPL","country_code":"NL","cc2":"","admin1_code":"07","admin2_code":"0479","admin3_code":"","admin4_code":"","population":"71708","elevation":"","dem":"-1","timezone":"Europe/Amsterdam","modification_date":"2010-06-01"},{"geonameid":"2744122","name":"Zaamslag","asciiname":"Zaamslag","alternatenames":["Zaomslag"],"latitude":"51.3125","longitude":"3.9125","feature_class":"P","feature_code":"PPL","country_code":"NL","cc2":"","admin1_code":"10","admin2_code":"0715","admin3_code":"","admin4_code":"","population":"2980","elevation":"","dem":"4","timezone":"Europe/Amsterdam","modification_date":"2008-05-02"},{"geonameid":"2744129","name":"Yerseke","asciiname":"Yerseke","alternatenames":["Erseke","IJerseka","Iersake","Ierseke","Ерсеке"],"latitude":"51.4925","longitude":"4.05","feature_class":"P","feature_code":"PPL","country_code":"NL","cc2":"NL","admin1_code":"10","admin2_code":"0703","admin3_code":"","admin4_code":"","population":"6541","elevation":"","dem":"4","timezone":"Europe/Amsterdam","modification_date":"2010-07-01"},{"geonameid":"2744147","name":"Wâlterswâld","asciiname":"Walterswald","alternatenames":["Walterswald","Wouterswoud","Wouterswoude","Wâlterswâld"],"latitude":"53.3","longitude":"6.03333","feature_class":"P","feature_code":"PPL","country_code":"NL","cc2":"NL","admin1_code":"02","admin2_code":"1891","admin3_code":"","admin4_code":"","population":"1079","elevation":"","dem":"1","timezone":"Europe/Amsterdam","modification_date":"2010-09-17"},{"geonameid":"2744153","name":"Woudsend","asciiname":"Woudsend","alternatenames":[""],"latitude":"52.94357","longitude":"5.62843","feature_class":"P","feature_code":"PPL","country_code":"NL","cc2":"","admin1_code":"02","admin2_code":"1900","admin3_code":"","admin4_code":"","population":"1320","elevation":"","dem":"4","timezone":"Europe/Amsterdam","modification_date":"2012-04-14"},{"geonameid":"2744156","name":"Woudrichem","asciiname":"Woudrichem","alternatenames":["Woudrichem"],"latitude":"51.815","longitude":"5.00139","feature_class":"P","feature_code":"PPL","country_code":"NL","cc2":"","admin1_code":"06","admin2_code":"0874","admin3_code":"","admin4_code":"","population":"14208","elevation":"","dem":"2","timezone":"Europe/Amsterdam","modification_date":"2007-06-03"},{"geonameid":"2744163","name":"Woudenberg","asciiname":"Woudenberg","alternatenames":[""],"latitude":"52.08083","longitude":"5.41667","feature_class":"P","feature_code":"PPL","country_code":"NL","cc2":"","admin1_code":"09","admin2_code":"0351","admin3_code":"","admin4_code":"","population":"11305","elevation":"","dem":"4","timezone":"Europe/Amsterdam","modification_date":"2007-06-03"},{"geonameid":"2744179","name":"Workum","asciiname":"Workum","alternatenames":["Warkum","Workum","wo er ke mu","沃爾克姆"],"latitude":"52.97969","longitude":"5.4471","feature_class":"P","feature_code":"PPL","country_code":"NL","cc2":"","admin1_code":"02","admin2_code":"1900","admin3_code":"","admin4_code":"","population":"3880","elevation":"","dem":"1","timezone":"Europe/Amsterdam","modification_date":"2012-04-14"},{"geonameid":"2744191","name":"Wommels","asciiname":"Wommels","alternatenames":[""],"latitude":"53.10883","longitude":"5.58749","feature_class":"P","feature_code":"PPL","country_code":"NL","cc2":"","admin1_code":"02","admin2_code":"0140","admin3_code":"","admin4_code":"","population":"2104","elevation":"","dem":"3","timezone":"Europe/Amsterdam","modification_date":"2009-08-17"},{"geonameid":"2744194","name":"Wolvega","asciiname":"Wolvega","alternatenames":["Vol'vega","Wolvega","Wolvegea","wo er fu ha","Вольвега","沃尔弗哈"],"latitude":"52.87545","longitude":"5.99691","feature_class":"P","feature_code":"PPLA2","country_code":"NL","cc2":"","admin1_code":"02","admin2_code":"0098","admin3_code":"","admin4_code":"","population":"25500","elevation":"","dem":"5","timezone":"Europe/Amsterdam","modification_date":"2015-06-24"},{"geonameid":"2744219","name":"Wolfheze","asciiname":"Wolfheze","alternatenames":["Wolfheeze"],"latitude":"52.00333","longitude":"5.79028","feature_class":"P","feature_code":"PPL","country_code":"NL","cc2":"NL","admin1_code":"03","admin2_code":"0274","admin3_code":"","admin4_code":"","population":"1757","elevation":"","dem":"37","timezone":"Europe/Amsterdam","modification_date":"2009-09-03"},{"geonameid":"2744248","name":"Woerden","asciiname":"Woerden","alternatenames":["Verden","Vurden","Woerden","wu er deng","Верден","Вурден","Վուրդեն","武爾登"],"latitude":"52.085","longitude":"4.88333","feature_class":"P","feature_code":"PPL","country_code":"NL","cc2":"","admin1_code":"09","admin2_code":"0632","admin3_code":"","admin4_code":"","population":"48431","elevation":"","dem":"4","timezone":"Europe/Amsterdam","modification_date":"2010-01-29"},{"geonameid":"2744257","name":"Woensdrecht","asciiname":"Woensdrecht","alternatenames":["Vonsdrekht","Woensdrecht","Вонсдрехт"],"latitude":"51.42897","longitude":"4.30355","feature_class":"P","feature_code":"PPL","country_code":"NL","cc2":"","admin1_code":"06","admin2_code":"0873","admin3_code":"","admin4_code":"","population":"21276","elevation":"","dem":"7","timezone":"Europe/Amsterdam","modification_date":"2011-02-11"},{"geonameid":"2744324","name":"Wisch","asciiname":"Wisch","alternatenames":[""],"latitude":"51.92648","longitude":"6.41705","feature_class":"P","feature_code":"PPL","country_code":"NL","cc2":"","admin1_code":"03","admin2_code":"1509","admin3_code":"","admin4_code":"","population":"19496","elevation":"","dem":"15","timezone":"Europe/Amsterdam","modification_date":"2011-06-04"},{"geonameid":"2744327","name":"Wirdum","asciiname":"Wirdum","alternatenames":[""],"latitude":"53.14893","longitude":"5.80387","feature_class":"P","feature_code":"PPL","country_code":"NL","cc2":"","admin1_code":"02","admin2_code":"0080","admin3_code":"","admin4_code":"","population":"1232","elevation":"","dem":"3","timezone":"Europe/Amsterdam","modification_date":"2008-01-24"},{"geonameid":"2744332","name":"Winterswijk","asciiname":"Winterswijk","alternatenames":["Vintersvejk","Винтерсвейк"],"latitude":"51.9725","longitude":"6.71944","feature_class":"P","feature_code":"PPL","country_code":"NL","cc2":"","admin1_code":"03","admin2_code":"0294","admin3_code":"","admin4_code":"","population":"29623","elevation":"","dem":"38","timezone":"Europe/Amsterdam","modification_date":"2010-01-29"},{"geonameid":"2744337","name":"Winsum","asciiname":"Winsum","alternatenames":[""],"latitude":"53.33","longitude":"6.52083","feature_class":"P","feature_code":"PPL","country_code":"NL","cc2":"","admin1_code":"04","admin2_code":"0053","admin3_code":"","admin4_code":"","population":"14310","elevation":"","dem":"3","timezone":"Europe/Amsterdam","modification_date":"2007-06-03"},{"geonameid":"2744338","name":"Winsum","asciiname":"Winsum","alternatenames":["Winseem","Winsum"],"latitude":"53.1519","longitude":"5.63359","feature_class":"P","feature_code":"PPL","country_code":"NL","cc2":"","admin1_code":"02","admin2_code":"0140","admin3_code":"","admin4_code":"","population":"1020","elevation":"","dem":"0","timezone":"Europe/Amsterdam","modification_date":"2012-01-17"},{"geonameid":"2744344","name":"Winschoten","asciiname":"Winschoten","alternatenames":["Vinskhoten","Winschoten","Wynskoat","wen si huo teng","Винсхотен","溫斯霍滕"],"latitude":"53.14417","longitude":"7.03472","feature_class":"P","feature_code":"PPL","country_code":"NL","cc2":"","admin1_code":"04","admin2_code":"1895","admin3_code":"","admin4_code":"","population":"18506","elevation":"","dem":"3","timezone":"Europe/Amsterdam","modification_date":"2010-09-17"},{"geonameid":"2744373","name":"Wilp","asciiname":"Wilp","alternatenames":["Welp"],"latitude":"52.21833","longitude":"6.15","feature_class":"P","feature_code":"PPL","country_code":"NL","cc2":"NL","admin1_code":"03","admin2_code":"0285","admin3_code":"","admin4_code":"","population":"1700","elevation":"","dem":"7","timezone":"Europe/Amsterdam","modification_date":"2008-01-13"},{"geonameid":"2744388","name":"Willemstad","asciiname":"Willemstad","alternatenames":[""],"latitude":"51.69167","longitude":"4.43889","feature_class":"P","feature_code":"PPL","country_code":"NL","cc2":"","admin1_code":"06","admin2_code":"1709","admin3_code":"","admin4_code":"","population":"2362","elevation":"","dem":"1","timezone":"Europe/Amsterdam","modification_date":"2010-08-31"},{"geonameid":"2744446","name":"Wilbertoord","asciiname":"Wilbertoord","alternatenames":["Peeldorp"],"latitude":"51.65583","longitude":"5.775","feature_class":"P","feature_code":"PPL","country_code":"NL","cc2":"","admin1_code":"06","admin2_code":"0815","admin3_code":"","admin4_code":"","population":"1118","elevation":"","dem":"20","timezone":"Europe/Amsterdam","modification_date":"2014-01-10"},{"geonameid":"2744483","name":"Wijk bij Duurstede","asciiname":"Wijk bij Duurstede","alternatenames":["Vayk bey Dursteyde","Wyk by Duurstede","Վայկ բեյ Դուրստեյդե"],"latitude":"51.97417","longitude":"5.34167","feature_class":"P","feature_code":"PPL","country_code":"NL","cc2":"","admin1_code":"09","admin2_code":"0352","admin3_code":"","admin4_code":"","population":"23693","elevation":"","dem":"6","timezone":"Europe/Amsterdam","modification_date":"2007-06-03"},{"geonameid":"2744489","name":"Wijhe","asciiname":"Wijhe","alternatenames":["Wije"],"latitude":"52.38667","longitude":"6.13472","feature_class":"P","feature_code":"PPL","country_code":"NL","cc2":"NL","admin1_code":"15","admin2_code":"1773","admin3_code":"","admin4_code":"","population":"5640","elevation":"","dem":"7","timezone":"Europe/Amsterdam","modification_date":"2008-12-21"},{"geonameid":"2744514","name":"Wijchen","asciiname":"Wijchen","alternatenames":["Vijchen","Wijchen","Вийчен"],"latitude":"51.80917","longitude":"5.725","feature_class":"P","feature_code":"PPL","country_code":"NL","cc2":"","admin1_code":"03","admin2_code":"0296","admin3_code":"","admin4_code":"","population":"32693","elevation":"","dem":"10","timezone":"Europe/Amsterdam","modification_date":"2010-01-29"},{"geonameid":"2744549","name":"Wierden","asciiname":"Wierden","alternatenames":["Vierden","Wierden","Виерден"],"latitude":"52.35917","longitude":"6.59306","feature_class":"P","feature_code":"PPL","country_code":"NL","cc2":"","admin1_code":"15","admin2_code":"0189","admin3_code":"","admin4_code":"","population":"23244","elevation":"","dem":"13","timezone":"Europe/Amsterdam","modification_date":"2010-01-29"},{"geonameid":"2744608","name":"West-Terschelling","asciiname":"West-Terschelling","alternatenames":["West-Skylge","Westerschelling"],"latitude":"53.35911","longitude":"5.21482","feature_class":"P","feature_code":"PPL","country_code":"NL","cc2":"NL","admin1_code":"02","admin2_code":"0093","admin3_code":"","admin4_code":"","population":"2520","elevation":"","dem":"7","timezone":"Europe/Amsterdam","modification_date":"2008-01-31"},{"geonameid":"2744675","name":"Westervoort","asciiname":"Westervoort","alternatenames":[""],"latitude":"51.95583","longitude":"5.97222","feature_class":"P","feature_code":"PPL","country_code":"NL","cc2":"","admin1_code":"03","admin2_code":"0293","admin3_code":"","admin4_code":"","population":"15976","elevation":"","dem":"11","timezone":"Europe/Amsterdam","modification_date":"2007-06-03"},{"geonameid":"2744741","name":"Westerhaar-Vriezenveensewijk","asciiname":"Westerhaar-Vriezenveensewijk","alternatenames":["Westerhaar"],"latitude":"52.45583","longitude":"6.62361","feature_class":"P","feature_code":"PPL","country_code":"NL","cc2":"NL","admin1_code":"15","admin2_code":"1700","admin3_code":"","admin4_code":"","population":"4470","elevation":"","dem":"12","timezone":"Europe/Amsterdam","modification_date":"2008-05-02"},{"geonameid":"2744800","name":"Westdorpe","asciiname":"Westdorpe","alternatenames":[""],"latitude":"51.2325","longitude":"3.82639","feature_class":"P","feature_code":"PPL","country_code":"NL","cc2":"","admin1_code":"10","admin2_code":"0715","admin3_code":"","admin4_code":"","population":"2113","elevation":"","dem":"3","timezone":"Europe/Amsterdam","modification_date":"2008-05-02"},{"geonameid":"2744827","name":"Werkendam","asciiname":"Werkendam","alternatenames":["Verkendam","Werkendam","Веркендам"],"latitude":"51.81","longitude":"4.89444","feature_class":"P","feature_code":"PPL","country_code":"NL","cc2":"","admin1_code":"06","admin2_code":"0870","admin3_code":"","admin4_code":"","population":"26362","elevation":"","dem":"2","timezone":"Europe/Amsterdam","modification_date":"2010-01-29"},{"geonameid":"2744859","name":"Wellerlooi","asciiname":"Wellerlooi","alternatenames":[""],"latitude":"51.53417","longitude":"6.13611","feature_class":"P","feature_code":"PPL","country_code":"NL","cc2":"","admin1_code":"05","admin2_code":"0893","admin3_code":"","admin4_code":"","population":"1225","elevation":"","dem":"19","timezone":"Europe/Amsterdam","modification_date":"2009-01-04"},{"geonameid":"2744869","name":"Welberg","asciiname":"Welberg","alternatenames":[""],"latitude":"51.57667","longitude":"4.33056","feature_class":"P","feature_code":"PPL","country_code":"NL","cc2":"","admin1_code":"06","admin2_code":"0851","admin3_code":"","admin4_code":"","population":"1500","elevation":"","dem":"3","timezone":"Europe/Amsterdam","modification_date":"2008-01-28"},{"geonameid":"2744871","name":"Wekerom","asciiname":"Wekerom","alternatenames":[""],"latitude":"52.1125","longitude":"5.71389","feature_class":"P","feature_code":"PPL","country_code":"NL","cc2":"","admin1_code":"03","admin2_code":"0228","admin3_code":"","admin4_code":"","population":"2540","elevation":"","dem":"19","timezone":"Europe/Amsterdam","modification_date":"2009-01-02"},{"geonameid":"2744904","name":"Weesp","asciiname":"Weesp","alternatenames":["Vesp","Veysp","Weesp","wei si pu","Весп","Վեյսպ","韋斯普"],"latitude":"52.3075","longitude":"5.04167","feature_class":"P","feature_code":"PPL","country_code":"NL","cc2":"","admin1_code":"07","admin2_code":"0457","admin3_code":"","admin4_code":"","population":"17802","elevation":"","dem":"5","timezone":"Europe/Amsterdam","modification_date":"2007-06-03"},{"geonameid":"2744911","name":"Weert","asciiname":"Weert","alternatenames":["Vert","Weerd","Weert","Wieert","Wieërt","Верт"],"latitude":"51.25167","longitude":"5.70694","feature_class":"P","feature_code":"PPL","country_code":"NL","cc2":"","admin1_code":"05","admin2_code":"0988","admin3_code":"","admin4_code":"","population":"48662","elevation":"","dem":"38","timezone":"Europe/Amsterdam","modification_date":"2010-01-29"},{"geonameid":"2744991","name":"Wassenaar","asciiname":"Wassenaar","alternatenames":[""],"latitude":"52.14583","longitude":"4.40278","feature_class":"P","feature_code":"PPL","country_code":"NL","cc2":"","admin1_code":"11","admin2_code":"0629","admin3_code":"","admin4_code":"","population":"25353","elevation":"","dem":"2","timezone":"Europe/Amsterdam","modification_date":"2007-06-03"},{"geonameid":"2744994","name":"Waspik","asciiname":"Waspik","alternatenames":[""],"latitude":"51.68667","longitude":"4.94444","feature_class":"P","feature_code":"PPL","country_code":"NL","cc2":"","admin1_code":"06","admin2_code":"0867","admin3_code":"","admin4_code":"","population":"5120","elevation":"","dem":"2","timezone":"Europe/Amsterdam","modification_date":"2009-01-09"},{"geonameid":"2744998","name":"Warten","asciiname":"Warten","alternatenames":["Warten","Wartena"],"latitude":"53.15","longitude":"5.9","feature_class":"P","feature_code":"PPL","country_code":"NL","cc2":"","admin1_code":"02","admin2_code":"0080","admin3_code":"","admin4_code":"","population":"1003","elevation":"","dem":"-1","timezone":"Europe/Amsterdam","modification_date":"2015-06-14"},{"geonameid":"2745003","name":"Warnsveld","asciiname":"Warnsveld","alternatenames":[""],"latitude":"52.1375","longitude":"6.23056","feature_class":"P","feature_code":"PPL","country_code":"NL","cc2":"","admin1_code":"03","admin2_code":"0301","admin3_code":"","admin4_code":"","population":"9200","elevation":"","dem":"10","timezone":"Europe/Amsterdam","modification_date":"2009-09-22"},{"geonameid":"2745018","name":"Wergea","asciiname":"Wergea","alternatenames":["Warga","Wergea"],"latitude":"53.15145","longitude":"5.84404","feature_class":"P","feature_code":"PPL","country_code":"NL","cc2":"","admin1_code":"02","admin2_code":"0080","admin3_code":"","admin4_code":"","population":"1622","elevation":"","dem":"1","timezone":"Europe/Amsterdam","modification_date":"2015-06-14"},{"geonameid":"2745048","name":"Wanneperveen","asciiname":"Wanneperveen","alternatenames":["Wenneperveen"],"latitude":"52.705","longitude":"6.12222","feature_class":"P","feature_code":"PPL","country_code":"NL","cc2":"NL","admin1_code":"15","admin2_code":"1708","admin3_code":"","admin4_code":"","population":"1110","elevation":"","dem":"0","timezone":"Europe/Amsterdam","modification_date":"2008-12-26"},{"geonameid":"2745088","name":"Wageningen","asciiname":"Wageningen","alternatenames":["Vada","Vageningen","Vageningenas","Vaxeningen","Wageningen","vu~aheningen","wa han ning en","wa he ning en","wakhnyngn","Вагенинген","Վախենինգեն","واخنینگن","ヴァーヘニンゲン","瓦罕寧恩","瓦赫寧恩"],"latitude":"51.97","longitude":"5.66667","feature_class":"P","feature_code":"PPL","country_code":"NL","cc2":"","admin1_code":"03","admin2_code":"0289","admin3_code":"","admin4_code":"","population":"35433","elevation":"","dem":"12","timezone":"Europe/Amsterdam","modification_date":"2007-06-03"},{"geonameid":"2745096","name":"Waddinxveen","asciiname":"Waddinxveen","alternatenames":["Waddinxveen"],"latitude":"52.045","longitude":"4.65139","feature_class":"P","feature_code":"PPL","country_code":"NL","cc2":"NL","admin1_code":"11","admin2_code":"0627","admin3_code":"","admin4_code":"","population":"25338","elevation":"","dem":"-1","timezone":"Europe/Amsterdam","modification_date":"2015-01-28"},{"geonameid":"2745123","name":"Waalwijk","asciiname":"Waalwijk","alternatenames":["Waalwijk"],"latitude":"51.6825","longitude":"5.07083","feature_class":"P","feature_code":"PPL","country_code":"NL","cc2":"","admin1_code":"06","admin2_code":"0867","admin3_code":"","admin4_code":"","population":"45610","elevation":"","dem":"4","timezone":"Europe/Amsterdam","modification_date":"2007-06-03"},{"geonameid":"2745127","name":"Waalre","asciiname":"Waalre","alternatenames":["Waalre"],"latitude":"51.38667","longitude":"5.44444","feature_class":"P","feature_code":"PPL","country_code":"NL","cc2":"","admin1_code":"06","admin2_code":"0866","admin3_code":"","admin4_code":"","population":"16665","elevation":"","dem":"24","timezone":"Europe/Amsterdam","modification_date":"2007-06-03"},{"geonameid":"2745154","name":"Vught","asciiname":"Vught","alternatenames":["Fughte","Vjugt","Vuxt","Вюгт","Վուխտ"],"latitude":"51.65333","longitude":"5.2875","feature_class":"P","feature_code":"PPL","country_code":"NL","cc2":"","admin1_code":"06","admin2_code":"0865","admin3_code":"","admin4_code":"","population":"25043","elevation":"","dem":"8","timezone":"Europe/Amsterdam","modification_date":"2014-01-12"},{"geonameid":"2745169","name":"Vroomshoop","asciiname":"Vroomshoop","alternatenames":[""],"latitude":"52.46083","longitude":"6.56528","feature_class":"P","feature_code":"PPL","country_code":"NL","cc2":"","admin1_code":"15","admin2_code":"1700","admin3_code":"","admin4_code":"","population":"8480","elevation":"","dem":"10","timezone":"Europe/Amsterdam","modification_date":"2008-05-02"},{"geonameid":"2745182","name":"Vriezenveen","asciiname":"Vriezenveen","alternatenames":["Uriezenveen"],"latitude":"52.40833","longitude":"6.62222","feature_class":"P","feature_code":"PPL","country_code":"NL","cc2":"NL","admin1_code":"15","admin2_code":"1700","admin3_code":"","admin4_code":"","population":"12310","elevation":"","dem":"10","timezone":"Europe/Amsterdam","modification_date":"2008-05-02"},{"geonameid":"2745189","name":"Vries","asciiname":"Vries","alternatenames":[""],"latitude":"53.07417","longitude":"6.57778","feature_class":"P","feature_code":"PPL","country_code":"NL","cc2":"","admin1_code":"01","admin2_code":"1730","admin3_code":"","admin4_code":"","population":"4465","elevation":"","dem":"8","timezone":"Europe/Amsterdam","modification_date":"2008-05-03"},{"geonameid":"2745196","name":"Vreeland","asciiname":"Vreeland","alternatenames":[""],"latitude":"52.23","longitude":"5.03194","feature_class":"P","feature_code":"PPL","country_code":"NL","cc2":"","admin1_code":"09","admin2_code":"1904","admin3_code":"","admin4_code":"","population":"1530","elevation":"","dem":"0","timezone":"Europe/Amsterdam","modification_date":"2012-04-14"},{"geonameid":"2745271","name":"Voorthuizen","asciiname":"Voorthuizen","alternatenames":[""],"latitude":"52.18667","longitude":"5.60556","feature_class":"P","feature_code":"PPL","country_code":"NL","cc2":"","admin1_code":"03","admin2_code":"0203","admin3_code":"","admin4_code":"","population":"9710","elevation":"","dem":"15","timezone":"Europe/Amsterdam","modification_date":"2009-01-06"},{"geonameid":"2745297","name":"Voorst","asciiname":"Voorst","alternatenames":["Voorst","Vorst","Воорст","Ворст","Վորստ"],"latitude":"52.17","longitude":"6.14167","feature_class":"P","feature_code":"PPL","country_code":"NL","cc2":"","admin1_code":"03","admin2_code":"0285","admin3_code":"","admin4_code":"","population":"23676","elevation":"","dem":"10","timezone":"Europe/Amsterdam","modification_date":"2010-01-29"},{"geonameid":"2745301","name":"Voorschoten","asciiname":"Voorschoten","alternatenames":[""],"latitude":"52.1275","longitude":"4.44861","feature_class":"P","feature_code":"PPL","country_code":"NL","cc2":"","admin1_code":"11","admin2_code":"0626","admin3_code":"","admin4_code":"","population":"22468","elevation":"","dem":"2","timezone":"Europe/Amsterdam","modification_date":"2007-06-03"},{"geonameid":"2745311","name":"Voorhout","asciiname":"Voorhout","alternatenames":[""],"latitude":"52.22167","longitude":"4.48472","feature_class":"P","feature_code":"PPL","country_code":"NL","cc2":"","admin1_code":"11","admin2_code":"1525","admin3_code":"","admin4_code":"","population":"15145","elevation":"","dem":"0","timezone":"Europe/Amsterdam","modification_date":"2007-06-03"},{"geonameid":"2745321","name":"Voorburg","asciiname":"Voorburg","alternatenames":["Voorburg","Воорбург"],"latitude":"52.07417","longitude":"4.35972","feature_class":"P","feature_code":"PPL","country_code":"NL","cc2":"","admin1_code":"11","admin2_code":"1916","admin3_code":"","admin4_code":"","population":"38000","elevation":"","dem":"6","timezone":"Europe/Amsterdam","modification_date":"2009-08-12"},{"geonameid":"2745333","name":"Vollenhove","asciiname":"Vollenhove","alternatenames":["Veno","fu lun huo fu","福倫霍弗"],"latitude":"52.68083","longitude":"5.95417","feature_class":"P","feature_code":"PPL","country_code":"NL","cc2":"","admin1_code":"15","admin2_code":"1708","admin3_code":"","admin4_code":"","population":"3840","elevation":"","dem":"5","timezone":"Europe/Amsterdam","modification_date":"2008-12-26"},{"geonameid":"2745338","name":"Volkel","asciiname":"Volkel","alternatenames":[""],"latitude":"51.6425","longitude":"5.65417","feature_class":"P","feature_code":"PPL","country_code":"NL","cc2":"","admin1_code":"06","admin2_code":"0856","admin3_code":"","admin4_code":"","population":"3560","elevation":"","dem":"19","timezone":"Europe/Amsterdam","modification_date":"2009-01-05"},{"geonameid":"2745340","name":"Volendam","asciiname":"Volendam","alternatenames":["Volendam","Volendamas","fu lun dan","Волендам","福伦丹"],"latitude":"52.495","longitude":"5.07083","feature_class":"P","feature_code":"PPL","country_code":"NL","cc2":"","admin1_code":"07","admin2_code":"0385","admin3_code":"","admin4_code":"","population":"22000","elevation":"","dem":"0","timezone":"Europe/Amsterdam","modification_date":"2010-01-29"},{"geonameid":"2745369","name":"Voerendaal","asciiname":"Voerendaal","alternatenames":[""],"latitude":"50.88327","longitude":"5.92978","feature_class":"P","feature_code":"PPL","country_code":"NL","cc2":"","admin1_code":"05","admin2_code":"0986","admin3_code":"","admin4_code":"","population":"3100","elevation":"","dem":"90","timezone":"Europe/Amsterdam","modification_date":"2009-01-09"},{"geonameid":"2745382","name":"Vlodrop","asciiname":"Vlodrop","alternatenames":[""],"latitude":"51.13333","longitude":"6.07639","feature_class":"P","feature_code":"PPL","country_code":"NL","cc2":"","admin1_code":"05","admin2_code":"1669","admin3_code":"","admin4_code":"","population":"2523","elevation":"","dem":"30","timezone":"Europe/Amsterdam","modification_date":"2009-01-04"},{"geonameid":"2745388","name":"Vlist","asciiname":"Vlist","alternatenames":[""],"latitude":"51.98","longitude":"4.81944","feature_class":"P","feature_code":"PPL","country_code":"NL","cc2":"","admin1_code":"11","admin2_code":"1931","admin3_code":"","admin4_code":"","population":"9806","elevation":"","dem":"-2","timezone":"Europe/Amsterdam","modification_date":"2015-05-25"},{"geonameid":"2745392","name":"Vlissingen","asciiname":"Vlissingen","alternatenames":["Flesinga","Flessinga","Flessingue","Flissingen","Flushing","Vlisingen","Vlissienge","Vlissinge","Vlissingen","flsnkn","fu li xin en","peullising-eon","Влиссинген","Флиссинген","Վլիսինգեն","فلسنكن","弗利辛恩","플리싱언"],"latitude":"51.4425","longitude":"3.57361","feature_class":"P","feature_code":"PPL","country_code":"NL","cc2":"","admin1_code":"10","admin2_code":"0718","admin3_code":"","admin4_code":"","population":"45273","elevation":"","dem":"5","timezone":"Europe/Amsterdam","modification_date":"2010-01-29"},{"geonameid":"2745461","name":"Vlagtwedde","asciiname":"Vlagtwedde","alternatenames":["Vlachtwedde","Vlagtwedde"],"latitude":"53.0275","longitude":"7.10833","feature_class":"P","feature_code":"PPL","country_code":"NL","cc2":"","admin1_code":"04","admin2_code":"0048","admin3_code":"","admin4_code":"","population":"17286","elevation":"","dem":"3","timezone":"Europe/Amsterdam","modification_date":"2007-06-03"},{"geonameid":"2745467","name":"Vlaardingen","asciiname":"Vlaardingen","alternatenames":["Vlaardinge","Vlaardingen"],"latitude":"51.9125","longitude":"4.34167","feature_class":"P","feature_code":"PPL","country_code":"NL","cc2":"","admin1_code":"11","admin2_code":"0622","admin3_code":"","admin4_code":"","population":"73798","elevation":"","dem":"2","timezone":"Europe/Amsterdam","modification_date":"2007-06-03"},{"geonameid":"2745580","name":"Vianen","asciiname":"Vianen","alternatenames":[""],"latitude":"51.9925","longitude":"5.09167","feature_class":"P","feature_code":"PPL","country_code":"NL","cc2":"","admin1_code":"09","admin2_code":"0620","admin3_code":"","admin4_code":"","population":"19931","elevation":"","dem":"5","timezone":"Europe/Amsterdam","modification_date":"2007-06-03"},{"geonameid":"2745634","name":"Venray","asciiname":"Venray","alternatenames":["Venraai","Venraij"],"latitude":"51.525","longitude":"5.975","feature_class":"P","feature_code":"PPL","country_code":"NL","cc2":"","admin1_code":"05","admin2_code":"0984","admin3_code":"","admin4_code":"","population":"39047","elevation":"","dem":"29","timezone":"Europe/Amsterdam","modification_date":"2007-06-03"},{"geonameid":"2745641","name":"Venlo","asciiname":"Venlo","alternatenames":["Fenlo","Venlas","Venlo","Venlonum","Venloo","fen luo","fenro","fnlw","wynlw","Φένλο","Венло","فنلو","وینلو","フェンロー","芬洛"],"latitude":"51.37","longitude":"6.16806","feature_class":"P","feature_code":"PPL","country_code":"NL","cc2":"","admin1_code":"05","admin2_code":"0983","admin3_code":"","admin4_code":"","population":"92403","elevation":"","dem":"24","timezone":"Europe/Amsterdam","modification_date":"2010-01-29"},{"geonameid":"2745673","name":"Velsen-Zuid","asciiname":"Velsen-Zuid","alternatenames":["Velsen","Velzen"],"latitude":"52.46","longitude":"4.65","feature_class":"P","feature_code":"PPL","country_code":"NL","cc2":"","admin1_code":"07","admin2_code":"0453","admin3_code":"","admin4_code":"","population":"67758","elevation":"","dem":"4","timezone":"Europe/Amsterdam","modification_date":"2007-06-03"},{"geonameid":"2745677","name":"Velp","asciiname":"Velp","alternatenames":[""],"latitude":"51.995","longitude":"5.97361","feature_class":"P","feature_code":"PPL","country_code":"NL","cc2":"","admin1_code":"03","admin2_code":"0275","admin3_code":"","admin4_code":"","population":"17669","elevation":"","dem":"20","timezone":"Europe/Amsterdam","modification_date":"2009-09-03"},{"geonameid":"2745706","name":"Veldhoven","asciiname":"Veldhoven","alternatenames":[""],"latitude":"51.41833","longitude":"5.40278","feature_class":"P","feature_code":"PPL","country_code":"NL","cc2":"","admin1_code":"06","admin2_code":"0861","admin3_code":"","admin4_code":"","population":"43256","elevation":"","dem":"22","timezone":"Europe/Amsterdam","modification_date":"2010-04-28"},{"geonameid":"2745726","name":"Veghel","asciiname":"Veghel","alternatenames":["Vechel","Vegel","Veghel","Vexel","Вегел","Վեխել"],"latitude":"51.61667","longitude":"5.54861","feature_class":"P","feature_code":"PPL","country_code":"NL","cc2":"","admin1_code":"06","admin2_code":"0860","admin3_code":"","admin4_code":"","population":"25352","elevation":"","dem":"11","timezone":"Europe/Amsterdam","modification_date":"2010-01-29"},{"geonameid":"2745739","name":"Veere","asciiname":"Veere","alternatenames":["Veera","Veere","Vere","Веера"],"latitude":"51.54833","longitude":"3.66667","feature_class":"P","feature_code":"PPL","country_code":"NL","cc2":"","admin1_code":"10","admin2_code":"0717","admin3_code":"","admin4_code":"","population":"22173","elevation":"","dem":"4","timezone":"Europe/Amsterdam","modification_date":"2010-01-29"},{"geonameid":"2745743","name":"Feanwâlden","asciiname":"Feanwalden","alternatenames":["Feanwalden","Feanwâlden","Veenwouden"],"latitude":"53.23558","longitude":"5.98832","feature_class":"P","feature_code":"PPL","country_code":"NL","cc2":"","admin1_code":"02","admin2_code":"1891","admin3_code":"","admin4_code":"","population":"3714","elevation":"","dem":"2","timezone":"Europe/Amsterdam","modification_date":"2010-10-15"},{"geonameid":"2745774","name":"Veenendaal","asciiname":"Veenendaal","alternatenames":["Veenendaal","Venendaal"],"latitude":"52.02863","longitude":"5.55891","feature_class":"P","feature_code":"PPL","country_code":"NL","cc2":"","admin1_code":"09","admin2_code":"0345","admin3_code":"","admin4_code":"","population":"61271","elevation":"","dem":"8","timezone":"Europe/Amsterdam","modification_date":"2009-01-02"},{"geonameid":"2745783","name":"Veendam","asciiname":"Veendam","alternatenames":[""],"latitude":"53.10667","longitude":"6.87917","feature_class":"P","feature_code":"PPL","country_code":"NL","cc2":"","admin1_code":"04","admin2_code":"0047","admin3_code":"","admin4_code":"","population":"28155","elevation":"","dem":"2","timezone":"Europe/Amsterdam","modification_date":"2007-06-03"},{"geonameid":"2745800","name":"Varsseveld","asciiname":"Varsseveld","alternatenames":["Varseveld"],"latitude":"51.94333","longitude":"6.45833","feature_class":"P","feature_code":"PPL","country_code":"NL","cc2":"NL","admin1_code":"03","admin2_code":"1509","admin3_code":"","admin4_code":"","population":"6000","elevation":"","dem":"19","timezone":"Europe/Amsterdam","modification_date":"2009-01-07"},{"geonameid":"2745860","name":"Valkenswaard","asciiname":"Valkenswaard","alternatenames":["Valkenswaard","Valkeswaerd"],"latitude":"51.35083","longitude":"5.45972","feature_class":"P","feature_code":"PPL","country_code":"NL","cc2":"","admin1_code":"06","admin2_code":"0858","admin3_code":"","admin4_code":"","population":"31071","elevation":"","dem":"27","timezone":"Europe/Amsterdam","modification_date":"2007-06-03"},{"geonameid":"2745874","name":"Valkenburg","asciiname":"Valkenburg","alternatenames":["Bad Valkenburg"],"latitude":"50.86523","longitude":"5.83205","feature_class":"P","feature_code":"PPL","country_code":"NL","cc2":"","admin1_code":"05","admin2_code":"0994","admin3_code":"","admin4_code":"","population":"6020","elevation":"","dem":"72","timezone":"Europe/Amsterdam","modification_date":"2013-11-16"},{"geonameid":"2745885","name":"Valburg","asciiname":"Valburg","alternatenames":[""],"latitude":"51.91167","longitude":"5.79028","feature_class":"P","feature_code":"PPL","country_code":"NL","cc2":"","admin1_code":"03","admin2_code":"1734","admin3_code":"","admin4_code":"","population":"1678","elevation":"","dem":"11","timezone":"Europe/Amsterdam","modification_date":"2009-09-03"},{"geonameid":"2745892","name":"Vaassen","asciiname":"Vaassen","alternatenames":["Vasen"],"latitude":"52.28583","longitude":"5.96667","feature_class":"P","feature_code":"PPL","country_code":"NL","cc2":"NL","admin1_code":"03","admin2_code":"0232","admin3_code":"","admin4_code":"","population":"12719","elevation":"","dem":"15","timezone":"Europe/Amsterdam","modification_date":"2009-09-26"},{"geonameid":"2745906","name":"Vaals","asciiname":"Vaals","alternatenames":["Vaals","Vols"],"latitude":"50.77083","longitude":"6.01806","feature_class":"P","feature_code":"PPL","country_code":"NL","cc2":"","admin1_code":"05","admin2_code":"0981","admin3_code":"","admin4_code":"","population":"10224","elevation":"","dem":"203","timezone":"Europe/Amsterdam","modification_date":"2007-06-03"},{"geonameid":"2745912","name":"Utrecht","asciiname":"Utrecht","alternatenames":["Outrechte","Traiectum ad Rhenum","UTC","Utert","Utrech","Utrecht","Utrehta","Utrei","Utrekht","wu de lei zhi","yutorehito","Ουτρέχτη","Утрехт","אוטרכט","ユトレヒト","乌得勒支"],"latitude":"52.09083","longitude":"5.12222","feature_class":"P","feature_code":"PPLA","country_code":"NL","cc2":"","admin1_code":"09","admin2_code":"0344","admin3_code":"","admin4_code":"","population":"290529","elevation":"","dem":"13","timezone":"Europe/Amsterdam","modification_date":"2015-02-06"},{"geonameid":"2745926","name":"Urmond","asciiname":"Urmond","alternatenames":["Uermend"],"latitude":"50.99083","longitude":"5.77222","feature_class":"P","feature_code":"PPL","country_code":"NL","cc2":"","admin1_code":"05","admin2_code":"0971","admin3_code":"","admin4_code":"","population":"3560","elevation":"","dem":"47","timezone":"Europe/Amsterdam","modification_date":"2009-01-12"},{"geonameid":"2745932","name":"Urk","asciiname":"Urk","alternatenames":["Urk"],"latitude":"52.6625","longitude":"5.60139","feature_class":"P","feature_code":"PPL","country_code":"NL","cc2":"","admin1_code":"16","admin2_code":"0184","admin3_code":"","admin4_code":"","population":"17345","elevation":"","dem":"3","timezone":"Europe/Amsterdam","modification_date":"2007-06-03"},{"geonameid":"2745944","name":"Ulrum","asciiname":"Ulrum","alternatenames":[""],"latitude":"53.35917","longitude":"6.33333","feature_class":"P","feature_code":"PPL","country_code":"NL","cc2":"","admin1_code":"04","admin2_code":"1663","admin3_code":"","admin4_code":"","population":"11240","elevation":"","dem":"3","timezone":"Europe/Amsterdam","modification_date":"2007-06-03"},{"geonameid":"2745973","name":"Uithoorn","asciiname":"Uithoorn","alternatenames":["Uithoorn"],"latitude":"52.2375","longitude":"4.82639","feature_class":"P","feature_code":"PPL","country_code":"NL","cc2":"","admin1_code":"07","admin2_code":"0451","admin3_code":"","admin4_code":"","population":"26846","elevation":"","dem":"-4","timezone":"Europe/Amsterdam","modification_date":"2014-08-21"},{"geonameid":"2745978","name":"Uitgeest","asciiname":"Uitgeest","alternatenames":["Uitgeest"],"latitude":"52.52917","longitude":"4.70972","feature_class":"P","feature_code":"PPL","country_code":"NL","cc2":"","admin1_code":"07","admin2_code":"0450","admin3_code":"","admin4_code":"","population":"11794","elevation":"","dem":"1","timezone":"Europe/Amsterdam","modification_date":"2007-06-03"},{"geonameid":"2746005","name":"Uden","asciiname":"Uden","alternatenames":["UDE","Uden","Уден"],"latitude":"51.66083","longitude":"5.61944","feature_class":"P","feature_code":"PPL","country_code":"NL","cc2":"","admin1_code":"06","admin2_code":"0856","admin3_code":"","admin4_code":"","population":"34601","elevation":"","dem":"18","timezone":"Europe/Amsterdam","modification_date":"2010-01-29"},{"geonameid":"2746009","name":"Uddel","asciiname":"Uddel","alternatenames":[""],"latitude":"52.25917","longitude":"5.78056","feature_class":"P","feature_code":"PPL","country_code":"NL","cc2":"","admin1_code":"03","admin2_code":"0200","admin3_code":"","admin4_code":"","population":"1790","elevation":"","dem":"32","timezone":"Europe/Amsterdam","modification_date":"2009-01-12"},{"geonameid":"2746014","name":"Ubachsberg","asciiname":"Ubachsberg","alternatenames":["Ubagsberg"],"latitude":"50.85333","longitude":"5.94861","feature_class":"P","feature_code":"PPL","country_code":"NL","cc2":"NL","admin1_code":"05","admin2_code":"0986","admin3_code":"","admin4_code":"","population":"1390","elevation":"","dem":"186","timezone":"Europe/Amsterdam","modification_date":"2009-01-09"},{"geonameid":"2746023","name":"Tzummarum","asciiname":"Tzummarum","alternatenames":["Tjummarum","Tsjummearum","Tzummarum"],"latitude":"53.23733","longitude":"5.54612","feature_class":"P","feature_code":"PPL","country_code":"NL","cc2":"NL","admin1_code":"02","admin2_code":"0070","admin3_code":"","admin4_code":"","population":"1533","elevation":"","dem":"1","timezone":"Europe/Amsterdam","modification_date":"2008-10-24"},{"geonameid":"2746024","name":"Tzum","asciiname":"Tzum","alternatenames":["Tjum","Tsjom","Tzum"],"latitude":"53.15899","longitude":"5.56277","feature_class":"P","feature_code":"PPL","country_code":"NL","cc2":"NL","admin1_code":"02","admin2_code":"0070","admin3_code":"","admin4_code":"","population":"1225","elevation":"","dem":"0","timezone":"Europe/Amsterdam","modification_date":"2009-08-17"},{"geonameid":"2746038","name":"Tynaarlo","asciiname":"Tynaarlo","alternatenames":["Tinaarlo","Tinaarloo","Tynaarlo"],"latitude":"53.0775","longitude":"6.61667","feature_class":"P","feature_code":"PPL","country_code":"NL","cc2":"NL","admin1_code":"01","admin2_code":"1730","admin3_code":"","admin4_code":"","population":"1754","elevation":"","dem":"12","timezone":"Europe/Amsterdam","modification_date":"2008-05-03"},{"geonameid":"2746051","name":"Twijzelerheide","asciiname":"Twijzelerheide","alternatenames":["Twijzelerheide","Twizelerheide"],"latitude":"53.24015","longitude":"6.04591","feature_class":"P","feature_code":"PPL","country_code":"NL","cc2":"","admin1_code":"02","admin2_code":"0059","admin3_code":"","admin4_code":"","population":"2000","elevation":"","dem":"1","timezone":"Europe/Amsterdam","modification_date":"2008-10-23"},{"geonameid":"2746052","name":"Twijzel","asciiname":"Twijzel","alternatenames":["Twijzel","Twizel"],"latitude":"53.23152","longitude":"6.08952","feature_class":"P","feature_code":"PPL","country_code":"NL","cc2":"NL","admin1_code":"02","admin2_code":"0059","admin3_code":"","admin4_code":"","population":"1100","elevation":"","dem":"1","timezone":"Europe/Amsterdam","modification_date":"2008-10-23"},{"geonameid":"2746060","name":"Twello","asciiname":"Twello","alternatenames":[""],"latitude":"52.23667","longitude":"6.10278","feature_class":"P","feature_code":"PPL","country_code":"NL","cc2":"","admin1_code":"03","admin2_code":"0285","admin3_code":"","admin4_code":"","population":"13500","elevation":"","dem":"7","timezone":"Europe/Amsterdam","modification_date":"2009-03-10"},{"geonameid":"2746120","name":"Tuk","asciiname":"Tuk","alternatenames":[""],"latitude":"52.79667","longitude":"6.09444","feature_class":"P","feature_code":"PPL","country_code":"NL","cc2":"","admin1_code":"15","admin2_code":"1708","admin3_code":"","admin4_code":"","population":"1490","elevation":"","dem":"3","timezone":"Europe/Amsterdam","modification_date":"2008-12-26"},{"geonameid":"2746133","name":"Tubbergen","asciiname":"Tubbergen","alternatenames":["Tubbergen","Тубберген"],"latitude":"52.4075","longitude":"6.78472","feature_class":"P","feature_code":"PPL","country_code":"NL","cc2":"","admin1_code":"15","admin2_code":"0183","admin3_code":"","admin4_code":"","population":"20334","elevation":"","dem":"25","timezone":"Europe/Amsterdam","modification_date":"2010-01-29"},{"geonameid":"2746215","name":"Tongelre","asciiname":"Tongelre","alternatenames":["Tongelre"],"latitude":"51.44889","longitude":"5.51978","feature_class":"P","feature_code":"PPLX","country_code":"NL","cc2":"","admin1_code":"06","admin2_code":"0772","admin3_code":"","admin4_code":"","population":"19680","elevation":"","dem":"18","timezone":"Europe/Amsterdam","modification_date":"2012-01-17"},{"geonameid":"2746301","name":"Tilburg","asciiname":"Tilburg","alternatenames":["Gorad Cilburg","Tilburch","Tilburg","Tilburga","Tilburgas","Tilburgo","Tilia","di er bao","thi lburk","tilbwileuheu","tiruburufu","tylbwrkh","Горад Цілбург","Тилбург","Тілбург","تیلبورخ","ٹلبرگ","ทิลบืร์ก","ტილბურგი","ティルブルフ","蒂尔堡","틸뷔르흐"],"latitude":"51.55551","longitude":"5.0913","feature_class":"P","feature_code":"PPL","country_code":"NL","cc2":"","admin1_code":"06","admin2_code":"0855","admin3_code":"","admin4_code":"","population":"199613","elevation":"","dem":"16","timezone":"Europe/Amsterdam","modification_date":"2010-01-29"},{"geonameid":"2746304","name":"Tijnje","asciiname":"Tijnje","alternatenames":["De Tynje","Tijnje","Tynje"],"latitude":"53.03058","longitude":"5.99193","feature_class":"P","feature_code":"PPL","country_code":"NL","cc2":"NL","admin1_code":"02","admin2_code":"0086","admin3_code":"","admin4_code":"","population":"1060","elevation":"","dem":"0","timezone":"Europe/Amsterdam","modification_date":"2008-10-24"},{"geonameid":"2746311","name":"Tytsjerk","asciiname":"Tytsjerk","alternatenames":["Tietjerk","Tytsjerk"],"latitude":"53.21343","longitude":"5.90961","feature_class":"P","feature_code":"PPL","country_code":"NL","cc2":"","admin1_code":"02","admin2_code":"0737","admin3_code":"","admin4_code":"","population":"1545","elevation":"","dem":"0","timezone":"Europe/Amsterdam","modification_date":"2010-10-15"},{"geonameid":"2746331","name":"Tiel","asciiname":"Tiel","alternatenames":["Tiel","Til","Тил"],"latitude":"51.88667","longitude":"5.42917","feature_class":"P","feature_code":"PPL","country_code":"NL","cc2":"","admin1_code":"03","admin2_code":"0281","admin3_code":"","admin4_code":"","population":"40702","elevation":"","dem":"8","timezone":"Europe/Amsterdam","modification_date":"2010-01-29"},{"geonameid":"2746351","name":"Tholen","asciiname":"Tholen","alternatenames":["Tholen","Tole","Tolen","Толен"],"latitude":"51.53167","longitude":"4.22083","feature_class":"P","feature_code":"PPL","country_code":"NL","cc2":"","admin1_code":"10","admin2_code":"0716","admin3_code":"","admin4_code":"","population":"7732","elevation":"","dem":"4","timezone":"Europe/Amsterdam","modification_date":"2010-08-21"},{"geonameid":"2746354","name":"'t Hofke","asciiname":"'t Hofke","alternatenames":[""],"latitude":"51.44943","longitude":"5.51926","feature_class":"P","feature_code":"PPLX","country_code":"NL","cc2":"","admin1_code":"06","admin2_code":"0772","admin3_code":"","admin4_code":"","population":"3628","elevation":"","dem":"19","timezone":"Europe/Amsterdam","modification_date":"2009-01-11"},{"geonameid":"2746407","name":"Terschuur","asciiname":"Terschuur","alternatenames":[""],"latitude":"52.165","longitude":"5.51667","feature_class":"P","feature_code":"PPL","country_code":"NL","cc2":"","admin1_code":"03","admin2_code":"0203","admin3_code":"","admin4_code":"","population":"1480","elevation":"","dem":"6","timezone":"Europe/Amsterdam","modification_date":"2009-01-06"},{"geonameid":"2746420","name":"Terneuzen","asciiname":"Terneuzen","alternatenames":["Neuzen","Terneuze","Terneuzen","Ternezen","Тернезен"],"latitude":"51.33583","longitude":"3.82778","feature_class":"P","feature_code":"PPL","country_code":"NL","cc2":"","admin1_code":"10","admin2_code":"0715","admin3_code":"","admin4_code":"","population":"27930","elevation":"","dem":"4","timezone":"Europe/Amsterdam","modification_date":"2010-01-29"},{"geonameid":"2746424","name":"Ternaard","asciiname":"Ternaard","alternatenames":["Ternaard"],"latitude":"53.38203","longitude":"5.96523","feature_class":"P","feature_code":"PPL","country_code":"NL","cc2":"","admin1_code":"02","admin2_code":"0058","admin3_code":"","admin4_code":"","population":"1230","elevation":"","dem":"2","timezone":"Europe/Amsterdam","modification_date":"2009-08-17"},{"geonameid":"2746504","name":"Tegelen","asciiname":"Tegelen","alternatenames":["Tegele"],"latitude":"51.34417","longitude":"6.13611","feature_class":"P","feature_code":"PPL","country_code":"NL","cc2":"","admin1_code":"05","admin2_code":"0983","admin3_code":"","admin4_code":"","population":"20190","elevation":"","dem":"20","timezone":"Europe/Amsterdam","modification_date":"2009-10-12"},{"geonameid":"2746557","name":"Surhuizum","asciiname":"Surhuizum","alternatenames":["Surhuizum","Surhuzum"],"latitude":"53.20475","longitude":"6.17981","feature_class":"P","feature_code":"PPL","country_code":"NL","cc2":"","admin1_code":"02","admin2_code":"0059","admin3_code":"","admin4_code":"","population":"1300","elevation":"","dem":"1","timezone":"Europe/Amsterdam","modification_date":"2008-10-23"},{"geonameid":"2746558","name":"Surhuisterveen","asciiname":"Surhuisterveen","alternatenames":["Surhuisterveen","Surhusterfean","Surhústerfean"],"latitude":"53.18477","longitude":"6.17031","feature_class":"P","feature_code":"PPL","country_code":"NL","cc2":"","admin1_code":"02","admin2_code":"0059","admin3_code":"","admin4_code":"","population":"5700","elevation":"","dem":"0","timezone":"Europe/Amsterdam","modification_date":"2012-01-17"},{"geonameid":"2746565","name":"Sumar","asciiname":"Sumar","alternatenames":["Suameer","Sumar"],"latitude":"53.18333","longitude":"6","feature_class":"P","feature_code":"PPL","country_code":"NL","cc2":"","admin1_code":"02","admin2_code":"0737","admin3_code":"","admin4_code":"","population":"1402","elevation":"","dem":"1","timezone":"Europe/Amsterdam","modification_date":"2008-10-23"},{"geonameid":"2746596","name":"Stroe","asciiname":"Stroe","alternatenames":[""],"latitude":"52.18583","longitude":"5.69167","feature_class":"P","feature_code":"PPL","country_code":"NL","cc2":"","admin1_code":"03","admin2_code":"0203","admin3_code":"","admin4_code":"","population":"1500","elevation":"","dem":"20","timezone":"Europe/Amsterdam","modification_date":"2009-01-06"},{"geonameid":"2746609","name":"Strijen","asciiname":"Strijen","alternatenames":[""],"latitude":"51.74521","longitude":"4.55083","feature_class":"P","feature_code":"PPL","country_code":"NL","cc2":"","admin1_code":"11","admin2_code":"0617","admin3_code":"","admin4_code":"","population":"9371","elevation":"","dem":"2","timezone":"Europe/Amsterdam","modification_date":"2008-01-26"},{"geonameid":"2746705","name":"Stiens","asciiname":"Stiens","alternatenames":[""],"latitude":"53.26234","longitude":"5.75769","feature_class":"P","feature_code":"PPL","country_code":"NL","cc2":"","admin1_code":"02","admin2_code":"0081","admin3_code":"","admin4_code":"","population":"7804","elevation":"","dem":"2","timezone":"Europe/Amsterdam","modification_date":"2009-08-13"},{"geonameid":"2746748","name":"Stein","asciiname":"Stein","alternatenames":[""],"latitude":"50.96917","longitude":"5.76667","feature_class":"P","feature_code":"PPL","country_code":"NL","cc2":"","admin1_code":"05","admin2_code":"0971","admin3_code":"","admin4_code":"","population":"11290","elevation":"","dem":"61","timezone":"Europe/Amsterdam","modification_date":"2009-01-12"},{"geonameid":"2746752","name":"Steggerda","asciiname":"Steggerda","alternatenames":["Steggerden"],"latitude":"52.85734","longitude":"6.07548","feature_class":"P","feature_code":"PPL","country_code":"NL","cc2":"NL","admin1_code":"02","admin2_code":"0098","admin3_code":"","admin4_code":"","population":"1111","elevation":"","dem":"2","timezone":"Europe/Amsterdam","modification_date":"2008-05-10"},{"geonameid":"2746761","name":"Steenwijkerwold","asciiname":"Steenwijkerwold","alternatenames":["Kerkbuurt"],"latitude":"52.80417","longitude":"6.06389","feature_class":"P","feature_code":"PPL","country_code":"NL","cc2":"NL","admin1_code":"15","admin2_code":"1708","admin3_code":"","admin4_code":"","population":"1730","elevation":"","dem":"12","timezone":"Europe/Amsterdam","modification_date":"2008-12-26"},{"geonameid":"2746766","name":"Steenwijk","asciiname":"Steenwijk","alternatenames":["Stienwyk","si teng wei ke","斯滕韋克"],"latitude":"52.7875","longitude":"6.12083","feature_class":"P","feature_code":"PPL","country_code":"NL","cc2":"","admin1_code":"15","admin2_code":"1708","admin3_code":"","admin4_code":"","population":"17138","elevation":"","dem":"7","timezone":"Europe/Amsterdam","modification_date":"2008-12-26"},{"geonameid":"2746804","name":"Steenbergen","asciiname":"Steenbergen","alternatenames":["Steenbergen"],"latitude":"51.58417","longitude":"4.31944","feature_class":"P","feature_code":"PPL","country_code":"NL","cc2":"","admin1_code":"06","admin2_code":"0851","admin3_code":"","admin4_code":"","population":"23582","elevation":"","dem":"2","timezone":"Europe/Amsterdam","modification_date":"2007-06-03"},{"geonameid":"2746839","name":"Staphorst","asciiname":"Staphorst","alternatenames":["Staphorst"],"latitude":"52.645","longitude":"6.21111","feature_class":"P","feature_code":"PPL","country_code":"NL","cc2":"","admin1_code":"15","admin2_code":"0180","admin3_code":"","admin4_code":"","population":"15765","elevation":"","dem":"0","timezone":"Europe/Amsterdam","modification_date":"2007-06-03"},{"geonameid":"2746860","name":"Stadskanaal","asciiname":"Stadskanaal","alternatenames":["Afraai","Stadskanaal"],"latitude":"52.98947","longitude":"6.9504","feature_class":"P","feature_code":"PPL","country_code":"NL","cc2":"NL","admin1_code":"04","admin2_code":"0037","admin3_code":"","admin4_code":"","population":"20000","elevation":"","dem":"5","timezone":"Europe/Amsterdam","modification_date":"2010-04-28"},{"geonameid":"2746932","name":"Spijkenisse","asciiname":"Spijkenisse","alternatenames":["Spijkenisse"],"latitude":"51.845","longitude":"4.32917","feature_class":"P","feature_code":"PPL","country_code":"NL","cc2":"","admin1_code":"11","admin2_code":"1930","admin3_code":"","admin4_code":"","population":"74988","elevation":"","dem":"1","timezone":"Europe/Amsterdam","modification_date":"2015-05-25"},{"geonameid":"2746974","name":"Spankeren","asciiname":"Spankeren","alternatenames":[""],"latitude":"52.05833","longitude":"6.1125","feature_class":"P","feature_code":"PPL","country_code":"NL","cc2":"","admin1_code":"03","admin2_code":"0275","admin3_code":"","admin4_code":"","population":"1058","elevation":"","dem":"13","timezone":"Europe/Amsterdam","modification_date":"2009-09-03"},{"geonameid":"2746981","name":"Spakenburg","asciiname":"Spakenburg","alternatenames":["Bunschoten-Spakenburg","Spakenburg"],"latitude":"52.25","longitude":"5.36667","feature_class":"P","feature_code":"PPLX","country_code":"NL","cc2":"","admin1_code":"09","admin2_code":"0313","admin3_code":"","admin4_code":"","population":"3700","elevation":"","dem":"2","timezone":"Europe/Amsterdam","modification_date":"2013-06-04"},{"geonameid":"2747010","name":"Son","asciiname":"Son","alternatenames":["Son en Breugel"],"latitude":"51.51136","longitude":"5.49282","feature_class":"P","feature_code":"PPL","country_code":"NL","cc2":"","admin1_code":"06","admin2_code":"0848","admin3_code":"","admin4_code":"","population":"10550","elevation":"","dem":"15","timezone":"Europe/Amsterdam","modification_date":"2008-12-26"},{"geonameid":"2747021","name":"Someren","asciiname":"Someren","alternatenames":["Someren","Zomere"],"latitude":"51.385","longitude":"5.71111","feature_class":"P","feature_code":"PPL","country_code":"NL","cc2":"","admin1_code":"06","admin2_code":"0847","admin3_code":"","admin4_code":"","population":"18037","elevation":"","dem":"27","timezone":"Europe/Amsterdam","modification_date":"2007-06-03"},{"geonameid":"2747034","name":"Soest","asciiname":"Soest","alternatenames":["Sust","Zoest","Зоест","Суст","Սուստ"],"latitude":"52.17333","longitude":"5.29167","feature_class":"P","feature_code":"PPL","country_code":"NL","cc2":"","admin1_code":"09","admin2_code":"0342","admin3_code":"","admin4_code":"","population":"45021","elevation":"","dem":"6","timezone":"Europe/Amsterdam","modification_date":"2010-01-29"},{"geonameid":"2747063","name":"Sneek","asciiname":"Sneek","alternatenames":["Sneek","Snek","Sneêk","Snits","asnyk","si nei ke","suneku","Снек","اسنیک","スネーク","斯內克"],"latitude":"53.03297","longitude":"5.6589","feature_class":"P","feature_code":"PPL","country_code":"NL","cc2":"","admin1_code":"02","admin2_code":"1900","admin3_code":"","admin4_code":"","population":"32811","elevation":"","dem":"6","timezone":"Europe/Amsterdam","modification_date":"2012-04-14"},{"geonameid":"2747109","name":"Sluiskil","asciiname":"Sluiskil","alternatenames":[""],"latitude":"51.27833","longitude":"3.83611","feature_class":"P","feature_code":"PPL","country_code":"NL","cc2":"","admin1_code":"10","admin2_code":"0715","admin3_code":"","admin4_code":"","population":"2411","elevation":"","dem":"3","timezone":"Europe/Amsterdam","modification_date":"2008-05-02"},{"geonameid":"2747117","name":"Sluis","asciiname":"Sluis","alternatenames":["Sljojs","Sluis","Слёйс"],"latitude":"51.30833","longitude":"3.38611","feature_class":"P","feature_code":"PPL","country_code":"NL","cc2":"","admin1_code":"10","admin2_code":"1714","admin3_code":"","admin4_code":"","population":"2322","elevation":"","dem":"6","timezone":"Europe/Amsterdam","modification_date":"2013-01-08"},{"geonameid":"2747143","name":"Slochteren","asciiname":"Slochteren","alternatenames":["Slochteren"],"latitude":"53.22078","longitude":"6.80547","feature_class":"P","feature_code":"PPL","country_code":"NL","cc2":"","admin1_code":"04","admin2_code":"0040","admin3_code":"","admin4_code":"","population":"14696","elevation":"","dem":"-1","timezone":"Europe/Amsterdam","modification_date":"2009-12-05"},{"geonameid":"2747169","name":"Sliedrecht","asciiname":"Sliedrecht","alternatenames":["Shedrecht","Slidrekht","Слидрехт"],"latitude":"51.82083","longitude":"4.77639","feature_class":"P","feature_code":"PPL","country_code":"NL","cc2":"","admin1_code":"11","admin2_code":"0610","admin3_code":"","admin4_code":"","population":"23854","elevation":"","dem":"-1","timezone":"Europe/Amsterdam","modification_date":"2010-01-29"},{"geonameid":"2747182","name":"Sleen","asciiname":"Sleen","alternatenames":[""],"latitude":"52.77167","longitude":"6.80278","feature_class":"P","feature_code":"PPL","country_code":"NL","cc2":"","admin1_code":"01","admin2_code":"0109","admin3_code":"","admin4_code":"","population":"2287","elevation":"","dem":"18","timezone":"Europe/Amsterdam","modification_date":"2009-12-09"},{"geonameid":"2747203","name":"Sittard","asciiname":"Sittard","alternatenames":["Sitardas","Sittard","Zittert","xi ta de","Ситтард","錫塔德"],"latitude":"50.99833","longitude":"5.86944","feature_class":"P","feature_code":"PPL","country_code":"NL","cc2":"","admin1_code":"05","admin2_code":"1883","admin3_code":"","admin4_code":"","population":"48400","elevation":"","dem":"48","timezone":"Europe/Amsterdam","modification_date":"2009-01-05"},{"geonameid":"2747227","name":"Sint-Oedenrode","asciiname":"Sint-Oedenrode","alternatenames":["Sint-Oedenrode"],"latitude":"51.5675","longitude":"5.45972","feature_class":"P","feature_code":"PPL","country_code":"NL","cc2":"","admin1_code":"06","admin2_code":"0846","admin3_code":"","admin4_code":"","population":"16931","elevation":"","dem":"11","timezone":"Europe/Amsterdam","modification_date":"2007-06-03"},{"geonameid":"2747229","name":"Sint Odiliënberg","asciiname":"Sint Odilienberg","alternatenames":[""],"latitude":"51.14333","longitude":"6","feature_class":"P","feature_code":"PPL","country_code":"NL","cc2":"","admin1_code":"05","admin2_code":"1669","admin3_code":"","admin4_code":"","population":"3576","elevation":"","dem":"31","timezone":"Europe/Amsterdam","modification_date":"2009-01-04"},{"geonameid":"2747231","name":"Sint Nicolaasga","asciiname":"Sint Nicolaasga","alternatenames":["Sint Nicolaasga","Sint Nikelsgea","Sint Nikolaasga","Sint Nyk"],"latitude":"52.92293","longitude":"5.74242","feature_class":"P","feature_code":"PPL","country_code":"NL","cc2":"NL","admin1_code":"02","admin2_code":"1921","admin3_code":"","admin4_code":"","population":"3270","elevation":"","dem":"3","timezone":"Europe/Amsterdam","modification_date":"2015-05-25"},{"geonameid":"2747234","name":"Sint-Michielsgestel","asciiname":"Sint-Michielsgestel","alternatenames":["Saint-Michel-Gestel","Sint-Mixilsxestel","Սինտ-Միխիլսխեստել"],"latitude":"51.64167","longitude":"5.35278","feature_class":"P","feature_code":"PPL","country_code":"NL","cc2":"","admin1_code":"06","admin2_code":"0845","admin3_code":"","admin4_code":"","population":"10380","elevation":"","dem":"7","timezone":"Europe/Amsterdam","modification_date":"2009-01-05"},{"geonameid":"2747262","name":"Sint Jansklooster","asciiname":"Sint Jansklooster","alternatenames":[""],"latitude":"52.6775","longitude":"6.00556","feature_class":"P","feature_code":"PPL","country_code":"NL","cc2":"","admin1_code":"15","admin2_code":"1708","admin3_code":"","admin4_code":"","population":"1190","elevation":"","dem":"10","timezone":"Europe/Amsterdam","modification_date":"2008-12-26"},{"geonameid":"2747270","name":"Sint Jacobiparochie","asciiname":"Sint Jacobiparochie","alternatenames":[""],"latitude":"53.27291","longitude":"5.60354","feature_class":"P","feature_code":"PPL","country_code":"NL","cc2":"","admin1_code":"02","admin2_code":"0063","admin3_code":"","admin4_code":"","population":"1370","elevation":"","dem":"3","timezone":"Europe/Amsterdam","modification_date":"2008-01-22"},{"geonameid":"2747290","name":"Sint Anthonis","asciiname":"Sint Anthonis","alternatenames":["Antonis","Sint Anthonis","Sint Antonis","Sintunnis"],"latitude":"51.62667","longitude":"5.88194","feature_class":"P","feature_code":"PPL","country_code":"NL","cc2":"","admin1_code":"06","admin2_code":"1702","admin3_code":"","admin4_code":"","population":"11887","elevation":"","dem":"20","timezone":"Europe/Amsterdam","modification_date":"2007-06-03"},{"geonameid":"2747297","name":"Sint Annaparochie","asciiname":"Sint Annaparochie","alternatenames":["Annaparochie","Sint Annaparochie","Sint Anne"],"latitude":"53.2762","longitude":"5.65727","feature_class":"P","feature_code":"PPL","country_code":"NL","cc2":"NL","admin1_code":"02","admin2_code":"0063","admin3_code":"","admin4_code":"","population":"3990","elevation":"","dem":"1","timezone":"Europe/Amsterdam","modification_date":"2008-10-25"},{"geonameid":"2747312","name":"Simpelveld","asciiname":"Simpelveld","alternatenames":["Simpelveld","Zumpelveld"],"latitude":"50.83417","longitude":"5.98194","feature_class":"P","feature_code":"PPL","country_code":"NL","cc2":"","admin1_code":"05","admin2_code":"0965","admin3_code":"","admin4_code":"","population":"11424","elevation":"","dem":"138","timezone":"Europe/Amsterdam","modification_date":"2007-06-03"},{"geonameid":"2747348","name":"Sibbe","asciiname":"Sibbe","alternatenames":[""],"latitude":"50.84417","longitude":"5.82639","feature_class":"P","feature_code":"PPL","country_code":"NL","cc2":"","admin1_code":"05","admin2_code":"0994","admin3_code":"","admin4_code":"","population":"1080","elevation":"","dem":"153","timezone":"Europe/Amsterdam","modification_date":"2009-09-30"},{"geonameid":"2747351","name":"'s-Hertogenbosch","asciiname":"'s-Hertogenbosch","alternatenames":["'s Bosch","'s-Hertogenbosch","Bois-le-Duc","Bolduque","Boscoducale","De Bosk","Den Bosch","Hertogenbosch","Herzogenbusch","Khertogenbos","Oeteldonk","Silva Ducis","Хертогенбос","’s-Hertogenbosch"],"latitude":"51.69917","longitude":"5.30417","feature_class":"P","feature_code":"PPLA","country_code":"NL","cc2":"","admin1_code":"06","admin2_code":"0796","admin3_code":"","admin4_code":"","population":"134520","elevation":"","dem":"7","timezone":"Europe/Amsterdam","modification_date":"2015-02-06"},{"geonameid":"2747357","name":"'s-Heerenberg","asciiname":"'s-Heerenberg","alternatenames":["s-Kherenberg","с-Херенберг"],"latitude":"51.8767","longitude":"6.25877","feature_class":"P","feature_code":"PPL","country_code":"NL","cc2":"","admin1_code":"03","admin2_code":"1955","admin3_code":"","admin4_code":"","population":"8000","elevation":"","dem":"16","timezone":"Europe/Amsterdam","modification_date":"2015-05-28"},{"geonameid":"2747364","name":"'s-Gravenzande","asciiname":"'s-Gravenzande","alternatenames":[""],"latitude":"52.00167","longitude":"4.16528","feature_class":"P","feature_code":"PPL","country_code":"NL","cc2":"","admin1_code":"11","admin2_code":"1783","admin3_code":"","admin4_code":"","population":"19190","elevation":"","dem":"3","timezone":"Europe/Amsterdam","modification_date":"2011-08-11"},{"geonameid":"2747371","name":"'s Gravenmoer","asciiname":"'s Gravenmoer","alternatenames":["'s Gravemoer"],"latitude":"51.65594","longitude":"4.94076","feature_class":"P","feature_code":"PPL","country_code":"NL","cc2":"NL","admin1_code":"06","admin2_code":"0766","admin3_code":"","admin4_code":"","population":"2200","elevation":"","dem":"3","timezone":"Europe/Amsterdam","modification_date":"2008-02-01"},{"geonameid":"2747373","name":"The Hague","asciiname":"The Hague","alternatenames":["'s-Gravenhage","A Haia","An Haig","An Háig","Chage","D'n Haog","De Haach","Den Haag","Gaaga","HAG","Haag","Hag","Haga","Hago","Hague","Hága","Hāga","Khag","Khaga","L'Aia","La Haia","La Haya","La Haye","Lahey","The Hague","haaga","hagu","hai ya","heigeu","lahay","lahh","Χάγη","Гаага","Хаг","Хага","האג","لاهاي","لاهه","ჰააგა","ハーグ","海牙","헤이그"],"latitude":"52.07667","longitude":"4.29861","feature_class":"P","feature_code":"PPLG","country_code":"NL","cc2":"","admin1_code":"11","admin2_code":"0518","admin3_code":"","admin4_code":"","population":"474292","elevation":"","dem":"4","timezone":"Europe/Amsterdam","modification_date":"2014-06-28"},{"geonameid":"2747380","name":"Sexbierum","asciiname":"Sexbierum","alternatenames":["Seisbierrum","Sexbierum","Sixbierum"],"latitude":"53.21823","longitude":"5.48402","feature_class":"P","feature_code":"PPL","country_code":"NL","cc2":"","admin1_code":"02","admin2_code":"0070","admin3_code":"","admin4_code":"","population":"1759","elevation":"","dem":"4","timezone":"Europe/Amsterdam","modification_date":"2012-01-17"},{"geonameid":"2747400","name":"Sellingen","asciiname":"Sellingen","alternatenames":[""],"latitude":"52.94583","longitude":"7.15139","feature_class":"P","feature_code":"PPLA2","country_code":"NL","cc2":"","admin1_code":"04","admin2_code":"0048","admin3_code":"","admin4_code":"","population":"1070","elevation":"","dem":"7","timezone":"Europe/Amsterdam","modification_date":"2013-06-30"},{"geonameid":"2747506","name":"Schoonhoven","asciiname":"Schoonhoven","alternatenames":["Sconhouen"],"latitude":"51.9475","longitude":"4.84861","feature_class":"P","feature_code":"PPL","country_code":"NL","cc2":"","admin1_code":"11","admin2_code":"1931","admin3_code":"","admin4_code":"","population":"12352","elevation":"","dem":"1","timezone":"Europe/Amsterdam","modification_date":"2015-05-25"},{"geonameid":"2747515","name":"Schoonebeek","asciiname":"Schoonebeek","alternatenames":["Oud Schoonebeek"],"latitude":"52.6625","longitude":"6.88472","feature_class":"P","feature_code":"PPL","country_code":"NL","cc2":"NL","admin1_code":"01","admin2_code":"0114","admin3_code":"","admin4_code":"","population":"4997","elevation":"","dem":"16","timezone":"Europe/Amsterdam","modification_date":"2008-01-25"},{"geonameid":"2747550","name":"Schinveld","asciiname":"Schinveld","alternatenames":[""],"latitude":"50.96917","longitude":"5.97917","feature_class":"P","feature_code":"PPL","country_code":"NL","cc2":"","admin1_code":"05","admin2_code":"0881","admin3_code":"","admin4_code":"","population":"4960","elevation":"","dem":"59","timezone":"Europe/Amsterdam","modification_date":"2009-01-02"},{"geonameid":"2747551","name":"Schin op Geul","asciiname":"Schin op Geul","alternatenames":["Schin op Geule"],"latitude":"50.85417","longitude":"5.86944","feature_class":"P","feature_code":"PPL","country_code":"NL","cc2":"NL","admin1_code":"05","admin2_code":"0994","admin3_code":"","admin4_code":"","population":"1300","elevation":"","dem":"77","timezone":"Europe/Amsterdam","modification_date":"2009-09-30"},{"geonameid":"2747553","name":"Schinnen","asciiname":"Schinnen","alternatenames":[""],"latitude":"50.94333","longitude":"5.88889","feature_class":"P","feature_code":"PPL","country_code":"NL","cc2":"","admin1_code":"05","admin2_code":"0962","admin3_code":"","admin4_code":"","population":"2970","elevation":"","dem":"78","timezone":"Europe/Amsterdam","modification_date":"2009-01-02"},{"geonameid":"2747584","name":"Schijndel","asciiname":"Schijndel","alternatenames":["Schijndel"],"latitude":"51.6225","longitude":"5.43194","feature_class":"P","feature_code":"PPL","country_code":"NL","cc2":"","admin1_code":"06","admin2_code":"0844","admin3_code":"","admin4_code":"","population":"23239","elevation":"","dem":"10","timezone":"Europe/Amsterdam","modification_date":"2007-06-03"},{"geonameid":"2747591","name":"Schiermonnikoog","asciiname":"Schiermonnikoog","alternatenames":["Oosterburen","Schiermonnikoog","Skiermuntseach","Skiermûntseach"],"latitude":"53.48025","longitude":"6.15209","feature_class":"P","feature_code":"PPLA2","country_code":"NL","cc2":"","admin1_code":"02","admin2_code":"0088","admin3_code":"","admin4_code":"","population":"986","elevation":"","dem":"5","timezone":"Europe/Amsterdam","modification_date":"2013-11-08"},{"geonameid":"2747596","name":"Schiedam","asciiname":"Schiedam","alternatenames":["Schidamas","Schiedam","Skhidam","Skiedam","Sxidam","askhydam","si xi dan","ski dam","Схидам","Շխիդամ","اسخیدام","สกีดาม","斯希丹"],"latitude":"51.91917","longitude":"4.38889","feature_class":"P","feature_code":"PPL","country_code":"NL","cc2":"","admin1_code":"11","admin2_code":"0606","admin3_code":"","admin4_code":"","population":"75438","elevation":"","dem":"-2","timezone":"Europe/Amsterdam","modification_date":"2007-06-03"},{"geonameid":"2747599","name":"Scheveningen","asciiname":"Scheveningen","alternatenames":["Scheveningen","Sheveningen","Skheveningen","askhyfnyngn","si he fu ning en","skwwnyngn","suhefeningen","Схевенинген","Шевенинген","סכוונינגן","اسخیفنینگن","スヘフェニンゲン","斯赫弗宁恩"],"latitude":"52.10461","longitude":"4.27557","feature_class":"P","feature_code":"PPL","country_code":"NL","cc2":"","admin1_code":"11","admin2_code":"0518","admin3_code":"","admin4_code":"","population":"23000","elevation":"","dem":"6","timezone":"Europe/Amsterdam","modification_date":"2010-01-10"},{"geonameid":"2747671","name":"Scharnegoutum","asciiname":"Scharnegoutum","alternatenames":[""],"latitude":"53.06051","longitude":"5.67822","feature_class":"P","feature_code":"PPL","country_code":"NL","cc2":"","admin1_code":"02","admin2_code":"1900","admin3_code":"","admin4_code":"","population":"1580","elevation":"","dem":"2","timezone":"Europe/Amsterdam","modification_date":"2012-04-14"},{"geonameid":"2747680","name":"Scharendijke","asciiname":"Scharendijke","alternatenames":["Skharendejke","Схарендейке"],"latitude":"51.73583","longitude":"3.84306","feature_class":"P","feature_code":"PPL","country_code":"NL","cc2":"","admin1_code":"10","admin2_code":"1676","admin3_code":"","admin4_code":"","population":"1347","elevation":"","dem":"1","timezone":"Europe/Amsterdam","modification_date":"2010-09-07"},{"geonameid":"2747704","name":"Schalkhaar","asciiname":"Schalkhaar","alternatenames":["Schalkhaap"],"latitude":"52.26833","longitude":"6.19444","feature_class":"P","feature_code":"PPL","country_code":"NL","cc2":"NL","admin1_code":"15","admin2_code":"0150","admin3_code":"","admin4_code":"","population":"4610","elevation":"","dem":"9","timezone":"Europe/Amsterdam","modification_date":"2008-09-24"},{"geonameid":"2747713","name":"Schaijk","asciiname":"Schaijk","alternatenames":["Scadewic","Schaaik","Schadewijk","Schaik","Schayk"],"latitude":"51.74583","longitude":"5.63194","feature_class":"P","feature_code":"PPL","country_code":"NL","cc2":"NL","admin1_code":"06","admin2_code":"1685","admin3_code":"","admin4_code":"","population":"6840","elevation":"","dem":"13","timezone":"Europe/Amsterdam","modification_date":"2014-01-10"},{"geonameid":"2747720","name":"Schagen","asciiname":"Schagen","alternatenames":["Schagen","Skagen","Skhagen","Sxagen","si ha heng","Схаген","Շխագեն","斯哈亨"],"latitude":"52.7875","longitude":"4.79861","feature_class":"P","feature_code":"PPL","country_code":"NL","cc2":"","admin1_code":"07","admin2_code":"0441","admin3_code":"","admin4_code":"","population":"18930","elevation":"","dem":"3","timezone":"Europe/Amsterdam","modification_date":"2007-06-03"},{"geonameid":"2747749","name":"Sas van Gent","asciiname":"Sas van Gent","alternatenames":[""],"latitude":"51.2275","longitude":"3.79861","feature_class":"P","feature_code":"PPL","country_code":"NL","cc2":"","admin1_code":"10","admin2_code":"0715","admin3_code":"","admin4_code":"","population":"3856","elevation":"","dem":"5","timezone":"Europe/Amsterdam","modification_date":"2008-05-02"},{"geonameid":"2747751","name":"Sassenheim","asciiname":"Sassenheim","alternatenames":[""],"latitude":"52.225","longitude":"4.52222","feature_class":"P","feature_code":"PPL","country_code":"NL","cc2":"","admin1_code":"11","admin2_code":"1525","admin3_code":"","admin4_code":"","population":"14817","elevation":"","dem":"4","timezone":"Europe/Amsterdam","modification_date":"2007-06-03"},{"geonameid":"2747758","name":"Sappemeer","asciiname":"Sappemeer","alternatenames":[""],"latitude":"53.16417","longitude":"6.79028","feature_class":"P","feature_code":"PPL","country_code":"NL","cc2":"","admin1_code":"04","admin2_code":"0018","admin3_code":"","admin4_code":"","population":"8298","elevation":"","dem":"2","timezone":"Europe/Amsterdam","modification_date":"2009-01-09"},{"geonameid":"2747835","name":"Ruinen","asciiname":"Ruinen","alternatenames":[""],"latitude":"52.7625","longitude":"6.35417","feature_class":"P","feature_code":"PPL","country_code":"NL","cc2":"NL","admin1_code":"01","admin2_code":"1690","admin3_code":"","admin4_code":"","population":"3675","elevation":"","dem":"7","timezone":"Europe/Amsterdam","modification_date":"2014-05-01"},{"geonameid":"2747858","name":"Rucphen","asciiname":"Rucphen","alternatenames":["Rukfen"],"latitude":"51.53167","longitude":"4.55833","feature_class":"P","feature_code":"PPL","country_code":"NL","cc2":"","admin1_code":"06","admin2_code":"0840","admin3_code":"","admin4_code":"","population":"22641","elevation":"","dem":"12","timezone":"Europe/Amsterdam","modification_date":"2007-06-03"},{"geonameid":"2747865","name":"Rozendaal","asciiname":"Rozendaal","alternatenames":["Roosendaal","Rosendaal"],"latitude":"52.00583","longitude":"5.9625","feature_class":"P","feature_code":"PPL","country_code":"NL","cc2":"NL","admin1_code":"03","admin2_code":"0277","admin3_code":"","admin4_code":"","population":"1496","elevation":"","dem":"48","timezone":"Europe/Amsterdam","modification_date":"2009-09-03"},{"geonameid":"2747886","name":"Rottevalle","asciiname":"Rottevalle","alternatenames":["Rottefalle","Rottevalle"],"latitude":"53.14523","longitude":"6.10411","feature_class":"P","feature_code":"PPL","country_code":"NL","cc2":"","admin1_code":"02","admin2_code":"0090","admin3_code":"","admin4_code":"","population":"1357","elevation":"","dem":"1","timezone":"Europe/Amsterdam","modification_date":"2009-01-02"},{"geonameid":"2747891","name":"Rotterdam","asciiname":"Rotterdam","alternatenames":["Gorad Ratehrdam","RTM","Roterdam","Roterdama","Roterdamas","Roterdami","Roterdamo","Roterdan","Roterdao","Roterdão","Roterntam","Roterodamum","Rotterdam","Rottérdam","Róterdam","Róterdan","loteleudam","lu te dan","rattartem","rotaradema","rotterudamu","rtrdam","rwtrdam","rwtrdm","rxt the xr dam","Ρότερνταμ","Горад Ратэрдам","Ротердам","Роттердам","ראטערדאם","רוטרדם","راٹرڈیم","رتردام","روتردام","ܪܘܛܪܕܐܡ","रॉटरडॅम","ராட்டர்டேம்","รอตเทอร์ดาม","ရော်တာဒမ်မြို့","როტერდამი","ロッテルダム","鹿特丹","로테르담"],"latitude":"51.9225","longitude":"4.47917","feature_class":"P","feature_code":"PPL","country_code":"NL","cc2":"","admin1_code":"11","admin2_code":"0599","admin3_code":"","admin4_code":"","population":"598199","elevation":"","dem":"9","timezone":"Europe/Amsterdam","modification_date":"2013-06-14"},{"geonameid":"2747930","name":"Roosendaal","asciiname":"Roosendaal","alternatenames":["Roosendaal","Rosendael","Rozendal","Rozendal'","ZYO","luo sen da er","ro sen dal","rozendaru","Розендал","Розендаль","روزن‌دال","โรเซนดาล","ローゼンダール","罗森达尔"],"latitude":"51.53083","longitude":"4.46528","feature_class":"P","feature_code":"PPL","country_code":"NL","cc2":"","admin1_code":"06","admin2_code":"1674","admin3_code":"","admin4_code":"","population":"77725","elevation":"","dem":"4","timezone":"Europe/Amsterdam","modification_date":"2010-01-29"},{"geonameid":"2747938","name":"Reduzum","asciiname":"Reduzum","alternatenames":["Reduzum","Roardahuzum","Roordahuizum"],"latitude":"53.11775","longitude":"5.78765","feature_class":"P","feature_code":"PPL","country_code":"NL","cc2":"","admin1_code":"02","admin2_code":"0080","admin3_code":"","admin4_code":"","population":"1099","elevation":"","dem":"2","timezone":"Europe/Amsterdam","modification_date":"2015-06-14"},{"geonameid":"2748000","name":"Roermond","asciiname":"Roermond","alternatenames":["Remunj","Reurmond","Roermond","Ruremonde","Rurmond","Rurmonda","Rurmondas","lu er meng de","rurumonto","rwrmwnd","Рурмонд","Рурмонда","رورموند","ルールモント","鲁尔蒙德"],"latitude":"51.19417","longitude":"5.9875","feature_class":"P","feature_code":"PPL","country_code":"NL","cc2":"","admin1_code":"05","admin2_code":"0957","admin3_code":"","admin4_code":"","population":"44975","elevation":"","dem":"31","timezone":"Europe/Amsterdam","modification_date":"2010-01-29"},{"geonameid":"2748051","name":"Rinsumageast","asciiname":"Rinsumageast","alternatenames":["Rinsumageast","Rinsumageest"],"latitude":"53.29695","longitude":"5.94931","feature_class":"P","feature_code":"PPL","country_code":"NL","cc2":"","admin1_code":"02","admin2_code":"1891","admin3_code":"","admin4_code":"","population":"1131","elevation":"","dem":"1","timezone":"Europe/Amsterdam","modification_date":"2010-09-17"},{"geonameid":"2748076","name":"Rijswijk","asciiname":"Rijswijk","alternatenames":[""],"latitude":"52.03634","longitude":"4.32501","feature_class":"P","feature_code":"PPL","country_code":"NL","cc2":"","admin1_code":"11","admin2_code":"0603","admin3_code":"","admin4_code":"","population":"47299","elevation":"","dem":"1","timezone":"Europe/Amsterdam","modification_date":"2008-01-21"},{"geonameid":"2748104","name":"Rijnsburg","asciiname":"Rijnsburg","alternatenames":[""],"latitude":"52.19","longitude":"4.44167","feature_class":"P","feature_code":"PPL","country_code":"NL","cc2":"","admin1_code":"11","admin2_code":"0537","admin3_code":"","admin4_code":"","population":"14925","elevation":"","dem":"2","timezone":"Europe/Amsterdam","modification_date":"2007-06-03"},{"geonameid":"2748172","name":"Ridderkerk","asciiname":"Ridderkerk","alternatenames":["Bidderkerk","Ridderkerk","Риддеркерк"],"latitude":"51.8725","longitude":"4.60278","feature_class":"P","feature_code":"PPL","country_code":"NL","cc2":"","admin1_code":"11","admin2_code":"0597","admin3_code":"","admin4_code":"","population":"45189","elevation":"","dem":"0","timezone":"Europe/Amsterdam","modification_date":"2014-02-18"},{"geonameid":"2748178","name":"Rhoon","asciiname":"Rhoon","alternatenames":["Roon"],"latitude":"51.8575","longitude":"4.42222","feature_class":"P","feature_code":"PPL","country_code":"NL","cc2":"NL","admin1_code":"11","admin2_code":"0613","admin3_code":"","admin4_code":"","population":"18250","elevation":"","dem":"1","timezone":"Europe/Amsterdam","modification_date":"2007-11-01"},{"geonameid":"2748185","name":"Rhenen","asciiname":"Rhenen","alternatenames":["Renen","Reynen","lei nen","Ռեյնեն","雷嫩"],"latitude":"51.95917","longitude":"5.56806","feature_class":"P","feature_code":"PPL","country_code":"NL","cc2":"","admin1_code":"09","admin2_code":"0340","admin3_code":"","admin4_code":"","population":"18061","elevation":"","dem":"31","timezone":"Europe/Amsterdam","modification_date":"2007-06-03"},{"geonameid":"2748201","name":"Rheden","asciiname":"Rheden","alternatenames":[""],"latitude":"52.005","longitude":"6.02917","feature_class":"P","feature_code":"PPL","country_code":"NL","cc2":"","admin1_code":"03","admin2_code":"0275","admin3_code":"","admin4_code":"","population":"7450","elevation":"","dem":"17","timezone":"Europe/Amsterdam","modification_date":"2009-09-03"},{"geonameid":"2748208","name":"Reuver","asciiname":"Reuver","alternatenames":[""],"latitude":"51.28417","longitude":"6.07778","feature_class":"P","feature_code":"PPL","country_code":"NL","cc2":"","admin1_code":"05","admin2_code":"0889","admin3_code":"","admin4_code":"","population":"6212","elevation":"","dem":"27","timezone":"Europe/Amsterdam","modification_date":"2009-01-04"},{"geonameid":"2748236","name":"Renkum","asciiname":"Renkum","alternatenames":["Renkum"],"latitude":"51.97667","longitude":"5.73333","feature_class":"P","feature_code":"PPL","country_code":"NL","cc2":"","admin1_code":"03","admin2_code":"0274","admin3_code":"","admin4_code":"","population":"9421","elevation":"","dem":"22","timezone":"Europe/Amsterdam","modification_date":"2013-04-09"},{"geonameid":"2748240","name":"Renesse","asciiname":"Renesse","alternatenames":["Renesse","Ренессе"],"latitude":"51.7325","longitude":"3.775","feature_class":"P","feature_code":"PPL","country_code":"NL","cc2":"","admin1_code":"10","admin2_code":"1676","admin3_code":"","admin4_code":"","population":"1583","elevation":"","dem":"4","timezone":"Europe/Amsterdam","modification_date":"2010-01-20"},{"geonameid":"2748280","name":"Reeuwijk","asciiname":"Reeuwijk","alternatenames":[""],"latitude":"52.04667","longitude":"4.725","feature_class":"P","feature_code":"PPL","country_code":"NL","cc2":"","admin1_code":"11","admin2_code":"1901","admin3_code":"","admin4_code":"","population":"12817","elevation":"","dem":"-1","timezone":"Europe/Amsterdam","modification_date":"2012-04-14"},{"geonameid":"2748286","name":"Reek","asciiname":"Reek","alternatenames":[""],"latitude":"51.74583","longitude":"5.68194","feature_class":"P","feature_code":"PPL","country_code":"NL","cc2":"","admin1_code":"06","admin2_code":"1685","admin3_code":"","admin4_code":"","population":"1600","elevation":"","dem":"12","timezone":"Europe/Amsterdam","modification_date":"2014-01-10"},{"geonameid":"2748329","name":"Randwijk","asciiname":"Randwijk","alternatenames":[""],"latitude":"51.95333","longitude":"5.70833","feature_class":"P","feature_code":"PPL","country_code":"NL","cc2":"","admin1_code":"03","admin2_code":"1734","admin3_code":"","admin4_code":"","population":"1487","elevation":"","dem":"9","timezone":"Europe/Amsterdam","modification_date":"2009-09-03"},{"geonameid":"2748371","name":"Raalte","asciiname":"Raalte","alternatenames":["Raalt","Raalte","Раалт"],"latitude":"52.38583","longitude":"6.275","feature_class":"P","feature_code":"PPL","country_code":"NL","cc2":"","admin1_code":"15","admin2_code":"0177","admin3_code":"","admin4_code":"","population":"20015","elevation":"","dem":"9","timezone":"Europe/Amsterdam","modification_date":"2010-01-29"},{"geonameid":"2748392","name":"Putten","asciiname":"Putten","alternatenames":["Putten","Путтен"],"latitude":"52.25917","longitude":"5.60694","feature_class":"P","feature_code":"PPL","country_code":"NL","cc2":"","admin1_code":"03","admin2_code":"0273","admin3_code":"","admin4_code":"","population":"23168","elevation":"","dem":"18","timezone":"Europe/Amsterdam","modification_date":"2010-01-29"},{"geonameid":"2748403","name":"Puth","asciiname":"Puth","alternatenames":[""],"latitude":"50.95417","longitude":"5.87361","feature_class":"P","feature_code":"PPL","country_code":"NL","cc2":"","admin1_code":"05","admin2_code":"0962","admin3_code":"","admin4_code":"","population":"1990","elevation":"","dem":"101","timezone":"Europe/Amsterdam","modification_date":"2009-01-02"},{"geonameid":"2748413","name":"Purmerend","asciiname":"Purmerend","alternatenames":["Pjurmerend","Purmerend","Пюрмеренд"],"latitude":"52.505","longitude":"4.95972","feature_class":"P","feature_code":"PPL","country_code":"NL","cc2":"","admin1_code":"07","admin2_code":"0439","admin3_code":"","admin4_code":"","population":"76745","elevation":"","dem":"2","timezone":"Europe/Amsterdam","modification_date":"2007-06-03"},{"geonameid":"2748481","name":"Posterholt","asciiname":"Posterholt","alternatenames":[""],"latitude":"51.12333","longitude":"6.03472","feature_class":"P","feature_code":"PPL","country_code":"NL","cc2":"","admin1_code":"05","admin2_code":"1669","admin3_code":"","admin4_code":"","population":"4278","elevation":"","dem":"33","timezone":"Europe/Amsterdam","modification_date":"2009-01-04"},{"geonameid":"2748533","name":"Poeldijk","asciiname":"Poeldijk","alternatenames":[""],"latitude":"52.02417","longitude":"4.21944","feature_class":"P","feature_code":"PPL","country_code":"NL","cc2":"","admin1_code":"11","admin2_code":"1783","admin3_code":"","admin4_code":"","population":"5800","elevation":"","dem":"1","timezone":"Europe/Amsterdam","modification_date":"2009-01-06"},{"geonameid":"2748591","name":"Pijnacker","asciiname":"Pijnacker","alternatenames":["Pijnacker","Pynakker"],"latitude":"52.01954","longitude":"4.42946","feature_class":"P","feature_code":"PPL","country_code":"NL","cc2":"NL","admin1_code":"11","admin2_code":"1926","admin3_code":"","admin4_code":"","population":"18695","elevation":"","dem":"0","timezone":"Europe/Amsterdam","modification_date":"2015-02-07"},{"geonameid":"2748729","name":"Papendrecht","asciiname":"Papendrecht","alternatenames":["Papendrekht","Papendrext","pa peng de lei he te","Папендрехт","Պապենդրեխտ","帕彭德雷赫特"],"latitude":"51.83167","longitude":"4.6875","feature_class":"P","feature_code":"PPL","country_code":"NL","cc2":"","admin1_code":"11","admin2_code":"0590","admin3_code":"","admin4_code":"","population":"31621","elevation":"","dem":"-1","timezone":"Europe/Amsterdam","modification_date":"2008-12-22"},{"geonameid":"2748833","name":"Overloon","asciiname":"Overloon","alternatenames":["Loon","Overloon"],"latitude":"51.57167","longitude":"5.94722","feature_class":"P","feature_code":"PPL","country_code":"NL","cc2":"","admin1_code":"06","admin2_code":"0756","admin3_code":"","admin4_code":"","population":"3626","elevation":"","dem":"23","timezone":"Europe/Amsterdam","modification_date":"2014-08-07"},{"geonameid":"2748864","name":"Overberg","asciiname":"Overberg","alternatenames":[""],"latitude":"52.04","longitude":"5.49444","feature_class":"P","feature_code":"PPL","country_code":"NL","cc2":"","admin1_code":"09","admin2_code":"1581","admin3_code":"","admin4_code":"","population":"1379","elevation":"","dem":"8","timezone":"Europe/Amsterdam","modification_date":"2008-01-25"},{"geonameid":"2748926","name":"Oud-Loosdrecht","asciiname":"Oud-Loosdrecht","alternatenames":["Aud-Losdrekht","Ауд-Лосдрехт"],"latitude":"52.20667","longitude":"5.08056","feature_class":"P","feature_code":"PPL","country_code":"NL","cc2":"","admin1_code":"07","admin2_code":"1696","admin3_code":"","admin4_code":"","population":"1720","elevation":"","dem":"0","timezone":"Europe/Amsterdam","modification_date":"2010-09-07"},{"geonameid":"2748968","name":"Oude Wetering","asciiname":"Oude Wetering","alternatenames":[""],"latitude":"52.21417","longitude":"4.64444","feature_class":"P","feature_code":"PPL","country_code":"NL","cc2":"","admin1_code":"11","admin2_code":"1884","admin3_code":"","admin4_code":"","population":"4208","elevation":"","dem":"-1","timezone":"Europe/Amsterdam","modification_date":"2009-01-09"},{"geonameid":"2748979","name":"Oudewater","asciiname":"Oudewater","alternatenames":[""],"latitude":"52.025","longitude":"4.86806","feature_class":"P","feature_code":"PPL","country_code":"NL","cc2":"","admin1_code":"09","admin2_code":"0589","admin3_code":"","admin4_code":"","population":"9836","elevation":"","dem":"1","timezone":"Europe/Amsterdam","modification_date":"2007-06-03"},{"geonameid":"2749007","name":"Oudeschoot","asciiname":"Oudeschoot","alternatenames":["Aldskoat"],"latitude":"52.93343","longitude":"5.95579","feature_class":"P","feature_code":"PPL","country_code":"NL","cc2":"","admin1_code":"02","admin2_code":"0074","admin3_code":"","admin4_code":"","population":"1484","elevation":"","dem":"2","timezone":"Europe/Amsterdam","modification_date":"2008-05-10"},{"geonameid":"2749017","name":"Ouderkerk aan de Amstel","asciiname":"Ouderkerk aan de Amstel","alternatenames":["Ouder Amstel","Ouderkerk","Ouderkerk Aan Den Amstel","Ouderkerk a/d Amstel","Ouderkerk aan de Amstel"],"latitude":"52.29504","longitude":"4.90746","feature_class":"P","feature_code":"PPL","country_code":"NL","cc2":"NL","admin1_code":"07","admin2_code":"0437","admin3_code":"","admin4_code":"","population":"8228","elevation":"","dem":"0","timezone":"Europe/Amsterdam","modification_date":"2010-02-20"},{"geonameid":"2749034","name":"Oude Pekela","asciiname":"Oude Pekela","alternatenames":[""],"latitude":"53.10417","longitude":"7.00972","feature_class":"P","feature_code":"PPL","country_code":"NL","cc2":"","admin1_code":"04","admin2_code":"0765","admin3_code":"","admin4_code":"","population":"13386","elevation":"","dem":"0","timezone":"Europe/Amsterdam","modification_date":"2007-06-03"},{"geonameid":"2749061","name":"Oudemirdum","asciiname":"Oudemirdum","alternatenames":["Aldemardum"],"latitude":"52.85019","longitude":"5.53544","feature_class":"P","feature_code":"PPL","country_code":"NL","cc2":"NL","admin1_code":"02","admin2_code":"1921","admin3_code":"","admin4_code":"","population":"1330","elevation":"","dem":"6","timezone":"Europe/Amsterdam","modification_date":"2015-05-25"},{"geonameid":"2749120","name":"Oudehaske","asciiname":"Oudehaske","alternatenames":["Aldehaske","Oldehaske","Oudehaske"],"latitude":"52.95709","longitude":"5.87095","feature_class":"P","feature_code":"PPL","country_code":"NL","cc2":"NL","admin1_code":"02","admin2_code":"1921","admin3_code":"","admin4_code":"","population":"1940","elevation":"","dem":"0","timezone":"Europe/Amsterdam","modification_date":"2015-05-25"},{"geonameid":"2749136","name":"Oudega","asciiname":"Oudega","alternatenames":["Aldegea","Oudega"],"latitude":"53.12504","longitude":"5.99888","feature_class":"P","feature_code":"PPL","country_code":"NL","cc2":"","admin1_code":"02","admin2_code":"0090","admin3_code":"","admin4_code":"","population":"1723","elevation":"","dem":"3","timezone":"Europe/Amsterdam","modification_date":"2009-01-02"},{"geonameid":"2749164","name":"Ouddorp","asciiname":"Ouddorp","alternatenames":["Auddorp","Ouwdurp","Ауддорп"],"latitude":"51.81167","longitude":"3.93472","feature_class":"P","feature_code":"PPL","country_code":"NL","cc2":"","admin1_code":"11","admin2_code":"1924","admin3_code":"","admin4_code":"","population":"5930","elevation":"","dem":"2","timezone":"Europe/Amsterdam","modification_date":"2013-06-09"},{"geonameid":"2749182","name":"Oud-Beijerland","asciiname":"Oud-Beijerland","alternatenames":["Oud Beierland"],"latitude":"51.82417","longitude":"4.4125","feature_class":"P","feature_code":"PPL","country_code":"NL","cc2":"","admin1_code":"11","admin2_code":"0584","admin3_code":"","admin4_code":"","population":"23569","elevation":"","dem":"3","timezone":"Europe/Amsterdam","modification_date":"2007-06-03"},{"geonameid":"2749203","name":"Otterlo","asciiname":"Otterlo","alternatenames":["Otterloo"],"latitude":"52.1","longitude":"5.77222","feature_class":"P","feature_code":"PPL","country_code":"NL","cc2":"NL","admin1_code":"03","admin2_code":"0228","admin3_code":"","admin4_code":"","population":"2230","elevation":"","dem":"29","timezone":"Europe/Amsterdam","modification_date":"2009-01-02"},{"geonameid":"2749234","name":"Oss","asciiname":"Oss","alternatenames":["Os","Oss","Oss i Nederland","ao si","osu","Осс","オス","奥斯"],"latitude":"51.765","longitude":"5.51806","feature_class":"P","feature_code":"PPL","country_code":"NL","cc2":"","admin1_code":"06","admin2_code":"0828","admin3_code":"","admin4_code":"","population":"76430","elevation":"","dem":"8","timezone":"Europe/Amsterdam","modification_date":"2010-01-29"},{"geonameid":"2749251","name":"Oranjewoud","asciiname":"Oranjewoud","alternatenames":["It Oranjewald","It Oranjewâld"],"latitude":"52.94579","longitude":"5.95038","feature_class":"P","feature_code":"PPL","country_code":"NL","cc2":"","admin1_code":"02","admin2_code":"0074","admin3_code":"","admin4_code":"","population":"1062","elevation":"","dem":"0","timezone":"Europe/Amsterdam","modification_date":"2008-11-14"},{"geonameid":"2749281","name":"Opperdoes","asciiname":"Opperdoes","alternatenames":[""],"latitude":"52.75915","longitude":"5.07534","feature_class":"P","feature_code":"PPL","country_code":"NL","cc2":"","admin1_code":"07","admin2_code":"0420","admin3_code":"","admin4_code":"","population":"1860","elevation":"","dem":"1","timezone":"Europe/Amsterdam","modification_date":"2009-03-05"},{"geonameid":"2749284","name":"Oppenhuizen","asciiname":"Oppenhuizen","alternatenames":[""],"latitude":"53.01194","longitude":"5.69495","feature_class":"P","feature_code":"PPL","country_code":"NL","cc2":"","admin1_code":"02","admin2_code":"1900","admin3_code":"","admin4_code":"","population":"1150","elevation":"","dem":"0","timezone":"Europe/Amsterdam","modification_date":"2012-04-14"},{"geonameid":"2749286","name":"Opmeer","asciiname":"Opmeer","alternatenames":["Opmar","Opmeer"],"latitude":"52.70667","longitude":"4.94444","feature_class":"P","feature_code":"PPL","country_code":"NL","cc2":"","admin1_code":"07","admin2_code":"0432","admin3_code":"","admin4_code":"","population":"11183","elevation":"","dem":"1","timezone":"Europe/Amsterdam","modification_date":"2007-06-03"},{"geonameid":"2749304","name":"Opeinde","asciiname":"Opeinde","alternatenames":["De Pein","Opeinde"],"latitude":"53.1341","longitude":"6.05656","feature_class":"P","feature_code":"PPL","country_code":"NL","cc2":"NL","admin1_code":"02","admin2_code":"0090","admin3_code":"","admin4_code":"","population":"1710","elevation":"","dem":"1","timezone":"Europe/Amsterdam","modification_date":"2009-01-02"},{"geonameid":"2749334","name":"Oost-Vlieland","asciiname":"Oost-Vlieland","alternatenames":["East Flylan","East Flylân"],"latitude":"53.29703","longitude":"5.07431","feature_class":"P","feature_code":"PPL","country_code":"NL","cc2":"NL","admin1_code":"02","admin2_code":"0096","admin3_code":"","admin4_code":"","population":"1070","elevation":"","dem":"4","timezone":"Europe/Amsterdam","modification_date":"2008-01-31"},{"geonameid":"2749423","name":"Oosterpark","asciiname":"Oosterpark","alternatenames":["Oosterpark","Oosterparkwijk"],"latitude":"53.2237","longitude":"6.5853","feature_class":"P","feature_code":"PPLX","country_code":"NL","cc2":"","admin1_code":"04","admin2_code":"0014","admin3_code":"","admin4_code":"","population":"10550","elevation":"","dem":"2","timezone":"Europe/Amsterdam","modification_date":"2012-01-17"},