{"country_data":{"ISO":"PH","ISO3":"PHL","ISO_Numeric":"608","fips":"RP","country":"Philippines","capital":"Manila","area":"300000","Population":"99900177","Continent":"AS","tld":".ph","CurrencyCode":"PHP","CurrencyName":"Peso","Phone":"63","Postal_Code_Format":"####","Postal_Code_Regex":"^(\\d{4})$","Languages":"tl,en-PH,fil","geonameid":"1694008","neighbours":"","EquivalentFipsCode":""},"cities":[{"geonameid":"1682562","name":"Taywanak Ilaya","asciiname":"Taywanak Ilaya","alternatenames":["Taywanak","Taywanak Ilaya"],"latitude":"14.15759","longitude":"120.84655","feature_class":"P","feature_code":"PPL","country_code":"PH","cc2":"PH","admin1_code":"40","admin2_code":"20","admin3_code":"","admin4_code":"","population":"3093","elevation":"","dem":"351","timezone":"Asia/Manila","modification_date":"2014-03-06"},{"geonameid":"1682570","name":"Tayum","asciiname":"Tayum","alternatenames":["Tayum"],"latitude":"17.6172","longitude":"120.6542","feature_class":"P","feature_code":"PPLA3","country_code":"PH","cc2":"","admin1_code":"15","admin2_code":"01","admin3_code":"1682571","admin4_code":"","population":"2530","elevation":"","dem":"65","timezone":"Asia/Manila","modification_date":"2011-07-31"},{"geonameid":"1682574","name":"Tayug","asciiname":"Tayug","alternatenames":["Tayug"],"latitude":"16.0274","longitude":"120.7434","feature_class":"P","feature_code":"PPLA3","country_code":"PH","cc2":"","admin1_code":"01","admin2_code":"51","admin3_code":"1682575","admin4_code":"","population":"11611","elevation":"","dem":"62","timezone":"Asia/Manila","modification_date":"2011-07-31"},{"geonameid":"1682576","name":"Tayud","asciiname":"Tayud","alternatenames":["Tayud"],"latitude":"10.3782","longitude":"123.994","feature_class":"P","feature_code":"PPL","country_code":"PH","cc2":"","admin1_code":"07","admin2_code":"21","admin3_code":"","admin4_code":"","population":"7788","elevation":"","dem":"10","timezone":"Asia/Manila","modification_date":"2012-01-17"},{"geonameid":"1682594","name":"Taytayan","asciiname":"Taytayan","alternatenames":["Taytayan"],"latitude":"10.8787","longitude":"123.9771","feature_class":"P","feature_code":"PPL","country_code":"PH","cc2":"","admin1_code":"07","admin2_code":"21","admin3_code":"","admin4_code":"","population":"3654","elevation":"","dem":"151","timezone":"Asia/Manila","modification_date":"2012-01-17"},{"geonameid":"1682596","name":"Taytayan","asciiname":"Taytayan","alternatenames":["San Antonio","Taytayan"],"latitude":"7.73389","longitude":"126.50194","feature_class":"P","feature_code":"PPL","country_code":"PH","cc2":"","admin1_code":"11","admin2_code":"26","admin3_code":"","admin4_code":"","population":"6894","elevation":"","dem":"27","timezone":"Asia/Manila","modification_date":"2012-01-17"},{"geonameid":"1682598","name":"Taytay","asciiname":"Taytay","alternatenames":["Taytay"],"latitude":"14.55883","longitude":"121.13285","feature_class":"P","feature_code":"PPLA3","country_code":"PH","cc2":"","admin1_code":"40","admin2_code":"53","admin3_code":"1682615","admin4_code":"","population":"231460","elevation":"","dem":"9","timezone":"Asia/Manila","modification_date":"2014-09-24"},{"geonameid":"1682600","name":"Taytay","asciiname":"Taytay","alternatenames":["Taytay"],"latitude":"14.12567","longitude":"121.40399","feature_class":"P","feature_code":"PPL","country_code":"PH","cc2":"","admin1_code":"40","admin2_code":"33","admin3_code":"","admin4_code":"","population":"2670","elevation":"","dem":"240","timezone":"Asia/Manila","modification_date":"2015-01-17"},{"geonameid":"1682606","name":"Taytay","asciiname":"Taytay","alternatenames":["Taytay"],"latitude":"10.81788","longitude":"119.49851","feature_class":"P","feature_code":"PPLA3","country_code":"PH","cc2":"","admin1_code":"41","admin2_code":"49","admin3_code":"1682616","admin4_code":"","population":"7717","elevation":"","dem":"22","timezone":"Asia/Manila","modification_date":"2014-09-20"},{"geonameid":"1682613","name":"Taytay","asciiname":"Taytay","alternatenames":["Taytay"],"latitude":"8.54111","longitude":"124.53972","feature_class":"P","feature_code":"PPL","country_code":"PH","cc2":"","admin1_code":"10","admin2_code":"43","admin3_code":"","admin4_code":"","population":"2821","elevation":"","dem":"10","timezone":"Asia/Manila","modification_date":"2012-01-17"},{"geonameid":"1682618","name":"Taysan","asciiname":"Taysan","alternatenames":["Taysan"],"latitude":"13.8697","longitude":"121.0971","feature_class":"P","feature_code":"PPL","country_code":"PH","cc2":"","admin1_code":"40","admin2_code":"09","admin3_code":"","admin4_code":"","population":"5296","elevation":"","dem":"222","timezone":"Asia/Manila","modification_date":"2012-01-17"},{"geonameid":"1682619","name":"Taysan","asciiname":"Taysan","alternatenames":["Taysan"],"latitude":"13.7976","longitude":"121.1896","feature_class":"P","feature_code":"PPLA3","country_code":"PH","cc2":"","admin1_code":"40","admin2_code":"09","admin3_code":"1682621","admin4_code":"","population":"0","elevation":"","dem":"117","timezone":"Asia/Manila","modification_date":"2011-07-31"},{"geonameid":"1682643","name":"Tayasan","asciiname":"Tayasan","alternatenames":["Tayasan"],"latitude":"9.924","longitude":"123.1699","feature_class":"P","feature_code":"PPLA3","country_code":"PH","cc2":"","admin1_code":"07","admin2_code":"46","admin3_code":"1682644","admin4_code":"","population":"0","elevation":"","dem":"17","timezone":"Asia/Manila","modification_date":"2011-07-31"},{"geonameid":"1682649","name":"Tayaman","asciiname":"Tayaman","alternatenames":["Tayaman"],"latitude":"13.2295","longitude":"120.5726","feature_class":"P","feature_code":"PPL","country_code":"PH","cc2":"","admin1_code":"41","admin2_code":"40","admin3_code":"","admin4_code":"","population":"5050","elevation":"","dem":"9","timezone":"Asia/Manila","modification_date":"2012-01-17"},{"geonameid":"1682653","name":"Tayabo","asciiname":"Tayabo","alternatenames":["Rosaldo","Tayabo"],"latitude":"15.8345","longitude":"121.0309","feature_class":"P","feature_code":"PPL","country_code":"PH","cc2":"","admin1_code":"03","admin2_code":"47","admin3_code":"","admin4_code":"","population":"4406","elevation":"","dem":"157","timezone":"Asia/Manila","modification_date":"2012-08-04"},{"geonameid":"1682659","name":"Tayabas","asciiname":"Tayabas","alternatenames":["Tayabas"],"latitude":"14.0259","longitude":"121.5929","feature_class":"P","feature_code":"PPL","country_code":"PH","cc2":"","admin1_code":"40","admin2_code":"H2","admin3_code":"","admin4_code":"","population":"37330","elevation":"","dem":"194","timezone":"Asia/Manila","modification_date":"2012-06-05"},{"geonameid":"1682689","name":"Tawan tawan","asciiname":"Tawan tawan","alternatenames":["Tawan tawan"],"latitude":"7.16917","longitude":"125.37278","feature_class":"P","feature_code":"PPL","country_code":"PH","cc2":"","admin1_code":"11","admin2_code":"25","admin3_code":"","admin4_code":"","population":"3585","elevation":"","dem":"605","timezone":"Asia/Manila","modification_date":"2012-02-01"},{"geonameid":"1682694","name":"Tawagan","asciiname":"Tawagan","alternatenames":["Tanagun","Tawagan Sur"],"latitude":"7.845","longitude":"123.47528","feature_class":"P","feature_code":"PPL","country_code":"PH","cc2":"","admin1_code":"09","admin2_code":"E7","admin3_code":"","admin4_code":"","population":"2810","elevation":"","dem":"7","timezone":"Asia/Manila","modification_date":"2014-03-01"},{"geonameid":"1682699","name":"Taviran","asciiname":"Taviran","alternatenames":["Tariran","Taviran"],"latitude":"7.12333","longitude":"124.31972","feature_class":"P","feature_code":"PPL","country_code":"PH","cc2":"","admin1_code":"14","admin2_code":"56","admin3_code":"","admin4_code":"","population":"2851","elevation":"","dem":"5","timezone":"Asia/Manila","modification_date":"2012-01-17"},{"geonameid":"1682715","name":"Taungoh","asciiname":"Taungoh","alternatenames":["Taungo","Taungoh","Taungon","Taungu"],"latitude":"4.70654","longitude":"119.49296","feature_class":"P","feature_code":"PPL","country_code":"PH","cc2":"","admin1_code":"14","admin2_code":"72","admin3_code":"","admin4_code":"","population":"2375","elevation":"","dem":"0","timezone":"Asia/Manila","modification_date":"2012-05-05"},{"geonameid":"1682732","name":"Tawala","asciiname":"Tawala","alternatenames":["Taiwala","Tauala","Tawala"],"latitude":"9.55421","longitude":"123.76955","feature_class":"P","feature_code":"PPL","country_code":"PH","cc2":"","admin1_code":"07","admin2_code":"11","admin3_code":"","admin4_code":"","population":"2695","elevation":"","dem":"13","timezone":"Asia/Manila","modification_date":"2012-04-05"},{"geonameid":"1682775","name":"Tarusan","asciiname":"Tarusan","alternatenames":["Tarusan"],"latitude":"8.65461","longitude":"117.5104","feature_class":"P","feature_code":"PPL","country_code":"PH","cc2":"","admin1_code":"41","admin2_code":"49","admin3_code":"","admin4_code":"","population":"3107","elevation":"","dem":"23","timezone":"Asia/Manila","modification_date":"2012-02-01"},{"geonameid":"1682787","name":"Tartaro","asciiname":"Tartaro","alternatenames":["Taltaro","Tartaro"],"latitude":"15.16667","longitude":"121.01667","feature_class":"P","feature_code":"PPL","country_code":"PH","cc2":"","admin1_code":"03","admin2_code":"13","admin3_code":"","admin4_code":"","population":"5231","elevation":"","dem":"36","timezone":"Asia/Manila","modification_date":"2012-01-17"},{"geonameid":"1682792","name":"Tarragona","asciiname":"Tarragona","alternatenames":["Tarragona"],"latitude":"7.0491","longitude":"126.44708","feature_class":"P","feature_code":"PPLA3","country_code":"PH","cc2":"","admin1_code":"11","admin2_code":"26","admin3_code":"1682793","admin4_code":"","population":"3777","elevation":"","dem":"21","timezone":"Asia/Manila","modification_date":"2011-07-31"},{"geonameid":"1682798","name":"Tarong","asciiname":"Tarong","alternatenames":["Tarong"],"latitude":"11.5314","longitude":"123.132","feature_class":"P","feature_code":"PPL","country_code":"PH","cc2":"","admin1_code":"06","admin2_code":"30","admin3_code":"","admin4_code":"","population":"2376","elevation":"","dem":"14","timezone":"Asia/Manila","modification_date":"2012-01-17"},{"geonameid":"1682812","name":"Tarlac City","asciiname":"Tarlac City","alternatenames":["Tarlac","Tarlac City"],"latitude":"15.48017","longitude":"120.59794","feature_class":"P","feature_code":"PPL","country_code":"PH","cc2":"","admin1_code":"03","admin2_code":"63","admin3_code":"","admin4_code":"","population":"183930","elevation":"","dem":"44","timezone":"Asia/Manila","modification_date":"2013-01-10"},{"geonameid":"1682819","name":"Tariric","asciiname":"Tariric","alternatenames":["Tariric"],"latitude":"13.5723","longitude":"123.2235","feature_class":"P","feature_code":"PPL","country_code":"PH","cc2":"","admin1_code":"05","admin2_code":"16","admin3_code":"","admin4_code":"","population":"2462","elevation":"","dem":"14","timezone":"Asia/Manila","modification_date":"2012-01-17"},{"geonameid":"1682826","name":"Tariji","asciiname":"Tariji","alternatenames":["Tariji"],"latitude":"15.52112","longitude":"120.61442","feature_class":"P","feature_code":"PPL","country_code":"PH","cc2":"","admin1_code":"03","admin2_code":"63","admin3_code":"","admin4_code":"","population":"2332","elevation":"","dem":"42","timezone":"Asia/Manila","modification_date":"2013-03-05"},{"geonameid":"1682844","name":"Tarangnan","asciiname":"Tarangnan","alternatenames":["Taranga","Tarangan","Tarangnan"],"latitude":"11.9009","longitude":"124.7459","feature_class":"P","feature_code":"PPLA3","country_code":"PH","cc2":"","admin1_code":"08","admin2_code":"55","admin3_code":"1682845","admin4_code":"","population":"2762","elevation":"","dem":"7","timezone":"Asia/Manila","modification_date":"2011-07-31"},{"geonameid":"1682876","name":"Tara","asciiname":"Tara","alternatenames":["Tara"],"latitude":"13.81667","longitude":"122.98333","feature_class":"P","feature_code":"PPL","country_code":"PH","cc2":"","admin1_code":"05","admin2_code":"16","admin3_code":"","admin4_code":"","population":"2077","elevation":"","dem":"125","timezone":"Asia/Manila","modification_date":"2012-02-01"},{"geonameid":"1682913","name":"Tapon","asciiname":"Tapon","alternatenames":["Tapon"],"latitude":"10.0631","longitude":"123.4453","feature_class":"P","feature_code":"PPL","country_code":"PH","cc2":"","admin1_code":"07","admin2_code":"21","admin3_code":"","admin4_code":"","population":"5245","elevation":"","dem":"8","timezone":"Asia/Manila","modification_date":"2012-01-17"},{"geonameid":"1682914","name":"Tapon","asciiname":"Tapon","alternatenames":["Tapon"],"latitude":"9.7715","longitude":"123.5268","feature_class":"P","feature_code":"PPL","country_code":"PH","cc2":"","admin1_code":"07","admin2_code":"21","admin3_code":"","admin4_code":"","population":"2173","elevation":"","dem":"72","timezone":"Asia/Manila","modification_date":"2012-01-17"},{"geonameid":"1682934","name":"Tapilon","asciiname":"Tapilon","alternatenames":["Tablon","Tapilon"],"latitude":"11.2774","longitude":"124.0306","feature_class":"P","feature_code":"PPL","country_code":"PH","cc2":"","admin1_code":"07","admin2_code":"21","admin3_code":"","admin4_code":"","population":"7786","elevation":"","dem":"7","timezone":"Asia/Manila","modification_date":"2012-01-17"},{"geonameid":"1682936","name":"Tapikan","asciiname":"Tapikan","alternatenames":["Tapikan"],"latitude":"6.85194","longitude":"124.3225","feature_class":"P","feature_code":"PPL","country_code":"PH","cc2":"","admin1_code":"14","admin2_code":"56","admin3_code":"","admin4_code":"","population":"2232","elevation":"","dem":"480","timezone":"Asia/Manila","modification_date":"2012-02-01"},{"geonameid":"1682951","name":"Tapia","asciiname":"Tapia","alternatenames":["Tapia"],"latitude":"7.75417","longitude":"126.01194","feature_class":"P","feature_code":"PPL","country_code":"PH","cc2":"","admin1_code":"11","admin2_code":"I7","admin3_code":"","admin4_code":"","population":"2720","elevation":"","dem":"72","timezone":"Asia/Manila","modification_date":"2012-02-01"},{"geonameid":"1682958","name":"Tapel","asciiname":"Tapel","alternatenames":["Tapal","Tapel"],"latitude":"18.28907","longitude":"122.02915","feature_class":"P","feature_code":"PPL","country_code":"PH","cc2":"","admin1_code":"02","admin2_code":"14","admin3_code":"","admin4_code":"","population":"2548","elevation":"","dem":"18","timezone":"Asia/Manila","modification_date":"2012-01-17"},{"geonameid":"1682960","name":"Tapas","asciiname":"Tapas","alternatenames":["Tapas","Tapaz"],"latitude":"11.2613","longitude":"122.5364","feature_class":"P","feature_code":"PPL","country_code":"PH","cc2":"","admin1_code":"06","admin2_code":"18","admin3_code":"","admin4_code":"","population":"2340","elevation":"","dem":"43","timezone":"Asia/Manila","modification_date":"2012-01-17"},{"geonameid":"1682966","name":"Tapayan","asciiname":"Tapayan","alternatenames":["Tapayan"],"latitude":"7.29444","longitude":"124.26611","feature_class":"P","feature_code":"PPL","country_code":"PH","cc2":"","admin1_code":"14","admin2_code":"56","admin3_code":"","admin4_code":"","population":"3240","elevation":"","dem":"15","timezone":"Asia/Manila","modification_date":"2012-02-01"},{"geonameid":"1683013","name":"Tanza","asciiname":"Tanza","alternatenames":["Tanza"],"latitude":"14.6753","longitude":"120.9389","feature_class":"P","feature_code":"PPL","country_code":"PH","cc2":"","admin1_code":"NCR","admin2_code":"B4","admin3_code":"","admin4_code":"","population":"105510","elevation":"","dem":"7","timezone":"Asia/Manila","modification_date":"2012-01-17"},{"geonameid":"1683014","name":"Tanza","asciiname":"Tanza","alternatenames":[""],"latitude":"14.39834","longitude":"120.85544","feature_class":"P","feature_code":"PPLA3","country_code":"PH","cc2":"","admin1_code":"40","admin2_code":"20","admin3_code":"1683019","admin4_code":"","population":"0","elevation":"","dem":"14","timezone":"Asia/Manila","modification_date":"2011-07-31"},{"geonameid":"1683016","name":"Tanza","asciiname":"Tanza","alternatenames":["Tanza"],"latitude":"11.5825","longitude":"122.78361","feature_class":"P","feature_code":"PPL","country_code":"PH","cc2":"","admin1_code":"06","admin2_code":"18","admin3_code":"","admin4_code":"","population":"2584","elevation":"","dem":"2","timezone":"Asia/Manila","modification_date":"2012-02-01"},{"geonameid":"1683018","name":"Tanza","asciiname":"Tanza","alternatenames":["Tanza"],"latitude":"10.83484","longitude":"123.011","feature_class":"P","feature_code":"PPL","country_code":"PH","cc2":"","admin1_code":"06","admin2_code":"H3","admin3_code":"","admin4_code":"","population":"3844","elevation":"","dem":"15","timezone":"Asia/Manila","modification_date":"2012-01-17"},{"geonameid":"1683029","name":"Tanudan","asciiname":"Tanudan","alternatenames":[""],"latitude":"17.29556","longitude":"121.23778","feature_class":"P","feature_code":"PPLA3","country_code":"PH","cc2":"","admin1_code":"15","admin2_code":"32","admin3_code":"1683030","admin4_code":"","population":"0","elevation":"","dem":"517","timezone":"Asia/Manila","modification_date":"2011-07-31"},{"geonameid":"1683037","name":"Tantangan","asciiname":"Tantangan","alternatenames":["Tantangan"],"latitude":"6.615","longitude":"124.74889","feature_class":"P","feature_code":"PPLA3","country_code":"PH","cc2":"","admin1_code":"11","admin2_code":"70","admin3_code":"1683038","admin4_code":"","population":"10337","elevation":"","dem":"38","timezone":"Asia/Manila","modification_date":"2011-07-31"},{"geonameid":"1683057","name":"Tanque","asciiname":"Tanque","alternatenames":["Tangke","Tanke","Tanque"],"latitude":"10.25418","longitude":"123.8612","feature_class":"P","feature_code":"PPL","country_code":"PH","cc2":"","admin1_code":"06","admin2_code":"H3","admin3_code":"","admin4_code":"","population":"3537","elevation":"","dem":"4","timezone":"Asia/Manila","modification_date":"2012-08-04"},{"geonameid":"1683066","name":"Tanolong","asciiname":"Tanolong","alternatenames":["Tanolong"],"latitude":"15.80411","longitude":"120.41409","feature_class":"P","feature_code":"PPL","country_code":"PH","cc2":"","admin1_code":"01","admin2_code":"51","admin3_code":"","admin4_code":"","population":"2779","elevation":"","dem":"17","timezone":"Asia/Manila","modification_date":"2013-01-10"},{"geonameid":"1683080","name":"Tanlad","asciiname":"Tanlad","alternatenames":["Tanglad","Tanlad"],"latitude":"6.60222","longitude":"125.445","feature_class":"P","feature_code":"PPL","country_code":"PH","cc2":"","admin1_code":"11","admin2_code":"25","admin3_code":"","admin4_code":"","population":"2184","elevation":"","dem":"11","timezone":"Asia/Manila","modification_date":"2012-01-17"},{"geonameid":"1683088","name":"Tanjay","asciiname":"Tanjay","alternatenames":["Tanjay"],"latitude":"9.5162","longitude":"123.158","feature_class":"P","feature_code":"PPL","country_code":"PH","cc2":"","admin1_code":"07","admin2_code":"46","admin3_code":"","admin4_code":"","population":"39151","elevation":"","dem":"10","timezone":"Asia/Manila","modification_date":"2012-08-04"},{"geonameid":"1683116","name":"Tangub","asciiname":"Tangub","alternatenames":["Tangob","Tangub","Tangub City"],"latitude":"8.0618","longitude":"123.7477","feature_class":"P","feature_code":"PPL","country_code":"PH","cc2":"","admin1_code":"10","admin2_code":"42","admin3_code":"","admin4_code":"","population":"29721","elevation":"","dem":"11","timezone":"Asia/Manila","modification_date":"2012-08-04"},{"geonameid":"1683140","name":"Tañgo","asciiname":"Tango","alternatenames":["Tango","Tañgo"],"latitude":"5.88083","longitude":"125.22194","feature_class":"P","feature_code":"PPL","country_code":"PH","cc2":"","admin1_code":"12","admin2_code":"M9","admin3_code":"","admin4_code":"","population":"2140","elevation":"","dem":"17","timezone":"Asia/Manila","modification_date":"2012-01-17"},{"geonameid":"1683145","name":"Tangnan","asciiname":"Tangnan","alternatenames":[""],"latitude":"9.60722","longitude":"123.77357","feature_class":"P","feature_code":"PPL","country_code":"PH","cc2":"","admin1_code":"07","admin2_code":"11","admin3_code":"","admin4_code":"","population":"2870","elevation":"","dem":"10","timezone":"Asia/Manila","modification_date":"2012-04-05"},{"geonameid":"1683227","name":"Tangalan","asciiname":"Tangalan","alternatenames":["Dapdap Tangalan","Tangalan"],"latitude":"11.7789","longitude":"122.2634","feature_class":"P","feature_code":"PPLA3","country_code":"PH","cc2":"","admin1_code":"06","admin2_code":"04","admin3_code":"1683228","admin4_code":"","population":"0","elevation":"","dem":"0","timezone":"Asia/Manila","modification_date":"2011-07-31"},{"geonameid":"1683231","name":"Tangal","asciiname":"Tangal","alternatenames":["Tangal","Tangol"],"latitude":"13.84536","longitude":"120.10082","feature_class":"P","feature_code":"PPL","country_code":"PH","cc2":"","admin1_code":"41","admin2_code":"40","admin3_code":"","admin4_code":"","population":"3337","elevation":"","dem":"12","timezone":"Asia/Manila","modification_date":"2012-01-17"},{"geonameid":"1683280","name":"Tandoc","asciiname":"Tandoc","alternatenames":["Tandoc"],"latitude":"15.95929","longitude":"120.32914","feature_class":"P","feature_code":"PPL","country_code":"PH","cc2":"","admin1_code":"01","admin2_code":"51","admin3_code":"","admin4_code":"","population":"3192","elevation":"","dem":"10","timezone":"Asia/Manila","modification_date":"2013-01-10"},{"geonameid":"1683293","name":"Tandayag","asciiname":"Tandayag","alternatenames":["Tandayag"],"latitude":"9.4547","longitude":"123.2299","feature_class":"P","feature_code":"PPL","country_code":"PH","cc2":"","admin1_code":"07","admin2_code":"46","admin3_code":"","admin4_code":"","population":"3533","elevation":"","dem":"26","timezone":"Asia/Manila","modification_date":"2012-01-17"},{"geonameid":"1683302","name":"Tandag","asciiname":"Tandag","alternatenames":["Dakbayan sa Tandag","Lungsod ng Tandag","TDG","Tandag","Tandag City","Tandag Lakanbalen"],"latitude":"9.07833","longitude":"126.19861","feature_class":"P","feature_code":"PPL","country_code":"PH","cc2":"","admin1_code":"13","admin2_code":"62","admin3_code":"","admin4_code":"","population":"29011","elevation":"","dem":"8","timezone":"Asia/Manila","modification_date":"2012-02-01"},{"geonameid":"1683319","name":"Tanay","asciiname":"Tanay","alternatenames":["Tanay"],"latitude":"14.4968","longitude":"121.2846","feature_class":"P","feature_code":"PPLA3","country_code":"PH","cc2":"","admin1_code":"40","admin2_code":"53","admin3_code":"1683322","admin4_code":"","population":"59950","elevation":"","dem":"11","timezone":"Asia/Manila","modification_date":"2011-07-31"},{"geonameid":"1683340","name":"Tanauan","asciiname":"Tanauan","alternatenames":[""],"latitude":"14.08627","longitude":"121.14975","feature_class":"P","feature_code":"PPLA3","country_code":"PH","cc2":"","admin1_code":"40","admin2_code":"09","admin3_code":"1683343","admin4_code":"","population":"68456","elevation":"","dem":"155","timezone":"Asia/Manila","modification_date":"2011-07-31"},{"geonameid":"1683342","name":"Tanauan","asciiname":"Tanauan","alternatenames":["Tanauan"],"latitude":"11.10944","longitude":"125.01556","feature_class":"P","feature_code":"PPLA3","country_code":"PH","cc2":"","admin1_code":"08","admin2_code":"37","admin3_code":"1683344","admin4_code":"","population":"16567","elevation":"","dem":"5","timezone":"Asia/Manila","modification_date":"2011-07-31"},{"geonameid":"1683385","name":"Tamugan","asciiname":"Tamugan","alternatenames":["Tamugan"],"latitude":"7.23083","longitude":"125.37639","feature_class":"P","feature_code":"PPL","country_code":"PH","cc2":"","admin1_code":"11","admin2_code":"25","admin3_code":"","admin4_code":"","population":"8291","elevation":"","dem":"364","timezone":"Asia/Manila","modification_date":"2012-02-01"},{"geonameid":"1683407","name":"Tampocon","asciiname":"Tampocon","alternatenames":["Tampocon"],"latitude":"9.85","longitude":"123.13333","feature_class":"P","feature_code":"PPL","country_code":"PH","cc2":"","admin1_code":"07","admin2_code":"46","admin3_code":"","admin4_code":"","population":"3768","elevation":"","dem":"48","timezone":"Asia/Manila","modification_date":"2012-02-01"},{"geonameid":"1683411","name":"Tampilisan","asciiname":"Tampilisan","alternatenames":[""],"latitude":"8.01667","longitude":"122.68333","feature_class":"P","feature_code":"PPLA3","country_code":"PH","cc2":"","admin1_code":"09","admin2_code":"65","admin3_code":"1683412","admin4_code":"","population":"3578","elevation":"","dem":"165","timezone":"Asia/Manila","modification_date":"2011-07-31"},{"geonameid":"1683418","name":"Tampayan","asciiname":"Tampayan","alternatenames":["Tampayan"],"latitude":"12.49411","longitude":"122.53309","feature_class":"P","feature_code":"PPL","country_code":"PH","cc2":"","admin1_code":"41","admin2_code":"54","admin3_code":"","admin4_code":"","population":"2839","elevation":"","dem":"47","timezone":"Asia/Manila","modification_date":"2014-11-16"},{"geonameid":"1683425","name":"Tamparan","asciiname":"Tamparan","alternatenames":["Tamparan"],"latitude":"7.87917","longitude":"124.33306","feature_class":"P","feature_code":"PPLA3","country_code":"PH","cc2":"","admin1_code":"14","admin2_code":"35","admin3_code":"1683426","admin4_code":"","population":"2396","elevation":"","dem":"710","timezone":"Asia/Manila","modification_date":"2011-07-31"},{"geonameid":"1683430","name":"Tampakan","asciiname":"Tampakan","alternatenames":["Tampacan","Tampakan"],"latitude":"6.44417","longitude":"124.92639","feature_class":"P","feature_code":"PPL","country_code":"PH","cc2":"","admin1_code":"12","admin2_code":"70","admin3_code":"","admin4_code":"","population":"9048","elevation":"","dem":"134","timezone":"Asia/Manila","modification_date":"2012-01-17"},{"geonameid":"1683433","name":"Tampakan","asciiname":"Tampakan","alternatenames":["Tampacan","Tampakan"],"latitude":"4.92278","longitude":"119.79389","feature_class":"P","feature_code":"PPL","country_code":"PH","cc2":"","admin1_code":"14","admin2_code":"72","admin3_code":"","admin4_code":"","population":"8306","elevation":"","dem":"5","timezone":"Asia/Manila","modification_date":"2012-01-17"},{"geonameid":"1683445","name":"Tamorong","asciiname":"Tamorong","alternatenames":[""],"latitude":"17.33333","longitude":"120.43333","feature_class":"P","feature_code":"PPL","country_code":"PH","cc2":"","admin1_code":"01","admin2_code":"29","admin3_code":"","admin4_code":"","population":"2442","elevation":"","dem":"65","timezone":"Asia/Manila","modification_date":"2010-08-14"},{"geonameid":"1683447","name":"Tamontaka","asciiname":"Tamontaka","alternatenames":["Tamontaca"],"latitude":"7.18056","longitude":"124.22556","feature_class":"P","feature_code":"PPL","country_code":"PH","cc2":"","admin1_code":"12","admin2_code":"B8","admin3_code":"","admin4_code":"","population":"5166","elevation":"","dem":"8","timezone":"Asia/Manila","modification_date":"2014-03-01"},{"geonameid":"1683456","name":"Tamnag","asciiname":"Tamnag","alternatenames":["Tamnag"],"latitude":"6.56778","longitude":"124.85056","feature_class":"P","feature_code":"PPL","country_code":"PH","cc2":"","admin1_code":"12","admin2_code":"71","admin3_code":"","admin4_code":"","population":"6302","elevation":"","dem":"24","timezone":"Asia/Manila","modification_date":"2012-02-01"},{"geonameid":"1683461","name":"Tamlang","asciiname":"Tamlang","alternatenames":["Tamlang","Tamlang Nuevo"],"latitude":"10.82544","longitude":"123.4541","feature_class":"P","feature_code":"PPL","country_code":"PH","cc2":"","admin1_code":"06","admin2_code":"H3","admin3_code":"","admin4_code":"","population":"2275","elevation":"","dem":"32","timezone":"Asia/Manila","modification_date":"2012-06-05"},{"geonameid":"1683467","name":"Tamiso","asciiname":"Tamiso","alternatenames":["T. Real","Tamiso","Tamisu"],"latitude":"9.6314","longitude":"123.0873","feature_class":"P","feature_code":"PPL","country_code":"PH","cc2":"","admin1_code":"07","admin2_code":"46","admin3_code":"","admin4_code":"","population":"2904","elevation":"","dem":"76","timezone":"Asia/Manila","modification_date":"2012-06-05"},{"geonameid":"1683468","name":"Tamisan","asciiname":"Tamisan","alternatenames":["Tamisan"],"latitude":"6.84372","longitude":"126.29838","feature_class":"P","feature_code":"PPL","country_code":"PH","cc2":"","admin1_code":"11","admin2_code":"26","admin3_code":"","admin4_code":"","population":"2866","elevation":"","dem":"30","timezone":"Asia/Manila","modification_date":"2012-01-17"},{"geonameid":"1683506","name":"Tambulig","asciiname":"Tambulig","alternatenames":["Tambuig","Tambulig"],"latitude":"8.0702","longitude":"123.5348","feature_class":"P","feature_code":"PPL","country_code":"PH","cc2":"","admin1_code":"09","admin2_code":"66","admin3_code":"","admin4_code":"","population":"7488","elevation":"","dem":"25","timezone":"Asia/Manila","modification_date":"2010-08-14"},{"geonameid":"1683511","name":"Tambalan","asciiname":"Tambalan","alternatenames":["Tambalan","Tambulan"],"latitude":"9.9085","longitude":"123.0896","feature_class":"P","feature_code":"PPL","country_code":"PH","cc2":"","admin1_code":"07","admin2_code":"46","admin3_code":"","admin4_code":"","population":"2162","elevation":"","dem":"415","timezone":"Asia/Manila","modification_date":"2012-01-17"},{"geonameid":"1683537","name":"Tambongon","asciiname":"Tambongon","alternatenames":["Tambongon"],"latitude":"10.9677","longitude":"123.9244","feature_class":"P","feature_code":"PPL","country_code":"PH","cc2":"","admin1_code":"07","admin2_code":"21","admin3_code":"","admin4_code":"","population":"2643","elevation":"","dem":"9","timezone":"Asia/Manila","modification_date":"2012-01-17"},{"geonameid":"1683538","name":"Tombongon","asciiname":"Tombongon","alternatenames":["Tambongon","Tombongon"],"latitude":"7.0792","longitude":"125.9486","feature_class":"P","feature_code":"PPL","country_code":"PH","cc2":"","admin1_code":"11","admin2_code":"26","admin3_code":"","admin4_code":"","population":"3243","elevation":"","dem":"22","timezone":"Asia/Manila","modification_date":"2012-01-17"},{"geonameid":"1683541","name":"Tambong","asciiname":"Tambong","alternatenames":["Tambong"],"latitude":"12.96391","longitude":"121.48462","feature_class":"P","feature_code":"PPL","country_code":"PH","cc2":"","admin1_code":"41","admin2_code":"41","admin3_code":"","admin4_code":"","population":"2510","elevation":"","dem":"12","timezone":"Asia/Manila","modification_date":"2012-01-17"},{"geonameid":"1683574","name":"Tambo","asciiname":"Tambo","alternatenames":["Tambo"],"latitude":"13.5468","longitude":"123.0358","feature_class":"P","feature_code":"PPL","country_code":"PH","cc2":"","admin1_code":"05","admin2_code":"16","admin3_code":"","admin4_code":"","population":"3254","elevation":"","dem":"19","timezone":"Asia/Manila","modification_date":"2012-01-17"},{"geonameid":"1683575","name":"Tambo","asciiname":"Tambo","alternatenames":["Tambo"],"latitude":"13.2553","longitude":"123.2906","feature_class":"P","feature_code":"PPL","country_code":"PH","cc2":"","admin1_code":"05","admin2_code":"05","admin3_code":"","admin4_code":"","population":"2989","elevation":"","dem":"9","timezone":"Asia/Manila","modification_date":"2012-01-17"},{"geonameid":"1683578","name":"Tambo","asciiname":"Tambo","alternatenames":["Tambo"],"latitude":"9.895","longitude":"123.0556","feature_class":"P","feature_code":"PPL","country_code":"PH","cc2":"","admin1_code":"07","admin2_code":"46","admin3_code":"","admin4_code":"","population":"3196","elevation":"","dem":"433","timezone":"Asia/Manila","modification_date":"2012-01-17"},{"geonameid":"1683586","name":"Tambo","asciiname":"Tambo","alternatenames":["Tambo"],"latitude":"7.15694","longitude":"125.69917","feature_class":"P","feature_code":"PPL","country_code":"PH","cc2":"","admin1_code":"11","admin2_code":"I7","admin3_code":"","admin4_code":"","population":"2378","elevation":"","dem":"60","timezone":"Asia/Manila","modification_date":"2012-02-01"},{"geonameid":"1683602","name":"Tambilil","asciiname":"Tambilil","alternatenames":["Tambilil","Tamblil"],"latitude":"5.96222","longitude":"124.66972","feature_class":"P","feature_code":"PPL","country_code":"PH","cc2":"","admin1_code":"12","admin2_code":"M9","admin3_code":"","admin4_code":"","population":"4740","elevation":"","dem":"7","timezone":"Asia/Manila","modification_date":"2012-01-17"},{"geonameid":"1683629","name":"Tambalisa","asciiname":"Tambalisa","alternatenames":["Tambalisa","Tambaliza"],"latitude":"11.2698","longitude":"123.165","feature_class":"P","feature_code":"PPL","country_code":"PH","cc2":"","admin1_code":"06","admin2_code":"30","admin3_code":"","admin4_code":"","population":"2950","elevation":"","dem":"20","timezone":"Asia/Manila","modification_date":"2012-01-17"},{"geonameid":"1683638","name":"Tambac","asciiname":"Tambac","alternatenames":["Tambac","Tambak"],"latitude":"11.6705","longitude":"122.4112","feature_class":"P","feature_code":"PPL","country_code":"PH","cc2":"","admin1_code":"06","admin2_code":"04","admin3_code":"","admin4_code":"","population":"2690","elevation":"","dem":"11","timezone":"Asia/Manila","modification_date":"2012-01-17"},{"geonameid":"1683642","name":"Tambak","asciiname":"Tambak","alternatenames":["Tambac","Tambak"],"latitude":"6.72639","longitude":"124.62639","feature_class":"P","feature_code":"PPL","country_code":"PH","cc2":"","admin1_code":"12","admin2_code":"71","admin3_code":"","admin4_code":"","population":"2258","elevation":"","dem":"42","timezone":"Asia/Manila","modification_date":"2012-01-17"},{"geonameid":"1683663","name":"Tamayo","asciiname":"Tamayo","alternatenames":["Tamayo"],"latitude":"15.87746","longitude":"120.28455","feature_class":"P","feature_code":"PPL","country_code":"PH","cc2":"","admin1_code":"01","admin2_code":"51","admin3_code":"","admin4_code":"","population":"5767","elevation":"","dem":"14","timezone":"Asia/Manila","modification_date":"2013-01-10"},{"geonameid":"1683690","name":"Taluya","asciiname":"Taluya","alternatenames":["Taluya"],"latitude":"5.81167","longitude":"125.17278","feature_class":"P","feature_code":"PPL","country_code":"PH","cc2":"","admin1_code":"12","admin2_code":"M9","admin3_code":"","admin4_code":"","population":"4903","elevation":"","dem":"1","timezone":"Asia/Manila","modification_date":"2012-01-17"},{"geonameid":"1683701","name":"Talusan","asciiname":"Talusan","alternatenames":[""],"latitude":"7.42667","longitude":"122.81028","feature_class":"P","feature_code":"PPLA3","country_code":"PH","cc2":"","admin1_code":"09","admin2_code":"66","admin3_code":"1683702","admin4_code":"","population":"5783","elevation":"","dem":"19","timezone":"Asia/Manila","modification_date":"2011-07-31"},{"geonameid":"1683713","name":"Taluksangay","asciiname":"Taluksangay","alternatenames":[""],"latitude":"6.95417","longitude":"122.18389","feature_class":"P","feature_code":"PPL","country_code":"PH","cc2":"","admin1_code":"09","admin2_code":"G7","admin3_code":"","admin4_code":"","population":"7343","elevation":"","dem":"5","timezone":"Asia/Manila","modification_date":"2014-03-01"},{"geonameid":"1683718","name":"Talugtug","asciiname":"Talugtug","alternatenames":["San Isidro","Talogtog","Talugtog","Talugtogbalite","Talugtug","Talugtug-bali"],"latitude":"15.7778","longitude":"120.8111","feature_class":"P","feature_code":"PPL","country_code":"PH","cc2":"","admin1_code":"03","admin2_code":"47","admin3_code":"","admin4_code":"","population":"6307","elevation":"","dem":"91","timezone":"Asia/Manila","modification_date":"2012-01-17"},{"geonameid":"1683733","name":"Taltal","asciiname":"Taltal","alternatenames":["Taltal"],"latitude":"15.5878","longitude":"119.9455","feature_class":"P","feature_code":"PPL","country_code":"PH","cc2":"","admin1_code":"03","admin2_code":"64","admin3_code":"","admin4_code":"","population":"5370","elevation":"","dem":"20","timezone":"Asia/Manila","modification_date":"2012-01-17"},{"geonameid":"1683737","name":"Taloy","asciiname":"Taloy","alternatenames":["Taloy"],"latitude":"16.33333","longitude":"120.5","feature_class":"P","feature_code":"PPL","country_code":"PH","cc2":"","admin1_code":"15","admin2_code":"10","admin3_code":"","admin4_code":"","population":"3485","elevation":"","dem":"321","timezone":"Asia/Manila","modification_date":"2012-02-01"},{"geonameid":"1683738","name":"Taloy","asciiname":"Taloy","alternatenames":["Taloy"],"latitude":"15.9241","longitude":"120.39649","feature_class":"P","feature_code":"PPL","country_code":"PH","cc2":"","admin1_code":"01","admin2_code":"51","admin3_code":"","admin4_code":"","population":"2352","elevation":"","dem":"16","timezone":"Asia/Manila","modification_date":"2013-01-10"},{"geonameid":"1683742","name":"Platagata","asciiname":"Platagata","alternatenames":["Platagata","Taloto-an"],"latitude":"11.303","longitude":"123.1567","feature_class":"P","feature_code":"PPL","country_code":"PH","cc2":"","admin1_code":"06","admin2_code":"30","admin3_code":"","admin4_code":"","population":"2504","elevation":"","dem":"5","timezone":"Asia/Manila","modification_date":"2012-01-17"},{"geonameid":"1683747","name":"Talospatang","asciiname":"Talospatang","alternatenames":["Talospatang"],"latitude":"15.91701","longitude":"120.44141","feature_class":"P","feature_code":"PPL","country_code":"PH","cc2":"","admin1_code":"01","admin2_code":"51","admin3_code":"","admin4_code":"","population":"3058","elevation":"","dem":"17","timezone":"Asia/Manila","modification_date":"2013-01-10"},{"geonameid":"1683771","name":"Talon","asciiname":"Talon","alternatenames":["Talon"],"latitude":"11.56","longitude":"122.68111","feature_class":"P","feature_code":"PPL","country_code":"PH","cc2":"","admin1_code":"06","admin2_code":"18","admin3_code":"","admin4_code":"","population":"2311","elevation":"","dem":"33","timezone":"Asia/Manila","modification_date":"2012-02-01"},{"geonameid":"1683779","name":"Talomo","asciiname":"Talomo","alternatenames":["Talomo"],"latitude":"7.52861","longitude":"125.72278","feature_class":"P","feature_code":"PPL","country_code":"PH","cc2":"","admin1_code":"11","admin2_code":"I7","admin3_code":"","admin4_code":"","population":"3857","elevation":"","dem":"18","timezone":"Asia/Manila","modification_date":"2012-02-01"},{"geonameid":"1683784","name":"Talokgañgan","asciiname":"Talokgangan","alternatenames":[""],"latitude":"11.00778","longitude":"122.845","feature_class":"P","feature_code":"PPL","country_code":"PH","cc2":"","admin1_code":"06","admin2_code":"30","admin3_code":"","admin4_code":"","population":"2346","elevation":"","dem":"31","timezone":"Asia/Manila","modification_date":"2010-08-14"},{"geonameid":"1683800","name":"Taloc","asciiname":"Taloc","alternatenames":["Taloc","Taluc"],"latitude":"10.5746","longitude":"122.8954","feature_class":"P","feature_code":"PPL","country_code":"PH","cc2":"","admin1_code":"06","admin2_code":"H3","admin3_code":"","admin4_code":"","population":"20409","elevation":"","dem":"8","timezone":"Asia/Manila","modification_date":"2012-06-05"},{"geonameid":"1683801","name":"Talubatib","asciiname":"Talubatib","alternatenames":["Talobatib","Talubatib"],"latitude":"14.1825","longitude":"122.7853","feature_class":"P","feature_code":"PPL","country_code":"PH","cc2":"","admin1_code":"05","admin2_code":"15","admin3_code":"","admin4_code":"","population":"3459","elevation":"","dem":"26","timezone":"Asia/Manila","modification_date":"2012-01-17"},{"geonameid":"1683818","name":"Talitay","asciiname":"Talitay","alternatenames":["Talita","Talitay"],"latitude":"7.03333","longitude":"124.7","feature_class":"P","feature_code":"PPL","country_code":"PH","cc2":"","admin1_code":"14","admin2_code":"56","admin3_code":"","admin4_code":"","population":"3983","elevation":"","dem":"17","timezone":"Asia/Manila","modification_date":"2012-01-17"},{"geonameid":"1683852","name":"Talisayan","asciiname":"Talisayan","alternatenames":["Talisayan"],"latitude":"10.95","longitude":"124.7","feature_class":"P","feature_code":"PPL","country_code":"PH","cc2":"","admin1_code":"08","admin2_code":"37","admin3_code":"","admin4_code":"","population":"2332","elevation":"","dem":"58","timezone":"Asia/Manila","modification_date":"2012-02-01"},{"geonameid":"1683855","name":"Talisayan","asciiname":"Talisayan","alternatenames":[""],"latitude":"9.0003","longitude":"124.88091","feature_class":"P","feature_code":"PPLA3","country_code":"PH","cc2":"","admin1_code":"10","admin2_code":"43","admin3_code":"1683857","admin4_code":"","population":"4616","elevation":"","dem":"5","timezone":"Asia/Manila","modification_date":"2011-07-31"},{"geonameid":"1683856","name":"Talisayan","asciiname":"Talisayan","alternatenames":[""],"latitude":"6.98722","longitude":"121.92722","feature_class":"P","feature_code":"PPL","country_code":"PH","cc2":"","admin1_code":"09","admin2_code":"G7","admin3_code":"","admin4_code":"","population":"5445","elevation":"","dem":"15","timezone":"Asia/Manila","modification_date":"2014-03-01"},{"geonameid":"1683859","name":"Talisay","asciiname":"Talisay","alternatenames":["Talisay"],"latitude":"14.1343","longitude":"122.9226","feature_class":"P","feature_code":"PPLA3","country_code":"PH","cc2":"","admin1_code":"05","admin2_code":"15","admin3_code":"1683889","admin4_code":"","population":"7544","elevation":"","dem":"12","timezone":"Asia/Manila","modification_date":"2011-07-31"},{"geonameid":"1683860","name":"Talisay","asciiname":"Talisay","alternatenames":["Talisay"],"latitude":"14.0925","longitude":"121.02194","feature_class":"P","feature_code":"PPLA3","country_code":"PH","cc2":"","admin1_code":"40","admin2_code":"09","admin3_code":"1683890","admin4_code":"","population":"24969","elevation":"","dem":"17","timezone":"Asia/Manila","modification_date":"2011-07-31"},{"geonameid":"1683861","name":"Talisay","asciiname":"Talisay","alternatenames":["Talisay"],"latitude":"13.9706","longitude":"121.2051","feature_class":"P","feature_code":"PPL","country_code":"PH","cc2":"","admin1_code":"40","admin2_code":"09","admin3_code":"","admin4_code":"","population":"4679","elevation":"","dem":"359","timezone":"Asia/Manila","modification_date":"2012-07-04"},{"geonameid":"1683862","name":"Talisay","asciiname":"Talisay","alternatenames":["Talisay"],"latitude":"13.91484","longitude":"120.62326","feature_class":"P","feature_code":"PPL","country_code":"PH","cc2":"","admin1_code":"40","admin2_code":"09","admin3_code":"","admin4_code":"","population":"2356","elevation":"","dem":"11","timezone":"Asia/Manila","modification_date":"2012-01-17"},{"geonameid":"1683865","name":"Talisay","asciiname":"Talisay","alternatenames":["Talisay"],"latitude":"13.18056","longitude":"122.62361","feature_class":"P","feature_code":"PPL","country_code":"PH","cc2":"","admin1_code":"40","admin2_code":"H2","admin3_code":"","admin4_code":"","population":"5141","elevation":"","dem":"35","timezone":"Asia/Manila","modification_date":"2012-06-05"},{"geonameid":"1683871","name":"Talisay","asciiname":"Talisay","alternatenames":["Tailsay","Talisay"],"latitude":"11.24504","longitude":"124.05491","feature_class":"P","feature_code":"PPLX","country_code":"PH","cc2":"","admin1_code":"07","admin2_code":"21","admin3_code":"","admin4_code":"","population":"4117","elevation":"","dem":"37","timezone":"Asia/Manila","modification_date":"2015-04-19"},{"geonameid":"1683877","name":"Talisay","asciiname":"Talisay","alternatenames":["Talisay"],"latitude":"10.7375","longitude":"122.9666","feature_class":"P","feature_code":"PPL","country_code":"PH","cc2":"","admin1_code":"06","admin2_code":"H3","admin3_code":"","admin4_code":"","population":"65265","elevation":"","dem":"9","timezone":"Asia/Manila","modification_date":"2012-08-04"},{"geonameid":"1683881","name":"Talisay","asciiname":"Talisay","alternatenames":["Ciudad ti Talisay","Talisay","Talisay City","tarisai","タリサイ"],"latitude":"10.24472","longitude":"123.84944","feature_class":"P","feature_code":"PPLA3","country_code":"PH","cc2":"","admin1_code":"07","admin2_code":"21","admin3_code":"1683892","admin4_code":"","population":"133148","elevation":"","dem":"4","timezone":"Asia/Manila","modification_date":"2011-07-31"},{"geonameid":"1683883","name":"Talisay","asciiname":"Talisay","alternatenames":[""],"latitude":"9.81889","longitude":"125.61556","feature_class":"P","feature_code":"PPL","country_code":"PH","cc2":"","admin1_code":"13","admin2_code":"61","admin3_code":"","admin4_code":"","population":"2200","elevation":"","dem":"0","timezone":"Asia/Manila","modification_date":"2010-08-14"},{"geonameid":"1683886","name":"Talisay","asciiname":"Talisay","alternatenames":["Talisay"],"latitude":"6.71973","longitude":"126.09998","feature_class":"P","feature_code":"PPL","country_code":"PH","cc2":"","admin1_code":"11","admin2_code":"26","admin3_code":"","admin4_code":"","population":"2583","elevation":"","dem":"58","timezone":"Asia/Manila","modification_date":"2012-01-17"},{"geonameid":"1683900","name":"Talipao","asciiname":"Talipao","alternatenames":["Bila'an","Bilaan Constabulary Post","Bila’an","Camp Romandier","Romandies","Talipao","Talipaw"],"latitude":"5.97639","longitude":"121.11611","feature_class":"P","feature_code":"PPLA2","country_code":"PH","cc2":"","admin1_code":"14","admin2_code":"60","admin3_code":"","admin4_code":"","population":"0","elevation":"","dem":"81","timezone":"Asia/Manila","modification_date":"2013-05-07"},{"geonameid":"1683911","name":"Talipan","asciiname":"Talipan","alternatenames":[""],"latitude":"13.93333","longitude":"121.68333","feature_class":"P","feature_code":"PPL","country_code":"PH","cc2":"","admin1_code":"40","admin2_code":"H2","admin3_code":"","admin4_code":"","population":"4473","elevation":"","dem":"5","timezone":"Asia/Manila","modification_date":"2012-06-05"},{"geonameid":"1683931","name":"Tal I Mun Doc","asciiname":"Tal I Mun Doc","alternatenames":["Tal I Mun Doc"],"latitude":"15.2121","longitude":"120.6849","feature_class":"P","feature_code":"PPL","country_code":"PH","cc2":"","admin1_code":"03","admin2_code":"50","admin3_code":"","admin4_code":"","population":"3855","elevation":"","dem":"36","timezone":"Asia/Manila","modification_date":"2012-01-17"},{"geonameid":"1683949","name":"Taligaman","asciiname":"Taligaman","alternatenames":[""],"latitude":"8.90444","longitude":"125.65583","feature_class":"P","feature_code":"PPL","country_code":"PH","cc2":"","admin1_code":"13","admin2_code":"02","admin3_code":"","admin4_code":"","population":"7430","elevation":"","dem":"199","timezone":"Asia/Manila","modification_date":"2015-01-27"},{"geonameid":"1683961","name":"Talibon","asciiname":"Talibon","alternatenames":[""],"latitude":"10.14917","longitude":"124.325","feature_class":"P","feature_code":"PPLA3","country_code":"PH","cc2":"","admin1_code":"07","admin2_code":"11","admin3_code":"1683963","admin4_code":"","population":"11209","elevation":"","dem":"11","timezone":"Asia/Manila","modification_date":"2011-07-31"},{"geonameid":"1684007","name":"Talayan","asciiname":"Talayan","alternatenames":[""],"latitude":"6.98056","longitude":"124.38194","feature_class":"P","feature_code":"PPLA3","country_code":"PH","cc2":"","admin1_code":"14","admin2_code":"56","admin3_code":"1684008","admin4_code":"","population":"0","elevation":"","dem":"22","timezone":"Asia/Manila","modification_date":"2011-07-31"},{"geonameid":"1684016","name":"Talavera","asciiname":"Talavera","alternatenames":["Talavera","Талавера"],"latitude":"15.5883","longitude":"120.9192","feature_class":"P","feature_code":"PPLA3","country_code":"PH","cc2":"","admin1_code":"03","admin2_code":"47","admin3_code":"1684019","admin4_code":"","population":"64610","elevation":"","dem":"46","timezone":"Asia/Manila","modification_date":"2011-07-31"},{"geonameid":"1684052","name":"Talangnan","asciiname":"Talangnan","alternatenames":["Talangnan"],"latitude":"9.634","longitude":"123.3344","feature_class":"P","feature_code":"PPL","country_code":"PH","cc2":"","admin1_code":"07","admin2_code":"21","admin3_code":"","admin4_code":"","population":"3276","elevation":"","dem":"447","timezone":"Asia/Manila","modification_date":"2012-01-17"},{"geonameid":"1684062","name":"Talang","asciiname":"Talang","alternatenames":["Talang"],"latitude":"15.02488","longitude":"120.83782","feature_class":"P","feature_code":"PPL","country_code":"PH","cc2":"","admin1_code":"03","admin2_code":"50","admin3_code":"","admin4_code":"","population":"2497","elevation":"","dem":"11","timezone":"Asia/Manila","modification_date":"2013-02-08"},{"geonameid":"1684077","name":"Talalora","asciiname":"Talalora","alternatenames":["Talalora"],"latitude":"11.5293","longitude":"124.8362","feature_class":"P","feature_code":"PPLA3","country_code":"PH","cc2":"","admin1_code":"08","admin2_code":"55","admin3_code":"1684078","admin4_code":"","population":"2186","elevation":"","dem":"5","timezone":"Asia/Manila","modification_date":"2011-07-31"},{"geonameid":"1684086","name":"Talakag","asciiname":"Talakag","alternatenames":["Talacag","Talakag"],"latitude":"8.23361","longitude":"124.60028","feature_class":"P","feature_code":"PPL","country_code":"PH","cc2":"","admin1_code":"10","admin2_code":"12","admin3_code":"","admin4_code":"","population":"7860","elevation":"","dem":"403","timezone":"Asia/Manila","modification_date":"2012-01-17"},{"geonameid":"1684095","name":"Talaibon","asciiname":"Talaibon","alternatenames":["Talaibon"],"latitude":"13.8378","longitude":"121.1398","feature_class":"P","feature_code":"PPL","country_code":"PH","cc2":"","admin1_code":"40","admin2_code":"09","admin3_code":"","admin4_code":"","population":"2820","elevation":"","dem":"151","timezone":"Asia/Manila","modification_date":"2012-01-17"},{"geonameid":"1684100","name":"Talahib Payap","asciiname":"Talahib Payap","alternatenames":["Talahib","Talahib Payap","Talahib Payapa"],"latitude":"13.66083","longitude":"121.13639","feature_class":"P","feature_code":"PPL","country_code":"PH","cc2":"","admin1_code":"40","admin2_code":"09","admin3_code":"","admin4_code":"","population":"3117","elevation":"","dem":"118","timezone":"Asia/Manila","modification_date":"2012-01-17"},{"geonameid":"1684103","name":"Talahiban I","asciiname":"Talahiban I","alternatenames":["Talahiban","Talahiban I","Talahiban Primero","Talahiban Uno"],"latitude":"13.80645","longitude":"121.38116","feature_class":"P","feature_code":"PPL","country_code":"PH","cc2":"","admin1_code":"40","admin2_code":"09","admin3_code":"","admin4_code":"","population":"3385","elevation":"","dem":"25","timezone":"Asia/Manila","modification_date":"2015-04-30"},{"geonameid":"1684122","name":"Talaga","asciiname":"Talaga","alternatenames":["Talaga"],"latitude":"15.38403","longitude":"120.58933","feature_class":"P","feature_code":"PPL","country_code":"PH","cc2":"","admin1_code":"03","admin2_code":"63","admin3_code":"","admin4_code":"","population":"4655","elevation":"","dem":"62","timezone":"Asia/Manila","modification_date":"2013-01-10"},{"geonameid":"1684128","name":"Talaga","asciiname":"Talaga","alternatenames":["Talaga"],"latitude":"13.73646","longitude":"120.93618","feature_class":"P","feature_code":"PPL","country_code":"PH","cc2":"","admin1_code":"40","admin2_code":"09","admin3_code":"","admin4_code":"","population":"3231","elevation":"","dem":"9","timezone":"Asia/Manila","modification_date":"2012-01-17"},{"geonameid":"1684137","name":"Talacogon","asciiname":"Talacogon","alternatenames":[""],"latitude":"8.45611","longitude":"125.78417","feature_class":"P","feature_code":"PPLA3","country_code":"PH","cc2":"","admin1_code":"13","admin2_code":"03","admin3_code":"1684139","admin4_code":"","population":"15581","elevation":"","dem":"20","timezone":"Asia/Manila","modification_date":"2011-07-31"},{"geonameid":"1684154","name":"Talaban","asciiname":"Talaban","alternatenames":["Talaban"],"latitude":"10.1254","longitude":"122.8671","feature_class":"P","feature_code":"PPL","country_code":"PH","cc2":"","admin1_code":"06","admin2_code":"H3","admin3_code":"","admin4_code":"","population":"6003","elevation":"","dem":"11","timezone":"Asia/Manila","modification_date":"2012-06-05"},{"geonameid":"1684177","name":"Tala","asciiname":"Tala","alternatenames":["Tala"],"latitude":"13.2742","longitude":"122.5859","feature_class":"P","feature_code":"PPL","country_code":"PH","cc2":"","admin1_code":"40","admin2_code":"H2","admin3_code":"","admin4_code":"","population":"4270","elevation":"","dem":"176","timezone":"Asia/Manila","modification_date":"2012-06-05"},{"geonameid":"1684190","name":"Tacub","asciiname":"Tacub","alternatenames":["Tacub","Takub"],"latitude":"8.1875","longitude":"124.10806","feature_class":"P","feature_code":"PPL","country_code":"PH","cc2":"","admin1_code":"10","admin2_code":"34","admin3_code":"","admin4_code":"","population":"3137","elevation":"","dem":"0","timezone":"Asia/Manila","modification_date":"2012-01-17"},{"geonameid":"1684191","name":"Takub","asciiname":"Takub","alternatenames":["Tacub","Takub"],"latitude":"6.85639","longitude":"125.4225","feature_class":"P","feature_code":"PPL","country_code":"PH","cc2":"","admin1_code":"11","admin2_code":"25","admin3_code":"","admin4_code":"","population":"2391","elevation":"","dem":"122","timezone":"Asia/Manila","modification_date":"2012-01-17"},{"geonameid":"1684210","name":"Tajao","asciiname":"Tajao","alternatenames":["Tahao","Tajao","Tanaw"],"latitude":"10.3148","longitude":"123.5835","feature_class":"P","feature_code":"PPL","country_code":"PH","cc2":"","admin1_code":"07","admin2_code":"21","admin3_code":"","admin4_code":"","population":"5394","elevation":"","dem":"3","timezone":"Asia/Manila","modification_date":"2012-01-17"},{"geonameid":"1684245","name":"Tagusao","asciiname":"Tagusao","alternatenames":["Tagusao"],"latitude":"9.19238","longitude":"117.8141","feature_class":"P","feature_code":"PPL","country_code":"PH","cc2":"","admin1_code":"41","admin2_code":"49","admin3_code":"","admin4_code":"","population":"2961","elevation":"","dem":"8","timezone":"Asia/Manila","modification_date":"2012-01-17"},{"geonameid":"1684268","name":"Tagum Norte","asciiname":"Tagum Norte","alternatenames":["Tagum","Tagum Norte"],"latitude":"10.07454","longitude":"124.38925","feature_class":"P","feature_code":"PPL","country_code":"PH","cc2":"","admin1_code":"07","admin2_code":"11","admin3_code":"","admin4_code":"","population":"2559","elevation":"","dem":"5","timezone":"Asia/Manila","modification_date":"2012-01-17"},{"geonameid":"1684269","name":"Tagum","asciiname":"Tagum","alternatenames":["Magugpo","Tagum"],"latitude":"7.44778","longitude":"125.80778","feature_class":"P","feature_code":"PPLA2","country_code":"PH","cc2":"PH","admin1_code":"11","admin2_code":"I7","admin3_code":"","admin4_code":"","population":"233254","elevation":"","dem":"26","timezone":"Asia/Manila","modification_date":"2012-02-21"},{"geonameid":"1684292","name":"Taguisa","asciiname":"Taguisa","alternatenames":["Taguisa"],"latitude":"6.69833","longitude":"124.03583","feature_class":"P","feature_code":"PPL","country_code":"PH","cc2":"","admin1_code":"12","admin2_code":"71","admin3_code":"","admin4_code":"","population":"3147","elevation":"","dem":"1","timezone":"Asia/Manila","modification_date":"2012-02-01"},{"geonameid":"1684300","name":"Taguing","asciiname":"Taguing","alternatenames":["Taguing"],"latitude":"17.94636","longitude":"121.75521","feature_class":"P","feature_code":"PPL","country_code":"PH","cc2":"","admin1_code":"02","admin2_code":"14","admin3_code":"","admin4_code":"","population":"2081","elevation":"","dem":"33","timezone":"Asia/Manila","modification_date":"2013-04-03"},{"geonameid":"1684308","name":"Taguig","asciiname":"Taguig","alternatenames":["City of Taguig","Santa Ana","Tagig","Taguig","Тагиг"],"latitude":"14.5243","longitude":"121.0792","feature_class":"P","feature_code":"PPLA3","country_code":"PH","cc2":"","admin1_code":"40","admin2_code":"53","admin3_code":"1684309","admin4_code":"","population":"644473","elevation":"","dem":"5","timezone":"Asia/Manila","modification_date":"2014-04-19"},{"geonameid":"1684320","name":"Tagudin","asciiname":"Tagudin","alternatenames":["Tagudin"],"latitude":"16.9355","longitude":"120.4442","feature_class":"P","feature_code":"PPLA3","country_code":"PH","cc2":"","admin1_code":"01","admin2_code":"29","admin3_code":"1684322","admin4_code":"","population":"35791","elevation":"","dem":"10","timezone":"Asia/Manila","modification_date":"2011-08-19"},{"geonameid":"1684321","name":"Tagudin","asciiname":"Tagudin","alternatenames":["Tagudin","Taguding"],"latitude":"16.0806","longitude":"119.9539","feature_class":"P","feature_code":"PPL","country_code":"PH","cc2":"","admin1_code":"01","admin2_code":"51","admin3_code":"","admin4_code":"","population":"3052","elevation":"","dem":"54","timezone":"Asia/Manila","modification_date":"2012-01-17"},{"geonameid":"1684348","name":"Tagasilay","asciiname":"Tagasilay","alternatenames":["Tagasilay","Tagsilay"],"latitude":"7.3025","longitude":"122.25861","feature_class":"P","feature_code":"PPL","country_code":"PH","cc2":"","admin1_code":"09","admin2_code":"66","admin3_code":"","admin4_code":"","population":"3192","elevation":"","dem":"138","timezone":"Asia/Manila","modification_date":"2010-08-14"},{"geonameid":"1684361","name":"Taypano","asciiname":"Taypano","alternatenames":["Tagpangi"],"latitude":"8.37083","longitude":"124.55944","feature_class":"P","feature_code":"PPL","country_code":"PH","cc2":"","admin1_code":"10","admin2_code":"B2","admin3_code":"","admin4_code":"","population":"2980","elevation":"","dem":"185","timezone":"Asia/Manila","modification_date":"2014-03-01"},{"geonameid":"1684364","name":"Tagoytoy","asciiname":"Tagoytoy","alternatenames":["Tagoytoy"],"latitude":"13.4158","longitude":"123.678","feature_class":"P","feature_code":"PPL","country_code":"PH","cc2":"","admin1_code":"05","admin2_code":"05","admin3_code":"","admin4_code":"","population":"2106","elevation":"","dem":"38","timezone":"Asia/Manila","modification_date":"2012-01-17"},{"geonameid":"1684379","name":"Tagoloan","asciiname":"Tagoloan","alternatenames":["Tagoloan"],"latitude":"8.53954","longitude":"124.75411","feature_class":"P","feature_code":"PPLA3","country_code":"PH","cc2":"","admin1_code":"10","admin2_code":"43","admin3_code":"1684382","admin4_code":"","population":"30390","elevation":"","dem":"15","timezone":"Asia/Manila","modification_date":"2015-04-07"},{"geonameid":"1684395","name":"Tago","asciiname":"Tago","alternatenames":[""],"latitude":"9.02111","longitude":"126.23167","feature_class":"P","feature_code":"PPLA3","country_code":"PH","cc2":"","admin1_code":"13","admin2_code":"62","admin3_code":"1684397","admin4_code":"","population":"6300","elevation":"","dem":"9","timezone":"Asia/Manila","modification_date":"2011-07-31"},{"geonameid":"1684409","name":"Patikul","asciiname":"Patikul","alternatenames":["Patikul","Tagibi","Taglibi"],"latitude":"6.08917","longitude":"121.10528","feature_class":"P","feature_code":"PPLA3","country_code":"PH","cc2":"PH","admin1_code":"14","admin2_code":"60","admin3_code":"1694388","admin4_code":"","population":"0","elevation":"","dem":"6","timezone":"Asia/Manila","modification_date":"2011-07-31"},{"geonameid":"1684422","name":"Tagkawayan Sabang","asciiname":"Tagkawayan Sabang","alternatenames":["Tagkawayan Sabang"],"latitude":"13.9909","longitude":"122.5298","feature_class":"P","feature_code":"PPL","country_code":"PH","cc2":"","admin1_code":"40","admin2_code":"H2","admin3_code":"","admin4_code":"","population":"7684","elevation":"","dem":"119","timezone":"Asia/Manila","modification_date":"2012-06-05"},{"geonameid":"1684454","name":"Tagdanua","asciiname":"Tagdanua","alternatenames":["Tagdangua","Tagdanua"],"latitude":"7.2043","longitude":"125.8841","feature_class":"P","feature_code":"PPL","country_code":"PH","cc2":"","admin1_code":"11","admin2_code":"I6","admin3_code":"","admin4_code":"","population":"4116","elevation":"","dem":"16","timezone":"Asia/Manila","modification_date":"2012-01-17"},{"geonameid":"1684462","name":"Tagcatong","asciiname":"Tagcatong","alternatenames":["Tagcatong"],"latitude":"9.00222","longitude":"125.25694","feature_class":"P","feature_code":"PPL","country_code":"PH","cc2":"","admin1_code":"13","admin2_code":"02","admin3_code":"","admin4_code":"","population":"2907","elevation":"","dem":"34","timezone":"Asia/Manila","modification_date":"2012-02-01"},{"geonameid":"1684463","name":"Tagburos","asciiname":"Tagburos","alternatenames":[""],"latitude":"9.82861","longitude":"118.73194","feature_class":"P","feature_code":"PPL","country_code":"PH","cc2":"","admin1_code":"41","admin2_code":"49","admin3_code":"","admin4_code":"","population":"4149","elevation":"","dem":"51","timezone":"Asia/Manila","modification_date":"2010-08-14"},{"geonameid":"1684466","name":"Tagbubungang Diot","asciiname":"Tagbubungang Diot","alternatenames":["Tabubunga","Tagbobunga","Tagbubunga","Tagbubungang Diot"],"latitude":"11.1257","longitude":"124.4028","feature_class":"P","feature_code":"PPL","country_code":"PH","cc2":"","admin1_code":"08","admin2_code":"37","admin3_code":"","admin4_code":"","population":"2489","elevation":"","dem":"7","timezone":"Asia/Manila","modification_date":"2012-01-17"},{"geonameid":"1684491","name":"Tagbina","asciiname":"Tagbina","alternatenames":["Tagbina"],"latitude":"8.45194","longitude":"126.17139","feature_class":"P","feature_code":"PPLA3","country_code":"PH","cc2":"","admin1_code":"13","admin2_code":"62","admin3_code":"1684492","admin4_code":"","population":"10672","elevation":"","dem":"57","timezone":"Asia/Manila","modification_date":"2011-07-31"},{"geonameid":"1684497","name":"Tagbilaran City","asciiname":"Tagbilaran City","alternatenames":["Dakbayan sa Tagbilaran","Syudad han Tagbilaran","TAG","Tagbilaran","Tagbilaran City"],"latitude":"9.65556","longitude":"123.85219","feature_class":"P","feature_code":"PPLA2","country_code":"PH","cc2":"","admin1_code":"07","admin2_code":"11","admin3_code":"","admin4_code":"","population":"86411","elevation":"","dem":"10","timezone":"Asia/Manila","modification_date":"2014-05-29"},{"geonameid":"1684538","name":"Tagbacan Ibaba","asciiname":"Tagbacan Ibaba","alternatenames":["Tagbacan","Tagbacan Ibaba"],"latitude":"13.6028","longitude":"122.3687","feature_class":"P","feature_code":"PPL","country_code":"PH","cc2":"","admin1_code":"40","admin2_code":"H2","admin3_code":"","admin4_code":"","population":"4840","elevation":"","dem":"54","timezone":"Asia/Manila","modification_date":"2012-06-05"},{"geonameid":"1684542","name":"Tagbak","asciiname":"Tagbak","alternatenames":["Tabbac","Tagbac","Tagbak"],"latitude":"13.84166","longitude":"120.08872","feature_class":"P","feature_code":"PPL","country_code":"PH","cc2":"","admin1_code":"41","admin2_code":"40","admin3_code":"","admin4_code":"","population":"4143","elevation":"","dem":"10","timezone":"Asia/Manila","modification_date":"2012-01-17"},{"geonameid":"1684562","name":"Tugaya","asciiname":"Tugaya","alternatenames":["Tagaya","Tugaya"],"latitude":"7.88277","longitude":"124.174","feature_class":"P","feature_code":"PPLA3","country_code":"PH","cc2":"","admin1_code":"14","admin2_code":"35","admin3_code":"1680967","admin4_code":"","population":"2501","elevation":"","dem":"705","timezone":"Asia/Manila","modification_date":"2011-07-31"},{"geonameid":"1684577","name":"Tagas","asciiname":"Tagas","alternatenames":["Tagas"],"latitude":"13.16667","longitude":"123.71667","feature_class":"P","feature_code":"PPL","country_code":"PH","cc2":"","admin1_code":"05","admin2_code":"05","admin3_code":"","admin4_code":"","population":"15292","elevation":"","dem":"55","timezone":"Asia/Manila","modification_date":"2012-07-04"},{"geonameid":"1684583","name":"Tagapul-an","asciiname":"Tagapul-an","alternatenames":["Tagapul-an"],"latitude":"12.05","longitude":"124.15","feature_class":"P","feature_code":"PPLA3","country_code":"PH","cc2":"","admin1_code":"08","admin2_code":"55","admin3_code":"1684584","admin4_code":"","population":"0","elevation":"","dem":"70","timezone":"Asia/Manila","modification_date":"2011-07-31"},{"geonameid":"1684606","name":"Taganak","asciiname":"Taganak","alternatenames":["Taganak","Turtle Islands"],"latitude":"6.08333","longitude":"118.3","feature_class":"P","feature_code":"PPL","country_code":"PH","cc2":"","admin1_code":"14","admin2_code":"72","admin3_code":"","admin4_code":"","population":"2638","elevation":"","dem":"-9999","timezone":"Asia/Manila","modification_date":"2012-01-17"},{"geonameid":"1684610","name":"Tagana-an","asciiname":"Tagana-an","alternatenames":["Tagana-an"],"latitude":"9.69722","longitude":"125.58556","feature_class":"P","feature_code":"PPLA3","country_code":"PH","cc2":"","admin1_code":"13","admin2_code":"61","admin3_code":"1684611","admin4_code":"","population":"4386","elevation":"","dem":"7","timezone":"Asia/Manila","modification_date":"2011-07-31"},{"geonameid":"1684629","name":"Tagakpan","asciiname":"Tagakpan","alternatenames":["Tagakpad"],"latitude":"7.11278","longitude":"125.42917","feature_class":"P","feature_code":"PPL","country_code":"PH","cc2":"","admin1_code":"11","admin2_code":"C3","admin3_code":"","admin4_code":"","population":"4019","elevation":"","dem":"415","timezone":"Asia/Manila","modification_date":"2014-03-01"},{"geonameid":"1684645","name":"Tayabas Ibaba","asciiname":"Tayabas Ibaba","alternatenames":["Tagabas","Tayabas Ibaba"],"latitude":"13.6222","longitude":"122.2814","feature_class":"P","feature_code":"PPL","country_code":"PH","cc2":"","admin1_code":"40","admin2_code":"H2","admin3_code":"","admin4_code":"","population":"2228","elevation":"","dem":"32","timezone":"Asia/Manila","modification_date":"2012-06-05"},{"geonameid":"1684659","name":"Taft","asciiname":"Taft","alternatenames":["Taft"],"latitude":"11.90111","longitude":"125.41889","feature_class":"P","feature_code":"PPLA3","country_code":"PH","cc2":"","admin1_code":"08","admin2_code":"23","admin3_code":"1684661","admin4_code":"","population":"4421","elevation":"","dem":"9","timezone":"Asia/Manila","modification_date":"2011-07-31"},{"geonameid":"1684672","name":"Tadian","asciiname":"Tadian","alternatenames":["Tadian"],"latitude":"16.9956","longitude":"120.8203","feature_class":"P","feature_code":"PPLA3","country_code":"PH","cc2":"","admin1_code":"15","admin2_code":"44","admin3_code":"1684673","admin4_code":"","population":"2803","elevation":"","dem":"1331","timezone":"Asia/Manila","modification_date":"2011-07-31"},{"geonameid":"1684681","name":"Tacurong","asciiname":"Tacurong","alternatenames":["Tacorong","Tacurong","Takrong","Takurong"],"latitude":"6.6925","longitude":"124.67639","feature_class":"P","feature_code":"PPLA3","country_code":"PH","cc2":"","admin1_code":"12","admin2_code":"71","admin3_code":"1684682","admin4_code":"","population":"54648","elevation":"","dem":"48","timezone":"Asia/Manila","modification_date":"2011-07-31"},{"geonameid":"1684706","name":"Taclobo","asciiname":"Taclobo","alternatenames":["Taclobo"],"latitude":"12.30744","longitude":"122.58601","feature_class":"P","feature_code":"PPL","country_code":"PH","cc2":"","admin1_code":"41","admin2_code":"54","admin3_code":"","admin4_code":"","population":"4782","elevation":"","dem":"11","timezone":"Asia/Manila","modification_date":"2012-01-17"},{"geonameid":"1684717","name":"Tacligan","asciiname":"Tacligan","alternatenames":["Tacligan","Taclingan","Takligan"],"latitude":"13.3975","longitude":"121.0626","feature_class":"P","feature_code":"PPL","country_code":"PH","cc2":"","admin1_code":"41","admin2_code":"41","admin3_code":"","admin4_code":"","population":"2593","elevation":"","dem":"9","timezone":"Asia/Manila","modification_date":"2012-01-17"},{"geonameid":"1684746","name":"Tacadang","asciiname":"Tacadang","alternatenames":["Tacadang"],"latitude":"16.7264","longitude":"120.6405","feature_class":"P","feature_code":"PPL","country_code":"PH","cc2":"","admin1_code":"15","admin2_code":"10","admin3_code":"","admin4_code":"","population":"2402","elevation":"","dem":"1454","timezone":"Asia/Manila","modification_date":"2012-01-17"},{"geonameid":"1684759","name":"Tagbita","asciiname":"Tagbita","alternatenames":["TGB","Taburi","Tagbita"],"latitude":"8.67531","longitude":"117.33989","feature_class":"P","feature_code":"PPL","country_code":"PH","cc2":"","admin1_code":"41","admin2_code":"49","admin3_code":"","admin4_code":"","population":"2501","elevation":"","dem":"9","timezone":"Asia/Manila","modification_date":"2012-01-17"},{"geonameid":"1684765","name":"Tabonok","asciiname":"Tabonok","alternatenames":["Tabonak","Tabonok","Tabunok"],"latitude":"10.8512","longitude":"123.8766","feature_class":"P","feature_code":"PPL","country_code":"PH","cc2":"","admin1_code":"07","admin2_code":"21","admin3_code":"","admin4_code":"","population":"2822","elevation":"","dem":"8","timezone":"Asia/Manila","modification_date":"2012-01-17"},{"geonameid":"1684803","name":"Tabuk","asciiname":"Tabuk","alternatenames":["Tabuk"],"latitude":"17.47378","longitude":"121.46799","feature_class":"P","feature_code":"PPL","country_code":"PH","cc2":"","admin1_code":"15","admin2_code":"32","admin3_code":"","admin4_code":"","population":"27048","elevation":"","dem":"141","timezone":"Asia/Manila","modification_date":"2013-02-08"},{"geonameid":"1684818","name":"Tabug","asciiname":"Tabug","alternatenames":["Tabug"],"latitude":"18.0343","longitude":"120.5488","feature_class":"P","feature_code":"PPL","country_code":"PH","cc2":"","admin1_code":"01","admin2_code":"28","admin3_code":"","admin4_code":"","population":"3281","elevation":"","dem":"48","timezone":"Asia/Manila","modification_date":"2012-01-17"},{"geonameid":"1684821","name":"Tabuelan","asciiname":"Tabuelan","alternatenames":["Tabuelan"],"latitude":"10.8209","longitude":"123.8689","feature_class":"P","feature_code":"PPLA3","country_code":"PH","cc2":"","admin1_code":"07","admin2_code":"21","admin3_code":"1684822","admin4_code":"","population":"3985","elevation":"","dem":"10","timezone":"Asia/Manila","modification_date":"2011-07-31"},{"geonameid":"1684828","name":"Tabuc Pontevedra","asciiname":"Tabuc Pontevedra","alternatenames":["Tabuc Pontevedra"],"latitude":"11.48333","longitude":"122.81667","feature_class":"P","feature_code":"PPL","country_code":"PH","cc2":"","admin1_code":"06","admin2_code":"18","admin3_code":"","admin4_code":"","population":"5276","elevation":"","dem":"4","timezone":"Asia/Manila","modification_date":"2012-02-01"},{"geonameid":"1684842","name":"Tabuating","asciiname":"Tabuating","alternatenames":["Tabuating"],"latitude":"15.3921","longitude":"120.94084","feature_class":"P","feature_code":"PPL","country_code":"PH","cc2":"","admin1_code":"03","admin2_code":"47","admin3_code":"","admin4_code":"","population":"4120","elevation":"","dem":"28","timezone":"Asia/Manila","modification_date":"2012-12-05"},{"geonameid":"1684853","name":"Tabuan","asciiname":"Tabuan","alternatenames":["Tabuan"],"latitude":"9.51556","longitude":"122.85056","feature_class":"P","feature_code":"PPL","country_code":"PH","cc2":"","admin1_code":"07","admin2_code":"46","admin3_code":"","admin4_code":"","population":"5390","elevation":"","dem":"107","timezone":"Asia/Manila","modification_date":"2012-02-01"},{"geonameid":"1684857","name":"Tabu","asciiname":"Tabu","alternatenames":["Tabu"],"latitude":"9.8923","longitude":"122.7098","feature_class":"P","feature_code":"PPL","country_code":"PH","cc2":"","admin1_code":"06","admin2_code":"H3","admin3_code":"","admin4_code":"","population":"6143","elevation":"","dem":"311","timezone":"Asia/Manila","modification_date":"2012-01-17"},{"geonameid":"1684867","name":"Tubao","asciiname":"Tubao","alternatenames":["Tabo-o","Tubao"],"latitude":"8.334","longitude":"123.8547","feature_class":"P","feature_code":"PPL","country_code":"PH","cc2":"","admin1_code":"10","admin2_code":"42","admin3_code":"","admin4_code":"","population":"2965","elevation":"","dem":"1","timezone":"Asia/Manila","modification_date":"2012-01-17"},{"geonameid":"1684871","name":"Tabontabon","asciiname":"Tabontabon","alternatenames":["Tabontabon"],"latitude":"11.04083","longitude":"124.96111","feature_class":"P","feature_code":"PPLA3","country_code":"PH","cc2":"","admin1_code":"08","admin2_code":"37","admin3_code":"1684872","admin4_code":"","population":"2557","elevation":"","dem":"20","timezone":"Asia/Manila","modification_date":"2011-07-31"},{"geonameid":"1684876","name":"Tabunok","asciiname":"Tabunok","alternatenames":["Tabonoc","Tabonok","Tabunok"],"latitude":"10.77673","longitude":"124.01602","feature_class":"P","feature_code":"PPL","country_code":"PH","cc2":"","admin1_code":"07","admin2_code":"21","admin3_code":"","admin4_code":"","population":"3086","elevation":"","dem":"27","timezone":"Asia/Manila","modification_date":"2012-05-05"},{"geonameid":"1684877","name":"Tabonoc","asciiname":"Tabonoc","alternatenames":["Tabonoc","Tabunok"],"latitude":"10.35","longitude":"124.8","feature_class":"P","feature_code":"PPL","country_code":"PH","cc2":"","admin1_code":"08","admin2_code":"37","admin3_code":"","admin4_code":"","population":"2670","elevation":"","dem":"13","timezone":"Asia/Manila","modification_date":"2012-01-17"},{"geonameid":"1684892","name":"Tabon","asciiname":"Tabon","alternatenames":["Tabon"],"latitude":"15.27098","longitude":"120.91273","feature_class":"P","feature_code":"PPL","country_code":"PH","cc2":"","admin1_code":"03","admin2_code":"47","admin3_code":"","admin4_code":"","population":"2537","elevation":"","dem":"18","timezone":"Asia/Manila","modification_date":"2012-12-05"},{"geonameid":"1684899","name":"Tabon","asciiname":"Tabon","alternatenames":["Tabon"],"latitude":"10.3019","longitude":"123.326","feature_class":"P","feature_code":"PPL","country_code":"PH","cc2":"","admin1_code":"07","admin2_code":"46","admin3_code":"","admin4_code":"","population":"2878","elevation":"","dem":"12","timezone":"Asia/Manila","modification_date":"2012-01-17"},{"geonameid":"1684901","name":"Tabon","asciiname":"Tabon","alternatenames":["Tabon"],"latitude":"9.8042","longitude":"123.4563","feature_class":"P","feature_code":"PPL","country_code":"PH","cc2":"","admin1_code":"07","admin2_code":"21","admin3_code":"","admin4_code":"","population":"3270","elevation":"","dem":"942","timezone":"Asia/Manila","modification_date":"2012-04-05"},{"geonameid":"1684902","name":"Tabon","asciiname":"Tabon","alternatenames":["Tabon"],"latitude":"9.23877","longitude":"117.9946","feature_class":"P","feature_code":"PPL","country_code":"PH","cc2":"","admin1_code":"41","admin2_code":"49","admin3_code":"","admin4_code":"","population":"3801","elevation":"","dem":"7","timezone":"Asia/Manila","modification_date":"2012-01-17"},{"geonameid":"1684914","name":"Tabogon","asciiname":"Tabogon","alternatenames":["Tabogon"],"latitude":"10.9412","longitude":"124.0282","feature_class":"P","feature_code":"PPLA3","country_code":"PH","cc2":"","admin1_code":"07","admin2_code":"21","admin3_code":"1684915","admin4_code":"","population":"0","elevation":"","dem":"18","timezone":"Asia/Manila","modification_date":"2011-07-31"},{"geonameid":"1684938","name":"Taboc","asciiname":"Taboc","alternatenames":["Taboc"],"latitude":"8.87833","longitude":"124.7975","feature_class":"P","feature_code":"PPL","country_code":"PH","cc2":"","admin1_code":"10","admin2_code":"43","admin3_code":"","admin4_code":"","population":"2107","elevation":"","dem":"54","timezone":"Asia/Manila","modification_date":"2012-02-01"},{"geonameid":"1684967","name":"Tablac","asciiname":"Tablac","alternatenames":["Tablac"],"latitude":"17.21568","longitude":"120.45428","feature_class":"P","feature_code":"PPL","country_code":"PH","cc2":"","admin1_code":"01","admin2_code":"29","admin3_code":"","admin4_code":"","population":"2903","elevation":"","dem":"10","timezone":"Asia/Manila","modification_date":"2012-07-04"},{"geonameid":"1684977","name":"Tabio","asciiname":"Tabio","alternatenames":["Tabia","Tabio"],"latitude":"16.85","longitude":"120.8","feature_class":"P","feature_code":"PPL","country_code":"PH","cc2":"","admin1_code":"15","admin2_code":"10","admin3_code":"","admin4_code":"","population":"3543","elevation":"","dem":"1397","timezone":"Asia/Manila","modification_date":"2012-01-17"},{"geonameid":"1684986","name":"Tabing","asciiname":"Tabing","alternatenames":["Tabing"],"latitude":"11.4","longitude":"124.35","feature_class":"P","feature_code":"PPL","country_code":"PH","cc2":"","admin1_code":"08","admin2_code":"37","admin3_code":"","admin4_code":"","population":"2345","elevation":"","dem":"8","timezone":"Asia/Manila","modification_date":"2012-02-01"},{"geonameid":"1684989","name":"Tabinay","asciiname":"Tabinay","alternatenames":["Tabinay"],"latitude":"13.4871","longitude":"120.9566","feature_class":"P","feature_code":"PPL","country_code":"PH","cc2":"","admin1_code":"41","admin2_code":"41","admin3_code":"","admin4_code":"","population":"2522","elevation":"","dem":"17","timezone":"Asia/Manila","modification_date":"2012-01-17"},{"geonameid":"1684990","name":"Tabina","asciiname":"Tabina","alternatenames":["Tabina"],"latitude":"7.4669","longitude":"123.4081","feature_class":"P","feature_code":"PPL","country_code":"PH","cc2":"","admin1_code":"09","admin2_code":"66","admin3_code":"","admin4_code":"","population":"5074","elevation":"","dem":"1","timezone":"Asia/Manila","modification_date":"2010-08-14"},{"geonameid":"1685003","name":"Tabid","asciiname":"Tabid","alternatenames":["Tabia","Tabid","Tadid"],"latitude":"8.1085","longitude":"123.7801","feature_class":"P","feature_code":"PPL","country_code":"PH","cc2":"","admin1_code":"10","admin2_code":"42","admin3_code":"","admin4_code":"","population":"3152","elevation":"","dem":"47","timezone":"Asia/Manila","modification_date":"2012-07-04"},{"geonameid":"1685006","name":"Tabiauan","asciiname":"Tabiauan","alternatenames":["Tabialan","Tabiauan","Tavialan"],"latitude":"6.02806","longitude":"121.89355","feature_class":"P","feature_code":"PPL","country_code":"PH","cc2":"","admin1_code":"14","admin2_code":"60","admin3_code":"","admin4_code":"","population":"2312","elevation":"","dem":"3","timezone":"Asia/Manila","modification_date":"2012-01-17"},{"geonameid":"1685071","name":"Tabango","asciiname":"Tabango","alternatenames":["Tabango"],"latitude":"11.3077","longitude":"124.373","feature_class":"P","feature_code":"PPLA3","country_code":"PH","cc2":"","admin1_code":"08","admin2_code":"37","admin3_code":"1685072","admin4_code":"","population":"5806","elevation":"","dem":"8","timezone":"Asia/Manila","modification_date":"2011-07-31"},{"geonameid":"1685102","name":"Tabalong","asciiname":"Tabalong","alternatenames":["Tabalong"],"latitude":"9.62157","longitude":"123.81231","feature_class":"P","feature_code":"PPL","country_code":"PH","cc2":"","admin1_code":"07","admin2_code":"11","admin3_code":"","admin4_code":"","population":"2294","elevation":"","dem":"16","timezone":"Asia/Manila","modification_date":"2012-04-05"},{"geonameid":"1685117","name":"Tabaco","asciiname":"Tabaco","alternatenames":["Tobaco"],"latitude":"13.35861","longitude":"123.73361","feature_class":"P","feature_code":"PPLA3","country_code":"PH","cc2":"","admin1_code":"05","admin2_code":"05","admin3_code":"1685118","admin4_code":"","population":"57860","elevation":"","dem":"4","timezone":"Asia/Manila","modification_date":"2011-07-31"},{"geonameid":"1685125","name":"Tabaan","asciiname":"Tabaan","alternatenames":["Tabaan"],"latitude":"16.3","longitude":"120.51667","feature_class":"P","feature_code":"PPL","country_code":"PH","cc2":"","admin1_code":"15","admin2_code":"10","admin3_code":"","admin4_code":"","population":"2653","elevation":"","dem":"394","timezone":"Asia/Manila","modification_date":"2012-02-01"},{"geonameid":"1685146","name":"Taal","asciiname":"Taal","alternatenames":["Taal","Таал"],"latitude":"13.87992","longitude":"120.92311","feature_class":"P","feature_code":"PPLA3","country_code":"PH","cc2":"","admin1_code":"40","admin2_code":"09","admin3_code":"1685148","admin4_code":"","population":"39745","elevation":"","dem":"42","timezone":"Asia/Manila","modification_date":"2011-07-31"},{"geonameid":"1685161","name":"Suyo","asciiname":"Suyo","alternatenames":["Suyo","Urzadan","Uzzadan"],"latitude":"16.9762","longitude":"120.5254","feature_class":"P","feature_code":"PPLA3","country_code":"PH","cc2":"","admin1_code":"01","admin2_code":"29","admin3_code":"1685164","admin4_code":"","population":"10943","elevation":"","dem":"89","timezone":"Asia/Manila","modification_date":"2011-08-19"},{"geonameid":"1685166","name":"Suyan","asciiname":"Suyan","alternatenames":["Suyan"],"latitude":"6.06028","longitude":"125.38528","feature_class":"P","feature_code":"PPL","country_code":"PH","cc2":"","admin1_code":"12","admin2_code":"M9","admin3_code":"","admin4_code":"","population":"7229","elevation":"","dem":"112","timezone":"Asia/Manila","modification_date":"2012-01-17"},{"geonameid":"1685196","name":"Suso","asciiname":"Suso","alternatenames":["Suso"],"latitude":"17.3594","longitude":"120.4611","feature_class":"P","feature_code":"PPL","country_code":"PH","cc2":"","admin1_code":"01","admin2_code":"29","admin3_code":"","admin4_code":"","population":"2280","elevation":"","dem":"4","timezone":"Asia/Manila","modification_date":"2012-01-17"},{"geonameid":"1685203","name":"Surup","asciiname":"Surup","alternatenames":["Surop","Surup"],"latitude":"6.39035","longitude":"126.14558","feature_class":"P","feature_code":"PPL","country_code":"PH","cc2":"","admin1_code":"11","admin2_code":"26","admin3_code":"","admin4_code":"","population":"2119","elevation":"","dem":"37","timezone":"Asia/Manila","modification_date":"2012-01-17"},{"geonameid":"1685218","name":"Surigao","asciiname":"Surigao","alternatenames":["Ciudad ti Surigao","Dakbayan sa Surigao","Lungsod ng Surigao","SUG","Surigao","Surigao City","Surigao Lakanbalen","su li gao","suligao","surigao","スリガオ","苏里高","수리가오"],"latitude":"9.789","longitude":"125.495","feature_class":"P","feature_code":"PPL","country_code":"PH","cc2":"","admin1_code":"13","admin2_code":"61","admin3_code":"","admin4_code":"","population":"87832","elevation":"","dem":"10","timezone":"Asia/Manila","modification_date":"2013-03-05"},{"geonameid":"1685230","name":"Surallah","asciiname":"Surallah","alternatenames":["AAV","Surallah"],"latitude":"6.37527","longitude":"124.74521","feature_class":"P","feature_code":"PPL","country_code":"PH","cc2":"","admin1_code":"12","admin2_code":"70","admin3_code":"","admin4_code":"","population":"31089","elevation":"","dem":"195","timezone":"Asia/Manila","modification_date":"2013-02-19"},{"geonameid":"1685270","name":"Sungai","asciiname":"Sungai","alternatenames":["Sunga","Sungai","Sungay"],"latitude":"8.45139","longitude":"124.40278","feature_class":"P","feature_code":"PPL","country_code":"PH","cc2":"","admin1_code":"10","admin2_code":"43","admin3_code":"","admin4_code":"","population":"2094","elevation":"","dem":"122","timezone":"Asia/Manila","modification_date":"2012-01-17"},{"geonameid":"1685286","name":"Sumpong","asciiname":"Sumpong","alternatenames":["Sumpong"],"latitude":"8.16333","longitude":"125.11833","feature_class":"P","feature_code":"PPL","country_code":"PH","cc2":"","admin1_code":"10","admin2_code":"12","admin3_code":"","admin4_code":"","population":"7399","elevation":"","dem":"655","timezone":"Asia/Manila","modification_date":"2012-01-17"},{"geonameid":"1685296","name":"Sumisip","asciiname":"Sumisip","alternatenames":["Mangal","Sumipsip","Sumisip"],"latitude":"6.41972","longitude":"121.97139","feature_class":"P","feature_code":"PPLA3","country_code":"PH","cc2":"","admin1_code":"09","admin2_code":"22","admin3_code":"1685297","admin4_code":"","population":"3735","elevation":"","dem":"11","timezone":"Asia/Manila","modification_date":"2011-07-31"},{"geonameid":"1685302","name":"Sumilao","asciiname":"Sumilao","alternatenames":["Sumilao"],"latitude":"8.28722","longitude":"124.94556","feature_class":"P","feature_code":"PPLA3","country_code":"PH","cc2":"","admin1_code":"10","admin2_code":"12","admin3_code":"1685303","admin4_code":"","population":"5339","elevation":"","dem":"728","timezone":"Asia/Manila","modification_date":"2011-07-31"},{"geonameid":"1685340","name":"Sumagui","asciiname":"Sumagui","alternatenames":["Sumagui"],"latitude":"12.79532","longitude":"121.47401","feature_class":"P","feature_code":"PPL","country_code":"PH","cc2":"","admin1_code":"41","admin2_code":"41","admin3_code":"","admin4_code":"","population":"3495","elevation":"","dem":"12","timezone":"Asia/Manila","modification_date":"2012-01-17"},{"geonameid":"1685360","name":"Sumabnit","asciiname":"Sumabnit","alternatenames":["Sumabnit"],"latitude":"16.0303","longitude":"120.5832","feature_class":"P","feature_code":"PPL","country_code":"PH","cc2":"","admin1_code":"01","admin2_code":"51","admin3_code":"","admin4_code":"","population":"4296","elevation":"","dem":"33","timezone":"Asia/Manila","modification_date":"2012-01-17"},{"geonameid":"1685366","name":"Sulucan","asciiname":"Sulucan","alternatenames":["Sulucan"],"latitude":"14.79448","longitude":"120.92594","feature_class":"P","feature_code":"PPL","country_code":"PH","cc2":"","admin1_code":"03","admin2_code":"13","admin3_code":"","admin4_code":"","population":"5703","elevation":"","dem":"8","timezone":"Asia/Manila","modification_date":"2013-05-07"},{"geonameid":"1685378","name":"Sultan Kudarat","asciiname":"Sultan Kudarat","alternatenames":["Nuling","Sultan Kudarat","Sultan-Kudarat","Султан-Кударат"],"latitude":"7.22889","longitude":"124.25778","feature_class":"P","feature_code":"PPLA3","country_code":"PH","cc2":"PH","admin1_code":"14","admin2_code":"56","admin3_code":"1685379","admin4_code":"","population":"0","elevation":"","dem":"7","timezone":"Asia/Manila","modification_date":"2011-07-31"},{"geonameid":"1685391","name":"Sulop","asciiname":"Sulop","alternatenames":["Sulop"],"latitude":"6.59861","longitude":"125.34361","feature_class":"P","feature_code":"PPLA3","country_code":"PH","cc2":"","admin1_code":"11","admin2_code":"25","admin3_code":"1685392","admin4_code":"","population":"6582","elevation":"","dem":"16","timezone":"Asia/Manila","modification_date":"2011-07-31"},{"geonameid":"1685401","name":"Sulit","asciiname":"Sulit","alternatenames":["Sulit"],"latitude":"6.23611","longitude":"125.02056","feature_class":"P","feature_code":"PPL","country_code":"PH","cc2":"","admin1_code":"12","admin2_code":"70","admin3_code":"","admin4_code":"","population":"5019","elevation":"","dem":"343","timezone":"Asia/Manila","modification_date":"2012-02-01"},{"geonameid":"1685418","name":"Sulat","asciiname":"Sulat","alternatenames":["Sulat"],"latitude":"11.81028","longitude":"125.45444","feature_class":"P","feature_code":"PPLA3","country_code":"PH","cc2":"","admin1_code":"08","admin2_code":"23","admin3_code":"1685419","admin4_code":"","population":"4684","elevation":"","dem":"24","timezone":"Asia/Manila","modification_date":"2011-07-31"},{"geonameid":"1685422","name":"Sulangan","asciiname":"Sulangan","alternatenames":["Sulangan"],"latitude":"11.1373","longitude":"123.7228","feature_class":"P","feature_code":"PPL","country_code":"PH","cc2":"","admin1_code":"07","admin2_code":"21","admin3_code":"","admin4_code":"","population":"4582","elevation":"","dem":"7","timezone":"Asia/Manila","modification_date":"2012-01-17"},{"geonameid":"1685423","name":"Sulangan","asciiname":"Sulangan","alternatenames":["Salanga","Salangan","Sulangan"],"latitude":"10.936","longitude":"125.8264","feature_class":"P","feature_code":"PPL","country_code":"PH","cc2":"","admin1_code":"08","admin2_code":"23","admin3_code":"","admin4_code":"","population":"3034","elevation":"","dem":"3","timezone":"Asia/Manila","modification_date":"2012-01-17"},{"geonameid":"1685424","name":"Sulangan","asciiname":"Sulangan","alternatenames":["Sulangan"],"latitude":"10.83","longitude":"122.69","feature_class":"P","feature_code":"PPL","country_code":"PH","cc2":"","admin1_code":"06","admin2_code":"30","admin3_code":"","admin4_code":"","population":"2262","elevation":"","dem":"9","timezone":"Asia/Manila","modification_date":"2012-01-17"},{"geonameid":"1685434","name":"Sula","asciiname":"Sula","alternatenames":["Sula"],"latitude":"15.45725","longitude":"120.39553","feature_class":"P","feature_code":"PPL","country_code":"PH","cc2":"","admin1_code":"03","admin2_code":"63","admin3_code":"","admin4_code":"","population":"3431","elevation":"","dem":"115","timezone":"Asia/Manila","modification_date":"2012-01-17"},{"geonameid":"1685476","name":"Sugpon","asciiname":"Sugpon","alternatenames":["Sugpon"],"latitude":"16.8434","longitude":"120.5157","feature_class":"P","feature_code":"PPLA3","country_code":"PH","cc2":"","admin1_code":"01","admin2_code":"29","admin3_code":"1685477","admin4_code":"","population":"0","elevation":"","dem":"72","timezone":"Asia/Manila","modification_date":"2011-07-31"},{"geonameid":"1685484","name":"Sugod","asciiname":"Sugod","alternatenames":["Sugod"],"latitude":"12.987","longitude":"124.0805","feature_class":"P","feature_code":"PPL","country_code":"PH","cc2":"","admin1_code":"05","admin2_code":"58","admin3_code":"","admin4_code":"","population":"2080","elevation":"","dem":"11","timezone":"Asia/Manila","modification_date":"2012-01-17"},{"geonameid":"1685499","name":"Sugcad","asciiname":"Sugcad","alternatenames":["Sugcad"],"latitude":"13.36667","longitude":"123.7","feature_class":"P","feature_code":"PPL","country_code":"PH","cc2":"","admin1_code":"05","admin2_code":"05","admin3_code":"","admin4_code":"","population":"3000","elevation":"","dem":"22","timezone":"Asia/Manila","modification_date":"2012-02-01"},{"geonameid":"1685506","name":"Sugbongkogon","asciiname":"Sugbongkogon","alternatenames":["Sugbongcogon","Sugbongkogon"],"latitude":"8.95694","longitude":"124.79111","feature_class":"P","feature_code":"PPL","country_code":"PH","cc2":"","admin1_code":"10","admin2_code":"43","admin3_code":"","admin4_code":"","population":"2494","elevation":"","dem":"131","timezone":"Asia/Manila","modification_date":"2012-01-17"},{"geonameid":"1685520","name":"Sugal","asciiname":"Sugal","alternatenames":["Sugal"],"latitude":"5.66222","longitude":"125.46167","feature_class":"P","feature_code":"PPL","country_code":"PH","cc2":"","admin1_code":"11","admin2_code":"25","admin3_code":"","admin4_code":"","population":"2759","elevation":"","dem":"48","timezone":"Asia/Manila","modification_date":"2012-01-17"},{"geonameid":"1685532","name":"Sudipen","asciiname":"Sudipen","alternatenames":["Sudipen"],"latitude":"16.9056","longitude":"120.4617","feature_class":"P","feature_code":"PPLA3","country_code":"PH","cc2":"","admin1_code":"01","admin2_code":"36","admin3_code":"1685533","admin4_code":"","population":"0","elevation":"","dem":"20","timezone":"Asia/Manila","modification_date":"2011-07-31"},{"geonameid":"1685549","name":"Suklayin","asciiname":"Suklayin","alternatenames":["Suclayin","Suklayin"],"latitude":"15.7574","longitude":"121.5503","feature_class":"P","feature_code":"PPL","country_code":"PH","cc2":"","admin1_code":"03","admin2_code":"G8","admin3_code":"","admin4_code":"","population":"5734","elevation":"","dem":"12","timezone":"Asia/Manila","modification_date":"2012-01-17"},{"geonameid":"1685556","name":"Subusub","asciiname":"Subusub","alternatenames":["Sibusob","Subusob","Subusub"],"latitude":"16.22689","longitude":"120.49513","feature_class":"P","feature_code":"PPL","country_code":"PH","cc2":"","admin1_code":"01","admin2_code":"36","admin3_code":"","admin4_code":"","population":"6887","elevation":"","dem":"153","timezone":"Asia/Manila","modification_date":"2013-02-08"},{"geonameid":"1685577","name":"Subic","asciiname":"Subic","alternatenames":["Subic"],"latitude":"14.87999","longitude":"120.23433","feature_class":"P","feature_code":"PPLA3","country_code":"PH","cc2":"","admin1_code":"03","admin2_code":"64","admin3_code":"1685580","admin4_code":"","population":"67664","elevation":"","dem":"10","timezone":"Asia/Manila","modification_date":"2011-07-31"},{"geonameid":"1685578","name":"Subic","asciiname":"Subic","alternatenames":["Subic"],"latitude":"13.94859","longitude":"120.94013","feature_class":"P","feature_code":"PPL","country_code":"PH","cc2":"","admin1_code":"40","admin2_code":"09","admin3_code":"","admin4_code":"","population":"8881","elevation":"","dem":"21","timezone":"Asia/Manila","modification_date":"2012-02-01"},{"geonameid":"1685609","name":"Saaban","asciiname":"Saaban","alternatenames":["Saaban","Subaan"],"latitude":"13.13049","longitude":"121.36872","feature_class":"P","feature_code":"PPL","country_code":"PH","cc2":"","admin1_code":"41","admin2_code":"41","admin3_code":"","admin4_code":"","population":"2527","elevation":"","dem":"8","timezone":"Asia/Manila","modification_date":"2012-01-17"},{"geonameid":"1685615","name":"Suba","asciiname":"Suba","alternatenames":["Suba"],"latitude":"10.8438","longitude":"121.0102","feature_class":"P","feature_code":"PPL","country_code":"PH","cc2":"","admin1_code":"41","admin2_code":"49","admin3_code":"","admin4_code":"","population":"2966","elevation":"","dem":"8","timezone":"Asia/Manila","modification_date":"2012-01-17"},{"geonameid":"1685622","name":"Suay","asciiname":"Suay","alternatenames":["Suay"],"latitude":"10.0533","longitude":"122.8423","feature_class":"P","feature_code":"PPL","country_code":"PH","cc2":"","admin1_code":"06","admin2_code":"H3","admin3_code":"","admin4_code":"","population":"19672","elevation":"","dem":"11","timezone":"Asia/Manila","modification_date":"2012-06-05"},{"geonameid":"1685625","name":"Suz-on","asciiname":"Suz-on","alternatenames":["Sua-on","Suz-on"],"latitude":"7.66278","longitude":"125.63833","feature_class":"P","feature_code":"PPL","country_code":"PH","cc2":"","admin1_code":"11","admin2_code":"I7","admin3_code":"","admin4_code":"","population":"2936","elevation":"","dem":"42","timezone":"Asia/Manila","modification_date":"2012-01-17"},{"geonameid":"1685634","name":"Sual","asciiname":"Sual","alternatenames":["Sual"],"latitude":"16.06682","longitude":"120.09414","feature_class":"P","feature_code":"PPLA3","country_code":"PH","cc2":"","admin1_code":"01","admin2_code":"51","admin3_code":"1685635","admin4_code":"","population":"5290","elevation":"","dem":"11","timezone":"Asia/Manila","modification_date":"2011-07-31"},{"geonameid":"1685681","name":"Soyung","asciiname":"Soyung","alternatenames":["Soyon","Soyung","Suyong"],"latitude":"16.7001","longitude":"121.6655","feature_class":"P","feature_code":"PPL","country_code":"PH","cc2":"","admin1_code":"02","admin2_code":"31","admin3_code":"","admin4_code":"","population":"5418","elevation":"66","dem":"77","timezone":"Asia/Manila","modification_date":"2013-04-03"},{"geonameid":"1685692","name":"South Upi","asciiname":"South Upi","alternatenames":["Looy","South Upi"],"latitude":"6.83333","longitude":"124.15","feature_class":"P","feature_code":"PPLA3","country_code":"PH","cc2":"","admin1_code":"14","admin2_code":"56","admin3_code":"1685693","admin4_code":"","population":"12538","elevation":"","dem":"515","timezone":"Asia/Manila","modification_date":"2011-07-31"},{"geonameid":"1685755","name":"Sorsogon","asciiname":"Sorsogon","alternatenames":[""],"latitude":"12.97389","longitude":"123.99333","feature_class":"P","feature_code":"PPLA3","country_code":"PH","cc2":"","admin1_code":"05","admin2_code":"58","admin3_code":"1685759","admin4_code":"","population":"82730","elevation":"","dem":"13","timezone":"Asia/Manila","modification_date":"2011-07-31"},{"geonameid":"1685800","name":"Songculan","asciiname":"Songculan","alternatenames":["Songculan","Sunacolan","Sunculan","Sungculan"],"latitude":"9.62965","longitude":"123.82897","feature_class":"P","feature_code":"PPL","country_code":"PH","cc2":"","admin1_code":"07","admin2_code":"11","admin3_code":"","admin4_code":"","population":"3335","elevation":"","dem":"8","timezone":"Asia/Manila","modification_date":"2012-04-05"},{"geonameid":"1685831","name":"Solsona","asciiname":"Solsona","alternatenames":["Solsona"],"latitude":"18.09333","longitude":"120.76972","feature_class":"P","feature_code":"PPLA3","country_code":"PH","cc2":"","admin1_code":"01","admin2_code":"28","admin3_code":"1685832","admin4_code":"","population":"3726","elevation":"","dem":"52","timezone":"Asia/Manila","modification_date":"2011-07-31"},{"geonameid":"1685850","name":"Solo","asciiname":"Solo","alternatenames":["Solo"],"latitude":"13.74691","longitude":"120.90119","feature_class":"P","feature_code":"PPL","country_code":"PH","cc2":"","admin1_code":"40","admin2_code":"09","admin3_code":"","admin4_code":"","population":"3065","elevation":"","dem":"19","timezone":"Asia/Manila","modification_date":"2012-01-17"},{"geonameid":"1685867","name":"Soledad","asciiname":"Soledad","alternatenames":["Soledad"],"latitude":"15.42838","longitude":"120.98355","feature_class":"P","feature_code":"PPL","country_code":"PH","cc2":"","admin1_code":"03","admin2_code":"47","admin3_code":"","admin4_code":"","population":"4728","elevation":"","dem":"36","timezone":"Asia/Manila","modification_date":"2012-12-05"},{"geonameid":"1685875","name":"Solano","asciiname":"Solano","alternatenames":["Solano","Солано"],"latitude":"16.51918","longitude":"121.18124","feature_class":"P","feature_code":"PPLA3","country_code":"PH","cc2":"","admin1_code":"02","admin2_code":"48","admin3_code":"1685876","admin4_code":"","population":"36222","elevation":"","dem":"264","timezone":"Asia/Manila","modification_date":"2011-07-31"},{"geonameid":"1685880","name":"Solana","asciiname":"Solana","alternatenames":["Solana","Solano"],"latitude":"17.6528","longitude":"121.691","feature_class":"P","feature_code":"PPLA3","country_code":"PH","cc2":"","admin1_code":"02","admin2_code":"14","admin3_code":"1685883","admin4_code":"","population":"71475","elevation":"","dem":"28","timezone":"Asia/Manila","modification_date":"2011-08-22"},{"geonameid":"1685882","name":"Solana","asciiname":"Solana","alternatenames":["Colona","Coloña","Solana"],"latitude":"8.62306","longitude":"124.77056","feature_class":"P","feature_code":"PPL","country_code":"PH","cc2":"","admin1_code":"10","admin2_code":"43","admin3_code":"","admin4_code":"","population":"2984","elevation":"","dem":"134","timezone":"Asia/Manila","modification_date":"2012-01-17"},{"geonameid":"1685915","name":"Sogod","asciiname":"Sogod","alternatenames":["Sogod"],"latitude":"13.83333","longitude":"123.31667","feature_class":"P","feature_code":"PPL","country_code":"PH","cc2":"","admin1_code":"05","admin2_code":"16","admin3_code":"","admin4_code":"","population":"2960","elevation":"","dem":"1","timezone":"Asia/Manila","modification_date":"2012-02-01"},{"geonameid":"1685918","name":"Sogod","asciiname":"Sogod","alternatenames":["Sogod","Sugod"],"latitude":"12.37635","longitude":"122.66368","feature_class":"P","feature_code":"PPL","country_code":"PH","cc2":"","admin1_code":"41","admin2_code":"54","admin3_code":"","admin4_code":"","population":"2221","elevation":"","dem":"190","timezone":"Asia/Manila","modification_date":"2014-11-16"},{"geonameid":"1685923","name":"Sogod","asciiname":"Sogod","alternatenames":["Sogod"],"latitude":"10.75083","longitude":"123.99472","feature_class":"P","feature_code":"PPLA3","country_code":"PH","cc2":"","admin1_code":"07","admin2_code":"21","admin3_code":"1685927","admin4_code":"","population":"2968","elevation":"","dem":"59","timezone":"Asia/Manila","modification_date":"2011-07-31"},{"geonameid":"1685925","name":"Sogod","asciiname":"Sogod","alternatenames":["Sogod"],"latitude":"10.3847","longitude":"124.9814","feature_class":"P","feature_code":"PPLA3","country_code":"PH","cc2":"","admin1_code":"08","admin2_code":"59","admin3_code":"1685928","admin4_code":"","population":"8303","elevation":"","dem":"10","timezone":"Asia/Manila","modification_date":"2011-07-31"},{"geonameid":"1685936","name":"Socorro","asciiname":"Socorro","alternatenames":["Soccoro","Socorro"],"latitude":"13.0669","longitude":"121.39858","feature_class":"P","feature_code":"PPLA3","country_code":"PH","cc2":"","admin1_code":"41","admin2_code":"41","admin3_code":"1685939","admin4_code":"","population":"5543","elevation":"","dem":"15","timezone":"Asia/Manila","modification_date":"2015-01-30"},