{"country_data":{"ISO":"RE","ISO3":"REU","ISO_Numeric":"638","fips":"RE","country":"Reunion","capital":"Saint-Denis","area":"2517","Population":"776948","Continent":"AF","tld":".re","CurrencyCode":"EUR","CurrencyName":"Euro","Phone":"262","Postal_Code_Format":"#####","Postal_Code_Regex":"^((97|98)(4|7|8)\\d{2})$","Languages":"fr-RE","geonameid":"935317","neighbours":"","EquivalentFipsCode":""},"cities":[{"geonameid":"935146","name":"Trois-Bassins","asciiname":"Trois-Bassins","alternatenames":["Les Trois-Bassins"],"latitude":"-21.1","longitude":"55.3","feature_class":"P","feature_code":"PPL","country_code":"RE","cc2":"","admin1_code":"RE","admin2_code":"974","admin3_code":"9744","admin4_code":"97423","population":"7114","elevation":"","dem":"801","timezone":"Indian/Reunion","modification_date":"2011-11-02"},{"geonameid":"935210","name":"Salazie","asciiname":"Salazie","alternatenames":["Salazi","Salazie","Salazie Village","Салазі"],"latitude":"-21.02734","longitude":"55.539","feature_class":"P","feature_code":"PPL","country_code":"RE","cc2":"","admin1_code":"RE","admin2_code":"974","admin3_code":"9743","admin4_code":"97421","population":"7696","elevation":"","dem":"452","timezone":"Indian/Reunion","modification_date":"2012-01-18"},{"geonameid":"935214","name":"Saint-Pierre","asciiname":"Saint-Pierre","alternatenames":["Saint-Pierre","Saint-Piorre","Sent-P'er","ZSE","Сент-Пьер"],"latitude":"-21.3393","longitude":"55.47811","feature_class":"P","feature_code":"PPL","country_code":"RE","cc2":"","admin1_code":"RE","admin2_code":"974","admin3_code":"9742","admin4_code":"97416","population":"76655","elevation":"","dem":"36","timezone":"Indian/Reunion","modification_date":"2013-11-02"},{"geonameid":"935215","name":"Saint-Philippe","asciiname":"Saint-Philippe","alternatenames":["Saint Phillippe","Saint-Philippe"],"latitude":"-21.35852","longitude":"55.76795","feature_class":"P","feature_code":"PPL","country_code":"RE","cc2":"","admin1_code":"RE","admin2_code":"974","admin3_code":"9742","admin4_code":"97417","population":"5441","elevation":"","dem":"45","timezone":"Indian/Reunion","modification_date":"2012-01-18"},{"geonameid":"935221","name":"Saint-Paul","asciiname":"Saint-Paul","alternatenames":["Saint-Paul"],"latitude":"-21.00963","longitude":"55.27071","feature_class":"P","feature_code":"PPL","country_code":"RE","cc2":"","admin1_code":"RE","admin2_code":"974","admin3_code":"9744","admin4_code":"97415","population":"99307","elevation":"","dem":"12","timezone":"Indian/Reunion","modification_date":"2012-01-18"},{"geonameid":"935223","name":"Saint-Louis","asciiname":"Saint-Louis","alternatenames":["Saint-Louis","Sen-Lui","Сен-Луи"],"latitude":"-21.28585","longitude":"55.41124","feature_class":"P","feature_code":"PPL","country_code":"RE","cc2":"","admin1_code":"RE","admin2_code":"974","admin3_code":"9742","admin4_code":"97414","population":"47881","elevation":"","dem":"40","timezone":"Indian/Reunion","modification_date":"2012-01-18"},{"geonameid":"935225","name":"Saint-Leu","asciiname":"Saint-Leu","alternatenames":["Saint-Leu","Sankt-Leu","Санкт-Леу"],"latitude":"-21.17059","longitude":"55.28824","feature_class":"P","feature_code":"PPL","country_code":"RE","cc2":"","admin1_code":"RE","admin2_code":"974","admin3_code":"9744","admin4_code":"97413","population":"28278","elevation":"","dem":"10","timezone":"Indian/Reunion","modification_date":"2012-01-18"},{"geonameid":"935227","name":"Saint-Joseph","asciiname":"Saint-Joseph","alternatenames":["Saint-Joseph","Sent-Dzhozef","Сент-Джозеф"],"latitude":"-21.37839","longitude":"55.61918","feature_class":"P","feature_code":"PPL","country_code":"RE","cc2":"","admin1_code":"RE","admin2_code":"974","admin3_code":"9742","admin4_code":"97412","population":"33694","elevation":"","dem":"42","timezone":"Indian/Reunion","modification_date":"2012-01-18"},{"geonameid":"935248","name":"Sainte-Suzanne","asciiname":"Sainte-Suzanne","alternatenames":["Sainte-Suzanne"],"latitude":"-20.90614","longitude":"55.60886","feature_class":"P","feature_code":"PPL","country_code":"RE","cc2":"","admin1_code":"RE","admin2_code":"974","admin3_code":"9741","admin4_code":"97420","population":"20530","elevation":"","dem":"10","timezone":"Indian/Reunion","modification_date":"2012-01-18"},{"geonameid":"935251","name":"Sainte-Rose","asciiname":"Sainte-Rose","alternatenames":["Sainte-Rose"],"latitude":"-21.12983","longitude":"55.79629","feature_class":"P","feature_code":"PPL","country_code":"RE","cc2":"","admin1_code":"RE","admin2_code":"974","admin3_code":"9743","admin4_code":"97419","population":"7035","elevation":"","dem":"41","timezone":"Indian/Reunion","modification_date":"2012-01-18"},{"geonameid":"935255","name":"Sainte-Marie","asciiname":"Sainte-Marie","alternatenames":["Sainte-Marie","Sent-Mari","Сент-Мари"],"latitude":"-20.89684","longitude":"55.5496","feature_class":"P","feature_code":"PPL","country_code":"RE","cc2":"","admin1_code":"RE","admin2_code":"974","admin3_code":"9741","admin4_code":"97418","population":"31636","elevation":"","dem":"8","timezone":"Indian/Reunion","modification_date":"2012-01-18"},{"geonameid":"935264","name":"Saint-Denis","asciiname":"Saint-Denis","alternatenames":["Saint-Denis","Saint-Denis de la Reunion","Saint-Denis de la Réunion","Sen-Deni","St. Denis","snt dnys","Сен-Дени","סנט דניס","サン・ドゥニ"],"latitude":"-20.88231","longitude":"55.4504","feature_class":"P","feature_code":"PPLC","country_code":"RE","cc2":"","admin1_code":"RE","admin2_code":"974","admin3_code":"9741","admin4_code":"97411","population":"137195","elevation":"","dem":"44","timezone":"Indian/Reunion","modification_date":"2011-12-08"},{"geonameid":"935267","name":"Saint-Benoît","asciiname":"Saint-Benoit","alternatenames":["Saint-Benoit","Saint-Benoît","Sankt-Benua","Санкт-Бенуа"],"latitude":"-21.03801","longitude":"55.71937","feature_class":"P","feature_code":"PPL","country_code":"RE","cc2":"","admin1_code":"RE","admin2_code":"974","admin3_code":"9743","admin4_code":"97410","population":"35310","elevation":"","dem":"18","timezone":"Indian/Reunion","modification_date":"2012-01-18"},{"geonameid":"935268","name":"Saint-André","asciiname":"Saint-Andre","alternatenames":["Saint-Andre","Saint-André","Sankt-Andre","Санкт-Андре"],"latitude":"-20.96333","longitude":"55.65031","feature_class":"P","feature_code":"PPL","country_code":"RE","cc2":"","admin1_code":"RE","admin2_code":"974","admin3_code":"9743","admin4_code":"97409","population":"48674","elevation":"","dem":"103","timezone":"Indian/Reunion","modification_date":"2012-01-18"},{"geonameid":"935416","name":"Petite-Île","asciiname":"Petite-Ile","alternatenames":["Village de la Petite Ile"],"latitude":"-21.35","longitude":"55.56667","feature_class":"P","feature_code":"PPL","country_code":"RE","cc2":"","admin1_code":"RE","admin2_code":"974","admin3_code":"9742","admin4_code":"97405","population":"10961","elevation":"","dem":"357","timezone":"Indian/Reunion","modification_date":"2008-02-28"},{"geonameid":"935582","name":"Le Tampon","asciiname":"Le Tampon","alternatenames":["Le Tampon","Le-Tampon","Tampon","Village du Tampon","lw tampwn","Ле Тампон","Ле-Тампон","لو تامپون","ル・タンポン"],"latitude":"-21.28309","longitude":"55.51802","feature_class":"P","feature_code":"PPL","country_code":"RE","cc2":"","admin1_code":"RE","admin2_code":"974","admin3_code":"9742","admin4_code":"97422","population":"69986","elevation":"","dem":"531","timezone":"Indian/Reunion","modification_date":"2012-01-18"},{"geonameid":"935608","name":"Les Avirons","asciiname":"Les Avirons","alternatenames":["Avirons","Les Avirons"],"latitude":"-21.24181","longitude":"55.33938","feature_class":"P","feature_code":"PPL","country_code":"RE","cc2":"","admin1_code":"RE","admin2_code":"974","admin3_code":"9742","admin4_code":"97401","population":"8006","elevation":"","dem":"350","timezone":"Indian/Reunion","modification_date":"2012-01-18"},{"geonameid":"935616","name":"Le Port","asciiname":"Le Port","alternatenames":["La Point-aux-galets","Le Port","Le Port des Galets","Port","Port de la Pointe des Galets","Port des Galets"],"latitude":"-20.9373","longitude":"55.29189","feature_class":"P","feature_code":"PPL","country_code":"RE","cc2":"","admin1_code":"RE","admin2_code":"974","admin3_code":"9744","admin4_code":"97407","population":"40771","elevation":"","dem":"19","timezone":"Indian/Reunion","modification_date":"2012-01-18"},{"geonameid":"935691","name":"La Possession","asciiname":"La Possession","alternatenames":["La Possession","La-Posses'jon","Possession","lpwssywn","Ла-Поссесьйон","لپوسسیون"],"latitude":"-20.92892","longitude":"55.33513","feature_class":"P","feature_code":"PPL","country_code":"RE","cc2":"","admin1_code":"RE","admin2_code":"974","admin3_code":"9744","admin4_code":"97408","population":"26865","elevation":"","dem":"24","timezone":"Indian/Reunion","modification_date":"2012-01-18"},{"geonameid":"935915","name":"L'Entre-Deux","asciiname":"L'Entre-Deux","alternatenames":[""],"latitude":"-21.23333","longitude":"55.46667","feature_class":"P","feature_code":"PPL","country_code":"RE","cc2":"","admin1_code":"RE","admin2_code":"974","admin3_code":"9742","admin4_code":"97403","population":"5788","elevation":"","dem":"445","timezone":"Indian/Reunion","modification_date":"2011-11-02"},{"geonameid":"935975","name":"Cilaos","asciiname":"Cilaos","alternatenames":["Cilaos","Silao","Сілао"],"latitude":"-21.13357","longitude":"55.4719","feature_class":"P","feature_code":"PPL","country_code":"RE","cc2":"","admin1_code":"RE","admin2_code":"974","admin3_code":"9742","admin4_code":"97424","population":"6225","elevation":"","dem":"1204","timezone":"Indian/Reunion","modification_date":"2012-01-18"},{"geonameid":"936048","name":"Bras-Panon","asciiname":"Bras-Panon","alternatenames":["Bras-Panon"],"latitude":"-20.99667","longitude":"55.67823","feature_class":"P","feature_code":"PPL","country_code":"RE","cc2":"","admin1_code":"RE","admin2_code":"974","admin3_code":"9743","admin4_code":"97402","population":"10444","elevation":"","dem":"49","timezone":"Indian/Reunion","modification_date":"2012-01-18"},{"geonameid":"7932385","name":"Piton Saint-Leu","asciiname":"Piton Saint-Leu","alternatenames":[""],"latitude":"-21.21962","longitude":"55.31513","feature_class":"P","feature_code":"PPLL","country_code":"RE","cc2":"","admin1_code":"","admin2_code":"","admin3_code":"","admin4_code":"","population":"29278","elevation":"350","dem":"294","timezone":"Indian/Reunion","modification_date":"2011-08-21"}]}