{"country_data":{"ISO":"RO","ISO3":"ROU","ISO_Numeric":"642","fips":"RO","country":"Romania","capital":"Bucharest","area":"237500","Population":"21959278","Continent":"EU","tld":".ro","CurrencyCode":"RON","CurrencyName":"Leu","Phone":"40","Postal_Code_Format":"######","Postal_Code_Regex":"^(\\d{6})$","Languages":"ro,hu,rom","geonameid":"798549","neighbours":"MD,HU,UA,BG,RS","EquivalentFipsCode":""},"cities":[{"geonameid":"662114","name":"Ghioca","asciiname":"Ghioca","alternatenames":["Crampoaia","Crâmpoaia","Gheoca","Ghioca"],"latitude":"44.31667","longitude":"24.73333","feature_class":"P","feature_code":"PPL","country_code":"RO","cc2":"","admin1_code":"29","admin2_code":"","admin3_code":"","admin4_code":"","population":"3769","elevation":"","dem":"131","timezone":"Europe/Bucharest","modification_date":"2014-07-08"},{"geonameid":"662118","name":"Zvoriştea","asciiname":"Zvoristea","alternatenames":["Zvoristea","Zvoriştea"],"latitude":"47.83333","longitude":"26.28333","feature_class":"P","feature_code":"PPLA2","country_code":"RO","cc2":"","admin1_code":"34","admin2_code":"151344","admin3_code":"","admin4_code":"","population":"6275","elevation":"","dem":"279","timezone":"Europe/Bucharest","modification_date":"2012-06-12"},{"geonameid":"662128","name":"Zorlenţu Mare","asciiname":"Zorlentu Mare","alternatenames":["Alsozorlenc","Alsózorlenc","Nagy-Zorlencz","Zorlencz","Zorlenczmare","Zorlenczmáre","Zorlentu Mare","Zorlentul Mare","Zorlenţu Mare","Zorlenţul Mare"],"latitude":"45.45056","longitude":"21.95611","feature_class":"P","feature_code":"PPLA2","country_code":"RO","cc2":"","admin1_code":"12","admin2_code":"54699","admin3_code":"","admin4_code":"","population":"1176","elevation":"","dem":"192","timezone":"Europe/Bucharest","modification_date":"2012-06-12"},{"geonameid":"662130","name":"Zorleni","asciiname":"Zorleni","alternatenames":["Zorleni"],"latitude":"46.26667","longitude":"27.71667","feature_class":"P","feature_code":"PPLA2","country_code":"RO","cc2":"","admin1_code":"38","admin2_code":"167179","admin3_code":"","admin4_code":"","population":"9511","elevation":"","dem":"70","timezone":"Europe/Bucharest","modification_date":"2012-06-12"},{"geonameid":"662135","name":"Zorile","asciiname":"Zorile","alternatenames":["Falcoaia","Falcoianca","Fălcoaia","Fălcoianca","Zorile"],"latitude":"44.37864","longitude":"25.80678","feature_class":"P","feature_code":"PPL","country_code":"RO","cc2":"RO","admin1_code":"42","admin2_code":"103407","admin3_code":"","admin4_code":"","population":"1092","elevation":"","dem":"96","timezone":"Europe/Bucharest","modification_date":"2013-04-20"},{"geonameid":"662138","name":"Zorești","asciiname":"Zoresti","alternatenames":[""],"latitude":"45.18177","longitude":"26.70291","feature_class":"P","feature_code":"PPL","country_code":"RO","cc2":"","admin1_code":"11","admin2_code":"50102","admin3_code":"","admin4_code":"","population":"1263","elevation":"","dem":"146","timezone":"Europe/Bucharest","modification_date":"2013-04-20"},{"geonameid":"662152","name":"Zmeu","asciiname":"Zmeu","alternatenames":[""],"latitude":"47.19161","longitude":"27.17917","feature_class":"P","feature_code":"PPL","country_code":"RO","cc2":"","admin1_code":"23","admin2_code":"97722","admin3_code":"","admin4_code":"","population":"1189","elevation":"","dem":"81","timezone":"Europe/Bucharest","modification_date":"2013-04-20"},{"geonameid":"662159","name":"Zlătunoaia","asciiname":"Zlatunoaia","alternatenames":["Stanesti","Stăneşti","Zlatunoaia","Zlatunoaia Mare","Zlătunoaia","Zlătunoaia Mare"],"latitude":"47.65026","longitude":"27.00743","feature_class":"P","feature_code":"PPL","country_code":"RO","cc2":"RO","admin1_code":"07","admin2_code":"37912","admin3_code":"","admin4_code":"","population":"2386","elevation":"","dem":"169","timezone":"Europe/Bucharest","modification_date":"2013-04-20"},{"geonameid":"662161","name":"Zlatna","asciiname":"Zlatna","alternatenames":["Zlatna"],"latitude":"46.10633","longitude":"23.23162","feature_class":"P","feature_code":"PPLA2","country_code":"RO","cc2":"","admin1_code":"01","admin2_code":"1936","admin3_code":"","admin4_code":"","population":"8393","elevation":"","dem":"407","timezone":"Europe/Bucharest","modification_date":"2012-06-12"},{"geonameid":"662167","name":"Zlătărei","asciiname":"Zlatarei","alternatenames":[""],"latitude":"44.63057","longitude":"24.25788","feature_class":"P","feature_code":"PPL","country_code":"RO","cc2":"","admin1_code":"39","admin2_code":"167981","admin3_code":"","admin4_code":"","population":"1387","elevation":"","dem":"156","timezone":"Europe/Bucharest","modification_date":"2013-04-20"},{"geonameid":"662181","name":"Zizin","asciiname":"Zizin","alternatenames":["Zajzon","Zizin"],"latitude":"45.63697","longitude":"25.77898","feature_class":"P","feature_code":"PPL","country_code":"RO","cc2":"RO","admin1_code":"09","admin2_code":"42003","admin3_code":"","admin4_code":"","population":"1950","elevation":"","dem":"611","timezone":"Europe/Bucharest","modification_date":"2013-04-20"},{"geonameid":"662186","name":"Zimnicele","asciiname":"Zimnicele","alternatenames":["Zimmicelele","Zimnicele","Zimnicelele"],"latitude":"43.66126","longitude":"25.41291","feature_class":"P","feature_code":"PPL","country_code":"RO","cc2":"RO","admin1_code":"35","admin2_code":"153400","admin3_code":"","admin4_code":"","population":"1259","elevation":"","dem":"30","timezone":"Europe/Bucharest","modification_date":"2013-04-20"},{"geonameid":"662187","name":"Zimnicea","asciiname":"Zimnicea","alternatenames":["Zimnica","Zimnice","Zimnicea","Zimnich","Zimniçe","Зимница","Зимнич"],"latitude":"43.66667","longitude":"25.36667","feature_class":"P","feature_code":"PPLA2","country_code":"RO","cc2":"","admin1_code":"35","admin2_code":"151978","admin3_code":"","admin4_code":"","population":"15228","elevation":"","dem":"30","timezone":"Europe/Bucharest","modification_date":"2012-06-12"},{"geonameid":"662193","name":"Zâmbreasca","asciiname":"Zambreasca","alternatenames":["Zabreasca","Zimbreasca","Zâbreasca","Zîmbreasca"],"latitude":"44.31667","longitude":"24.98333","feature_class":"P","feature_code":"PPLA2","country_code":"RO","cc2":"","admin1_code":"35","admin2_code":"154978","admin3_code":"","admin4_code":"","population":"1871","elevation":"","dem":"139","timezone":"Europe/Bucharest","modification_date":"2012-06-12"},{"geonameid":"662195","name":"Zimbor","asciiname":"Zimbor","alternatenames":["Zimbor","Zimborul","Zimborul-Mare","Zutor"],"latitude":"47","longitude":"23.26667","feature_class":"P","feature_code":"PPLA2","country_code":"RO","cc2":"","admin1_code":"31","admin2_code":"143147","admin3_code":"","admin4_code":"","population":"1262","elevation":"","dem":"303","timezone":"Europe/Bucharest","modification_date":"2012-06-12"},{"geonameid":"662197","name":"Zimandu Nou","asciiname":"Zimandu Nou","alternatenames":["Zimandu Nou","Zimandul-Nou"],"latitude":"46.28333","longitude":"21.4","feature_class":"P","feature_code":"PPLA2","country_code":"RO","cc2":"","admin1_code":"02","admin2_code":"12876","admin3_code":"","admin4_code":"","population":"4412","elevation":"","dem":"109","timezone":"Europe/Bucharest","modification_date":"2012-06-12"},{"geonameid":"662201","name":"Zidurile","asciiname":"Zidurile","alternatenames":["Domnita Balasa","Domniţa Bălaşa","Zidul","Ziduri","Zidurile"],"latitude":"44.58176","longitude":"25.55458","feature_class":"P","feature_code":"PPL","country_code":"RO","cc2":"RO","admin1_code":"16","admin2_code":"68342","admin3_code":"","admin4_code":"","population":"1016","elevation":"","dem":"142","timezone":"Europe/Bucharest","modification_date":"2013-04-20"},{"geonameid":"662204","name":"Ziduri","asciiname":"Ziduri","alternatenames":["Costienii de Jos","Ziduri"],"latitude":"45.3","longitude":"27.08333","feature_class":"P","feature_code":"PPLA2","country_code":"RO","cc2":"","admin1_code":"11","admin2_code":"50479","admin3_code":"","admin4_code":"","population":"4736","elevation":"","dem":"70","timezone":"Europe/Bucharest","modification_date":"2012-06-12"},{"geonameid":"662217","name":"Zetea","asciiname":"Zetea","alternatenames":["Zetea","Zetelaka"],"latitude":"46.38333","longitude":"25.36667","feature_class":"P","feature_code":"PPLA2","country_code":"RO","cc2":"","admin1_code":"20","admin2_code":"86366","admin3_code":"","admin4_code":"","population":"5670","elevation":"","dem":"526","timezone":"Europe/Bucharest","modification_date":"2014-06-04"},{"geonameid":"662222","name":"Zerind","asciiname":"Zerind","alternatenames":["Zerind"],"latitude":"46.61667","longitude":"21.51667","feature_class":"P","feature_code":"PPLA2","country_code":"RO","cc2":"","admin1_code":"02","admin2_code":"12849","admin3_code":"","admin4_code":"","population":"1442","elevation":"","dem":"85","timezone":"Europe/Bucharest","modification_date":"2012-06-12"},{"geonameid":"662223","name":"Zencani","asciiname":"Zencani","alternatenames":["Zancani","Zencani","Zenconi","Zenkan","Zenkàn"],"latitude":"46.927","longitude":"25.33411","feature_class":"P","feature_code":"PPLX","country_code":"RO","cc2":"RO","admin1_code":"20","admin2_code":"83632","admin3_code":"","admin4_code":"","population":"1001","elevation":"","dem":"663","timezone":"Europe/Bucharest","modification_date":"2013-04-20"},{"geonameid":"662225","name":"Zemeş","asciiname":"Zemes","alternatenames":["Taslaul de Sus","Taslăul de Sus","Tazlau de Sus","Tazlău de Sus","Zemes","Zemeş"],"latitude":"46.58333","longitude":"26.41667","feature_class":"P","feature_code":"PPLA2","country_code":"RO","cc2":"","admin1_code":"04","admin2_code":"26289","admin3_code":"","admin4_code":"","population":"5171","elevation":"","dem":"853","timezone":"Europe/Bucharest","modification_date":"2012-06-12"},{"geonameid":"662238","name":"Zebil","asciiname":"Zebil","alternatenames":["Zbil","Zebil"],"latitude":"44.946","longitude":"28.76873","feature_class":"P","feature_code":"PPL","country_code":"RO","cc2":"RO","admin1_code":"37","admin2_code":"161179","admin3_code":"","admin4_code":"","population":"1853","elevation":"","dem":"14","timezone":"Europe/Bucharest","modification_date":"2013-04-20"},{"geonameid":"662240","name":"Zdrapți","asciiname":"Zdrapti","alternatenames":["Zdrapti","Zdrapţi","Zurapti"],"latitude":"46.15612","longitude":"22.86954","feature_class":"P","feature_code":"PPL","country_code":"RO","cc2":"RO","admin1_code":"21","admin2_code":"87362","admin3_code":"","admin4_code":"","population":"1294","elevation":"","dem":"304","timezone":"Europe/Bucharest","modification_date":"2013-04-20"},{"geonameid":"662249","name":"Zăvoiu","asciiname":"Zavoiu","alternatenames":["Zavoiu","Zavoiu Orbului","Zavoiul-Orbului","Zăvoiu","Zăvoiu Orbului","Zăvoiul-Orbului"],"latitude":"44.66038","longitude":"25.4035","feature_class":"P","feature_code":"PPL","country_code":"RO","cc2":"RO","admin1_code":"16","admin2_code":"68128","admin3_code":"","admin4_code":"","population":"1076","elevation":"","dem":"170","timezone":"Europe/Bucharest","modification_date":"2013-04-20"},{"geonameid":"662254","name":"Zăvoi","asciiname":"Zavoi","alternatenames":["Zavoi","Zavoiu","Zăvoi","Zăvoiu"],"latitude":"45.51667","longitude":"22.41667","feature_class":"P","feature_code":"PPLA2","country_code":"RO","cc2":"","admin1_code":"12","admin2_code":"54617","admin3_code":"","admin4_code":"","population":"4205","elevation":"","dem":"318","timezone":"Europe/Bucharest","modification_date":"2012-06-12"},{"geonameid":"662259","name":"Zăvoaia","asciiname":"Zavoaia","alternatenames":["Slujitorii-Albesti","Slujitorii-Albeşti","Zavoaia","Zăvoaia"],"latitude":"44.95","longitude":"27.48333","feature_class":"P","feature_code":"PPLA2","country_code":"RO","cc2":"","admin1_code":"08","admin2_code":"44532","admin3_code":"","admin4_code":"","population":"3482","elevation":"","dem":"35","timezone":"Europe/Bucharest","modification_date":"2012-06-12"},{"geonameid":"662264","name":"Zăval","asciiname":"Zaval","alternatenames":["Zavalu","Zavalul","Zăvalu","Zăvalul"],"latitude":"43.84717","longitude":"23.84208","feature_class":"P","feature_code":"PPL","country_code":"RO","cc2":"RO","admin1_code":"17","admin2_code":"72463","admin3_code":"","admin4_code":"","population":"1151","elevation":"","dem":"51","timezone":"Europe/Bucharest","modification_date":"2013-04-20"},{"geonameid":"662266","name":"Zau de Câmpie","asciiname":"Zau de Campie","alternatenames":["Moinesti","Moineşti","Zau","Zaul-de-Campie","Zăul-de-Câmpie"],"latitude":"46.61382","longitude":"24.1308","feature_class":"P","feature_code":"PPL","country_code":"RO","cc2":"RO","admin1_code":"27","admin2_code":"120370","admin3_code":"","admin4_code":"","population":"2706","elevation":"","dem":"307","timezone":"Europe/Bucharest","modification_date":"2013-04-20"},{"geonameid":"662270","name":"Zăuan","asciiname":"Zauan","alternatenames":["Szilagyzovany","Szilágyzovány","Zauan","Zovany","Zovány","Zăuan"],"latitude":"47.22495","longitude":"22.66328","feature_class":"P","feature_code":"PPL","country_code":"RO","cc2":"","admin1_code":"31","admin2_code":"141722","admin3_code":"","admin4_code":"","population":"1163","elevation":"","dem":"201","timezone":"Europe/Bucharest","modification_date":"2013-04-20"},{"geonameid":"662274","name":"Zătreni","asciiname":"Zatreni","alternatenames":["Zatreni","Zatrenii","Zătreni","Zătrenii"],"latitude":"44.76667","longitude":"23.85","feature_class":"P","feature_code":"PPLA2","country_code":"RO","cc2":"","admin1_code":"39","admin2_code":"174290","admin3_code":"","admin4_code":"","population":"4524","elevation":"","dem":"235","timezone":"Europe/Bucharest","modification_date":"2012-06-12"},{"geonameid":"662279","name":"Zărneștii de Slănic","asciiname":"Zarnestii de Slanic","alternatenames":["Zarnesti","Zarnesti de Slanic","Zarnestii de Slanic","Zarneşti de Slanic","Zărneşti","Zărneştii de Slănic"],"latitude":"45.27708","longitude":"26.75549","feature_class":"P","feature_code":"PPL","country_code":"RO","cc2":"RO","admin1_code":"11","admin2_code":"46019","admin3_code":"","admin4_code":"","population":"1333","elevation":"","dem":"157","timezone":"Europe/Bucharest","modification_date":"2013-04-20"},{"geonameid":"662284","name":"Zărnești","asciiname":"Zarnesti","alternatenames":["Zarnesti","Zernesch","Zernest","Zărneşti"],"latitude":"45.56093","longitude":"25.31787","feature_class":"P","feature_code":"PPLA2","country_code":"RO","cc2":"RO","admin1_code":"09","admin2_code":"40492","admin3_code":"","admin4_code":"","population":"24926","elevation":"","dem":"716","timezone":"Europe/Bucharest","modification_date":"2013-04-20"},{"geonameid":"662285","name":"Zărneşti","asciiname":"Zarnesti","alternatenames":[""],"latitude":"45.3","longitude":"26.86667","feature_class":"P","feature_code":"PPLA2","country_code":"RO","cc2":"","admin1_code":"11","admin2_code":"50415","admin3_code":"","admin4_code":"","population":"5459","elevation":"","dem":"245","timezone":"Europe/Bucharest","modification_date":"2012-06-12"},{"geonameid":"662293","name":"Zărand","asciiname":"Zarand","alternatenames":["Zarand","Zărand"],"latitude":"46.4","longitude":"21.65","feature_class":"P","feature_code":"PPLA2","country_code":"RO","cc2":"","admin1_code":"02","admin2_code":"12812","admin3_code":"","admin4_code":"","population":"2629","elevation":"","dem":"101","timezone":"Europe/Bucharest","modification_date":"2012-06-12"},{"geonameid":"662302","name":"Zăpodeni","asciiname":"Zapodeni","alternatenames":["Zapodeni","Zăpodeni"],"latitude":"46.75","longitude":"27.65","feature_class":"P","feature_code":"PPLA2","country_code":"RO","cc2":"","admin1_code":"38","admin2_code":"167071","admin3_code":"","admin4_code":"","population":"4207","elevation":"","dem":"160","timezone":"Europe/Bucharest","modification_date":"2012-06-12"},{"geonameid":"662312","name":"Zănoaga","asciiname":"Zanoaga","alternatenames":[""],"latitude":"44.15511","longitude":"24.09832","feature_class":"P","feature_code":"PPL","country_code":"RO","cc2":"","admin1_code":"17","admin2_code":"72926","admin3_code":"","admin4_code":"","population":"1508","elevation":"","dem":"152","timezone":"Europe/Bucharest","modification_date":"2013-04-20"},{"geonameid":"662315","name":"Zăneşti","asciiname":"Zanesti","alternatenames":["Zanesti","Zăneşti"],"latitude":"46.81667","longitude":"26.55","feature_class":"P","feature_code":"PPLA2","country_code":"RO","cc2":"","admin1_code":"28","admin2_code":"125061","admin3_code":"","admin4_code":"","population":"6077","elevation":"","dem":"261","timezone":"Europe/Bucharest","modification_date":"2012-06-12"},{"geonameid":"662317","name":"Zamostea","asciiname":"Zamostea","alternatenames":["Zamostea"],"latitude":"47.86667","longitude":"26.2","feature_class":"P","feature_code":"PPLA2","country_code":"RO","cc2":"","admin1_code":"34","admin2_code":"151246","admin3_code":"","admin4_code":"","population":"3177","elevation":"","dem":"296","timezone":"Europe/Bucharest","modification_date":"2012-06-12"},{"geonameid":"662327","name":"Zam","asciiname":"Zam","alternatenames":["Sameschdorf","Zam"],"latitude":"46","longitude":"22.45","feature_class":"P","feature_code":"PPLA2","country_code":"RO","cc2":"","admin1_code":"21","admin2_code":"92177","admin3_code":"","admin4_code":"","population":"2121","elevation":"","dem":"238","timezone":"Europe/Bucharest","modification_date":"2012-06-12"},{"geonameid":"662332","name":"Zalha","asciiname":"Zalha","alternatenames":["Zalha"],"latitude":"47.18333","longitude":"23.53333","feature_class":"P","feature_code":"PPLA2","country_code":"RO","cc2":"","admin1_code":"31","admin2_code":"143067","admin3_code":"","admin4_code":"","population":"1152","elevation":"","dem":"433","timezone":"Europe/Bucharest","modification_date":"2012-06-12"},{"geonameid":"662334","name":"Zalău","asciiname":"Zalau","alternatenames":["Zalaou","Zalau","Zalehu","Zaleu","Zaluu","Zalău","Zelau","Zilah","jalleou","sylaw","zalaw","zha lei wu","zlyw","Ζαλάου","Залау","Залеу","Залъу","Залэу","زالاو","زلئو","سیلاؤ","札勒烏","잘러우"],"latitude":"47.2","longitude":"23.05","feature_class":"P","feature_code":"PPLA","country_code":"RO","cc2":"","admin1_code":"31","admin2_code":"","admin3_code":"","admin4_code":"","population":"63232","elevation":"","dem":"261","timezone":"Europe/Bucharest","modification_date":"2012-01-18"},{"geonameid":"662349","name":"Zagra","asciiname":"Zagra","alternatenames":[""],"latitude":"47.33333","longitude":"24.28333","feature_class":"P","feature_code":"PPLA2","country_code":"RO","cc2":"","admin1_code":"06","admin2_code":"35429","admin3_code":"","admin4_code":"","population":"3725","elevation":"","dem":"442","timezone":"Europe/Bucharest","modification_date":"2012-06-12"},{"geonameid":"662352","name":"Zagon","asciiname":"Zagon","alternatenames":[""],"latitude":"45.76667","longitude":"26.11667","feature_class":"P","feature_code":"PPLA2","country_code":"RO","cc2":"","admin1_code":"15","admin2_code":"65011","admin3_code":"","admin4_code":"","population":"5416","elevation":"","dem":"592","timezone":"Europe/Bucharest","modification_date":"2012-06-12"},{"geonameid":"662354","name":"Zagavia","asciiname":"Zagavia","alternatenames":[""],"latitude":"47.41911","longitude":"26.8979","feature_class":"P","feature_code":"PPL","country_code":"RO","cc2":"","admin1_code":"23","admin2_code":"98998","admin3_code":"","admin4_code":"","population":"1056","elevation":"","dem":"188","timezone":"Europe/Bucharest","modification_date":"2013-04-20"},{"geonameid":"662357","name":"Zagăr","asciiname":"Zagar","alternatenames":["Zagar","Zagra","Zagăr"],"latitude":"46.35","longitude":"24.61667","feature_class":"P","feature_code":"PPLA2","country_code":"RO","cc2":"","admin1_code":"27","admin2_code":"120343","admin3_code":"","admin4_code":"","population":"1197","elevation":"","dem":"349","timezone":"Europe/Bucharest","modification_date":"2012-06-12"},{"geonameid":"662361","name":"Zădăreni","asciiname":"Zadareni","alternatenames":["Gaderlach","Sadarlach","Saderlach","Saderlak","Szaderlak","Zadareni","Zadarlac","Zaderlach","Zadorlak","Zadărlac","Zádorlak","Zădăreni"],"latitude":"46.13274","longitude":"21.21821","feature_class":"P","feature_code":"PPLA2","country_code":"RO","cc2":"RO","admin1_code":"02","admin2_code":"12938","admin3_code":"","admin4_code":"","population":"2032","elevation":"","dem":"110","timezone":"Europe/Bucharest","modification_date":"2013-04-20"},{"geonameid":"662366","name":"Zăbrani","asciiname":"Zabrani","alternatenames":["Gutenbrunn","Guttenbrunn","Guttennbrunn","Temeshidegkut","Temeshidegkút","Zabrani","Zabrany","Zábrány","Zăbrani"],"latitude":"46.06667","longitude":"21.55","feature_class":"P","feature_code":"PPLA2","country_code":"RO","cc2":"","admin1_code":"02","admin2_code":"12778","admin3_code":"","admin4_code":"","population":"4392","elevation":"","dem":"157","timezone":"Europe/Bucharest","modification_date":"2012-06-12"},{"geonameid":"662373","name":"Zăbala","asciiname":"Zabala","alternatenames":["Zabala","Zabola","Zăbala"],"latitude":"45.9","longitude":"26.18333","feature_class":"P","feature_code":"PPLA2","country_code":"RO","cc2":"","admin1_code":"15","admin2_code":"65048","admin3_code":"","admin4_code":"","population":"4729","elevation":"","dem":"564","timezone":"Europe/Bucharest","modification_date":"2014-06-04"},{"geonameid":"662376","name":"Vutcani","asciiname":"Vutcani","alternatenames":["Vutcani"],"latitude":"46.46667","longitude":"27.96667","feature_class":"P","feature_code":"PPLA2","country_code":"RO","cc2":"","admin1_code":"38","admin2_code":"167035","admin3_code":"","admin4_code":"","population":"2391","elevation":"","dem":"148","timezone":"Europe/Bucharest","modification_date":"2012-06-12"},{"geonameid":"662379","name":"Vurpăr","asciiname":"Vurpar","alternatenames":[""],"latitude":"46","longitude":"23.46667","feature_class":"P","feature_code":"PPL","country_code":"RO","cc2":"","admin1_code":"01","admin2_code":"","admin3_code":"","admin4_code":"","population":"5215","elevation":"","dem":"218","timezone":"Europe/Bucharest","modification_date":"2014-07-08"},{"geonameid":"662380","name":"Vurpăr","asciiname":"Vurpar","alternatenames":["Burgberg","Vurpar","Vurpod","Vurpód","Vurpăr"],"latitude":"45.9","longitude":"24.35","feature_class":"P","feature_code":"PPLA2","country_code":"RO","cc2":"","admin1_code":"33","admin2_code":"145998","admin3_code":"","admin4_code":"","population":"2322","elevation":"","dem":"478","timezone":"Europe/Bucharest","modification_date":"2012-06-12"},{"geonameid":"662382","name":"Vulturu de Sus","asciiname":"Vulturu de Sus","alternatenames":["Vulturu de Sus","Vulturul-de-Sus"],"latitude":"45.61667","longitude":"27.41667","feature_class":"P","feature_code":"PPL","country_code":"RO","cc2":"","admin1_code":"40","admin2_code":"","admin3_code":"","admin4_code":"","population":"8549","elevation":"","dem":"20","timezone":"Europe/Bucharest","modification_date":"2014-07-08"},{"geonameid":"662387","name":"Vulturu","asciiname":"Vulturu","alternatenames":["Caratal","Cartal","Vulturu","Vulturul"],"latitude":"44.65","longitude":"28.26667","feature_class":"P","feature_code":"PPLA2","country_code":"RO","cc2":"","admin1_code":"14","admin2_code":"63170","admin3_code":"","admin4_code":"","population":"741","elevation":"","dem":"120","timezone":"Europe/Bucharest","modification_date":"2012-06-12"},{"geonameid":"662394","name":"Vultureşti","asciiname":"Vulturesti","alternatenames":[""],"latitude":"47.51667","longitude":"26.45","feature_class":"P","feature_code":"PPLA2","country_code":"RO","cc2":"","admin1_code":"34","admin2_code":"151157","admin3_code":"","admin4_code":"","population":"3771","elevation":"","dem":"388","timezone":"Europe/Bucharest","modification_date":"2012-06-12"},{"geonameid":"662395","name":"Vultureşti","asciiname":"Vulturesti","alternatenames":["Vulturesti","Vultureşti"],"latitude":"46.81667","longitude":"27.53333","feature_class":"P","feature_code":"PPLA2","country_code":"RO","cc2":"","admin1_code":"38","admin2_code":"166985","admin3_code":"","admin4_code":"","population":"2320","elevation":"","dem":"157","timezone":"Europe/Bucharest","modification_date":"2012-06-12"},{"geonameid":"662396","name":"Vulturești","asciiname":"Vulturesti","alternatenames":[""],"latitude":"45.06618","longitude":"25.08347","feature_class":"P","feature_code":"PPLA2","country_code":"RO","cc2":"","admin1_code":"03","admin2_code":"20055","admin3_code":"","admin4_code":"","population":"1984","elevation":"","dem":"420","timezone":"Europe/Bucharest","modification_date":"2013-04-20"},{"geonameid":"662397","name":"Vultureşti","asciiname":"Vulturesti","alternatenames":[""],"latitude":"44.73333","longitude":"24.31667","feature_class":"P","feature_code":"PPLA2","country_code":"RO","cc2":"","admin1_code":"29","admin2_code":"130231","admin3_code":"","admin4_code":"","population":"2790","elevation":"","dem":"201","timezone":"Europe/Bucharest","modification_date":"2012-06-12"},{"geonameid":"662400","name":"Vultureni","asciiname":"Vultureni","alternatenames":["Vultureni"],"latitude":"46.96667","longitude":"23.56667","feature_class":"P","feature_code":"PPLA2","country_code":"RO","cc2":"","admin1_code":"13","admin2_code":"60099","admin3_code":"","admin4_code":"","population":"1551","elevation":"","dem":"423","timezone":"Europe/Bucharest","modification_date":"2012-06-12"},{"geonameid":"662401","name":"Vultureni","asciiname":"Vultureni","alternatenames":["Gura Tiganesti","Gura Ţigăneşti","Vultureni"],"latitude":"46.36667","longitude":"27.28333","feature_class":"P","feature_code":"PPLA2","country_code":"RO","cc2":"","admin1_code":"04","admin2_code":"26118","admin3_code":"","admin4_code":"","population":"2171","elevation":"","dem":"142","timezone":"Europe/Bucharest","modification_date":"2012-06-12"},{"geonameid":"662412","name":"Vulpeni","asciiname":"Vulpeni","alternatenames":["Vulpeni"],"latitude":"44.46667","longitude":"23.91667","feature_class":"P","feature_code":"PPLA2","country_code":"RO","cc2":"","admin1_code":"29","admin2_code":"130124","admin3_code":"","admin4_code":"","population":"2669","elevation":"","dem":"161","timezone":"Europe/Bucharest","modification_date":"2012-06-12"},{"geonameid":"662419","name":"Vulcăneasa","asciiname":"Vulcaneasa","alternatenames":["Vulcaneasa","Vulcanesisa","Vulcăneasa","Vulcănesisa"],"latitude":"45.77388","longitude":"26.90981","feature_class":"P","feature_code":"PPL","country_code":"RO","cc2":"RO","admin1_code":"40","admin2_code":"176686","admin3_code":"","admin4_code":"","population":"1101","elevation":"","dem":"251","timezone":"Europe/Bucharest","modification_date":"2013-04-20"},{"geonameid":"662421","name":"Vulcana-Pandele","asciiname":"Vulcana-Pandele","alternatenames":[""],"latitude":"45.01558","longitude":"25.39319","feature_class":"P","feature_code":"PPLA2","country_code":"RO","cc2":"","admin1_code":"16","admin2_code":"179640","admin3_code":"","admin4_code":"","population":"2480","elevation":"","dem":"349","timezone":"Europe/Bucharest","modification_date":"2013-04-20"},{"geonameid":"662422","name":"Vulcana de Sus","asciiname":"Vulcana de Sus","alternatenames":[""],"latitude":"45.10125","longitude":"25.35826","feature_class":"P","feature_code":"PPL","country_code":"RO","cc2":"","admin1_code":"16","admin2_code":"69615","admin3_code":"","admin4_code":"","population":"1433","elevation":"","dem":"432","timezone":"Europe/Bucharest","modification_date":"2013-04-20"},{"geonameid":"662424","name":"Vulcana Băi","asciiname":"Vulcana Bai","alternatenames":["Baile Vulcan","Balle Vulcana","Băile Vulcan","Vulcan Bai","Vulcana Bai","Vulcana Băi"],"latitude":"45.07982","longitude":"25.38219","feature_class":"P","feature_code":"PPLA2","country_code":"RO","cc2":"","admin1_code":"16","admin2_code":"69615","admin3_code":"","admin4_code":"","population":"2972","elevation":"","dem":"388","timezone":"Europe/Bucharest","modification_date":"2012-06-12"},{"geonameid":"662431","name":"Vulcan","asciiname":"Vulcan","alternatenames":["Vulcan"],"latitude":"45.63333","longitude":"25.41667","feature_class":"P","feature_code":"PPLA2","country_code":"RO","cc2":"","admin1_code":"09","admin2_code":"42398","admin3_code":"","admin4_code":"","population":"5493","elevation":"","dem":"600","timezone":"Europe/Bucharest","modification_date":"2012-06-12"},{"geonameid":"662432","name":"Vulcan","asciiname":"Vulcan","alternatenames":["Vulcan"],"latitude":"45.38333","longitude":"23.26667","feature_class":"P","feature_code":"PPL","country_code":"RO","cc2":"","admin1_code":"21","admin2_code":"","admin3_code":"","admin4_code":"","population":"28869","elevation":"","dem":"757","timezone":"Europe/Bucharest","modification_date":"2013-10-29"},{"geonameid":"662437","name":"Vrâncioaia","asciiname":"Vrancioaia","alternatenames":["Vrancioaia","Vrâncioaia"],"latitude":"45.85","longitude":"26.73333","feature_class":"P","feature_code":"PPLA2","country_code":"RO","cc2":"","admin1_code":"40","admin2_code":"178750","admin3_code":"","admin4_code":"","population":"3018","elevation":"","dem":"488","timezone":"Europe/Bucharest","modification_date":"2012-06-12"},{"geonameid":"662441","name":"Vrata","asciiname":"Vrata","alternatenames":["Vrata"],"latitude":"44.19197","longitude":"22.84928","feature_class":"P","feature_code":"PPLA2","country_code":"RO","cc2":"","admin1_code":"26","admin2_code":"114079","admin3_code":"","admin4_code":"","population":"1928","elevation":"","dem":"60","timezone":"Europe/Bucharest","modification_date":"2013-04-20"},{"geonameid":"662445","name":"Vrănești","asciiname":"Vranesti","alternatenames":[""],"latitude":"44.84595","longitude":"25.00716","feature_class":"P","feature_code":"PPL","country_code":"RO","cc2":"","admin1_code":"03","admin2_code":"15108","admin3_code":"","admin4_code":"","population":"1218","elevation":"","dem":"273","timezone":"Europe/Bucharest","modification_date":"2013-04-20"},{"geonameid":"662455","name":"Voşlobeni","asciiname":"Voslobeni","alternatenames":["Vaslab","Vasláb","Voslab","Voslobeni","Voşlab","Voşlobeni"],"latitude":"46.65","longitude":"25.63333","feature_class":"P","feature_code":"PPLA2","country_code":"RO","cc2":"","admin1_code":"20","admin2_code":"86339","admin3_code":"","admin4_code":"","population":"2026","elevation":"","dem":"830","timezone":"Europe/Bucharest","modification_date":"2012-06-12"},{"geonameid":"662457","name":"Vorţa","asciiname":"Vorta","alternatenames":["Vorta","Vorţa"],"latitude":"46.01667","longitude":"22.68333","feature_class":"P","feature_code":"PPLA2","country_code":"RO","cc2":"","admin1_code":"21","admin2_code":"92097","admin3_code":"","admin4_code":"","population":"1071","elevation":"","dem":"292","timezone":"Europe/Bucharest","modification_date":"2012-06-12"},{"geonameid":"662463","name":"Vorona Teodoru","asciiname":"Vorona Teodoru","alternatenames":[""],"latitude":"47.55","longitude":"26.6","feature_class":"P","feature_code":"PPL","country_code":"RO","cc2":"","admin1_code":"07","admin2_code":"","admin3_code":"","admin4_code":"","population":"7992","elevation":"","dem":"253","timezone":"Europe/Bucharest","modification_date":"2014-07-08"},{"geonameid":"662468","name":"Vorona","asciiname":"Vorona","alternatenames":["Vorona","Vorona Noua","Vorona Nouă"],"latitude":"47.59668","longitude":"26.64482","feature_class":"P","feature_code":"PPLA2","country_code":"RO","cc2":"RO","admin1_code":"07","admin2_code":"39872","admin3_code":"","admin4_code":"","population":"2501","elevation":"","dem":"282","timezone":"Europe/Bucharest","modification_date":"2013-04-20"},{"geonameid":"662473","name":"Vorniceni","asciiname":"Vorniceni","alternatenames":["Voriuceni","Vorniceni"],"latitude":"47.98333","longitude":"26.66667","feature_class":"P","feature_code":"PPLA2","country_code":"RO","cc2":"","admin1_code":"07","admin2_code":"39836","admin3_code":"","admin4_code":"","population":"4490","elevation":"","dem":"199","timezone":"Europe/Bucharest","modification_date":"2012-06-12"},{"geonameid":"662476","name":"Voluntari","asciiname":"Voluntari","alternatenames":["Cetatea Voluntareasca","Cetatea Voluntărească","Parcu Voluntarilor","Stefanestii Noi","Stefăneştii Noi","Voluntari","Волунтари"],"latitude":"44.49002","longitude":"26.17338","feature_class":"P","feature_code":"PPLA2","country_code":"RO","cc2":"","admin1_code":"43","admin2_code":"179551","admin3_code":"","admin4_code":"","population":"30323","elevation":"","dem":"82","timezone":"Europe/Bucharest","modification_date":"2013-09-29"},{"geonameid":"662478","name":"Volovăţ","asciiname":"Volovat","alternatenames":["Volovat","Volovăţ"],"latitude":"47.81667","longitude":"25.9","feature_class":"P","feature_code":"PPLA2","country_code":"RO","cc2":"","admin1_code":"34","admin2_code":"151120","admin3_code":"","admin4_code":"","population":"6990","elevation":"","dem":"383","timezone":"Europe/Bucharest","modification_date":"2012-06-12"},{"geonameid":"662486","name":"Voloiacu","asciiname":"Voloiacu","alternatenames":["Voloiac","Voloiacu"],"latitude":"44.61667","longitude":"23.1","feature_class":"P","feature_code":"PPLA2","country_code":"RO","cc2":"","admin1_code":"26","admin2_code":"113974","admin3_code":"","admin4_code":"","population":"2038","elevation":"","dem":"239","timezone":"Europe/Bucharest","modification_date":"2012-06-12"},{"geonameid":"662491","name":"Voivozi","asciiname":"Voivozi","alternatenames":["Derna Voevozi","Voivozi"],"latitude":"47.21562","longitude":"22.39024","feature_class":"P","feature_code":"PPL","country_code":"RO","cc2":"RO","admin1_code":"05","admin2_code":"30568","admin3_code":"","admin4_code":"","population":"1991","elevation":"","dem":"190","timezone":"Europe/Bucharest","modification_date":"2013-04-20"},{"geonameid":"662498","name":"Voivodeni","asciiname":"Voivodeni","alternatenames":["Vajdaszentivany","Vajdaszentivány","Voivodeni"],"latitude":"46.7","longitude":"24.63333","feature_class":"P","feature_code":"PPLA2","country_code":"RO","cc2":"","admin1_code":"27","admin2_code":"120316","admin3_code":"","admin4_code":"","population":"1930","elevation":"","dem":"339","timezone":"Europe/Bucharest","modification_date":"2012-06-12"},{"geonameid":"662501","name":"Voievodeasa","asciiname":"Voievodeasa","alternatenames":["Voevodeasa","Voivodeasa"],"latitude":"47.79953","longitude":"25.74939","feature_class":"P","feature_code":"PPL","country_code":"RO","cc2":"RO","admin1_code":"34","admin2_code":"150418","admin3_code":"","admin4_code":"","population":"1208","elevation":"","dem":"512","timezone":"Europe/Bucharest","modification_date":"2013-04-20"},{"geonameid":"662503","name":"Voitinel","asciiname":"Voitinel","alternatenames":["Voitinel"],"latitude":"47.88366","longitude":"25.75735","feature_class":"P","feature_code":"PPLA2","country_code":"RO","cc2":"","admin1_code":"34","admin2_code":"151558","admin3_code":"","admin4_code":"","population":"3159","elevation":"","dem":"454","timezone":"Europe/Bucharest","modification_date":"2013-04-20"},{"geonameid":"662508","name":"Voiteg","asciiname":"Voiteg","alternatenames":["Vejte","Voiteg","Voiteni","Vojtek","Wojtek"],"latitude":"45.46889","longitude":"21.23917","feature_class":"P","feature_code":"PPLA2","country_code":"RO","cc2":"","admin1_code":"36","admin2_code":"159339","admin3_code":"","admin4_code":"","population":"2402","elevation":"","dem":"84","timezone":"Europe/Bucharest","modification_date":"2012-06-12"},{"geonameid":"662516","name":"Voineşti","asciiname":"Voinesti","alternatenames":[""],"latitude":"47.06667","longitude":"27.41667","feature_class":"P","feature_code":"PPLA2","country_code":"RO","cc2":"","admin1_code":"23","admin2_code":"100219","admin3_code":"","admin4_code":"","population":"6161","elevation":"","dem":"191","timezone":"Europe/Bucharest","modification_date":"2012-06-12"},{"geonameid":"662518","name":"Voineşti","asciiname":"Voinesti","alternatenames":["Cirtibasul","Cîrtibaşul","Voinesti","Voinesti-Boeresti","Voinesti-Boieresti","Voinesti-Razesi","Voinestii Boeresti","Voinestii-Razesi","Voineşti","Voineşti-Boereşti","Voineşti-Boiereşti","Voineşti-Răzeşi","Voineştii Boereşti","Voineştii-Răzeşi"],"latitude":"46.56667","longitude":"27.41667","feature_class":"P","feature_code":"PPLA2","country_code":"RO","cc2":"","admin1_code":"38","admin2_code":"166869","admin3_code":"","admin4_code":"","population":"3785","elevation":"","dem":"214","timezone":"Europe/Bucharest","modification_date":"2012-06-12"},{"geonameid":"662520","name":"Voinești","asciiname":"Voinesti","alternatenames":[""],"latitude":"45.30007","longitude":"25.07225","feature_class":"P","feature_code":"PPL","country_code":"RO","cc2":"","admin1_code":"03","admin2_code":"16908","admin3_code":"","admin4_code":"","population":"1895","elevation":"","dem":"644","timezone":"Europe/Bucharest","modification_date":"2013-04-20"},{"geonameid":"662521","name":"Voineşti","asciiname":"Voinesti","alternatenames":["Voinesti","Voinestu","Voineşti"],"latitude":"45.06667","longitude":"25.25","feature_class":"P","feature_code":"PPLA2","country_code":"RO","cc2":"","admin1_code":"16","admin2_code":"69526","admin3_code":"","admin4_code":"","population":"6159","elevation":"","dem":"396","timezone":"Europe/Bucharest","modification_date":"2012-06-12"},{"geonameid":"662530","name":"Voineasa","asciiname":"Voineasa","alternatenames":["Voineasa","Voineasca"],"latitude":"45.41667","longitude":"23.95","feature_class":"P","feature_code":"PPLA2","country_code":"RO","cc2":"","admin1_code":"39","admin2_code":"174254","admin3_code":"","admin4_code":"","population":"1695","elevation":"","dem":"822","timezone":"Europe/Bucharest","modification_date":"2012-06-12"},{"geonameid":"662531","name":"Voineasa","asciiname":"Voineasa","alternatenames":["Voineasa","Voineasa Mare"],"latitude":"44.28333","longitude":"24.13333","feature_class":"P","feature_code":"PPLA2","country_code":"RO","cc2":"","admin1_code":"29","admin2_code":"130062","admin3_code":"","admin4_code":"","population":"2310","elevation":"","dem":"171","timezone":"Europe/Bucharest","modification_date":"2012-06-12"},{"geonameid":"662533","name":"Voila","asciiname":"Voila","alternatenames":["Voila"],"latitude":"45.81839","longitude":"24.84215","feature_class":"P","feature_code":"PPLA2","country_code":"RO","cc2":"","admin1_code":"09","admin2_code":"42307","admin3_code":"","admin4_code":"","population":"4513","elevation":"","dem":"421","timezone":"Europe/Bucharest","modification_date":"2012-06-12"},{"geonameid":"662535","name":"Voetin","asciiname":"Voetin","alternatenames":["Voetenu","Voetin","Voietenu"],"latitude":"45.4437","longitude":"27.14587","feature_class":"P","feature_code":"PPL","country_code":"RO","cc2":"RO","admin1_code":"40","admin2_code":"177600","admin3_code":"","admin4_code":"","population":"1305","elevation":"","dem":"71","timezone":"Europe/Bucharest","modification_date":"2013-04-20"},{"geonameid":"662541","name":"Voiceşti","asciiname":"Voicesti","alternatenames":["Voicesti","Voicestii de Mijloc","Voiceşti","Voiceştii de Mijloc"],"latitude":"44.6","longitude":"24.28333","feature_class":"P","feature_code":"PPLA2","country_code":"RO","cc2":"","admin1_code":"39","admin2_code":"174218","admin3_code":"","admin4_code":"","population":"1752","elevation":"","dem":"135","timezone":"Europe/Bucharest","modification_date":"2012-06-12"},{"geonameid":"662553","name":"Vlăsineşti","asciiname":"Vlasinesti","alternatenames":["Vlasinesti","Vlăsineşti"],"latitude":"47.93333","longitude":"26.88333","feature_class":"P","feature_code":"PPLA2","country_code":"RO","cc2":"","admin1_code":"07","admin2_code":"39792","admin3_code":"","admin4_code":"","population":"3380","elevation":"","dem":"116","timezone":"Europe/Bucharest","modification_date":"2012-06-12"},{"geonameid":"662558","name":"Vlăsceni","asciiname":"Vlasceni","alternatenames":[""],"latitude":"44.58522","longitude":"25.59931","feature_class":"P","feature_code":"PPL","country_code":"RO","cc2":"","admin1_code":"16","admin2_code":"68468","admin3_code":"","admin4_code":"","population":"1066","elevation":"","dem":"136","timezone":"Europe/Bucharest","modification_date":"2013-04-20"},{"geonameid":"662561","name":"Vlașca","asciiname":"Vlasca","alternatenames":[""],"latitude":"44.39664","longitude":"27.84865","feature_class":"P","feature_code":"PPLX","country_code":"RO","cc2":"","admin1_code":"22","admin2_code":"92701","admin3_code":"","admin4_code":"","population":"1996","elevation":"","dem":"42","timezone":"Europe/Bucharest","modification_date":"2013-04-20"},{"geonameid":"662570","name":"Vlăhiţa","asciiname":"Vlahita","alternatenames":["Szentegyhaza","Szentegyhazasfalu","Szentegyháza","Szentegyházasfalu","Vlahita","Vlăhiţa"],"latitude":"46.35","longitude":"25.51667","feature_class":"P","feature_code":"PPLA2","country_code":"RO","cc2":"","admin1_code":"20","admin2_code":"83749","admin3_code":"","admin4_code":"","population":"6922","elevation":"","dem":"853","timezone":"Europe/Bucharest","modification_date":"2014-06-04"},{"geonameid":"662577","name":"Vlăduleni","asciiname":"Vladuleni","alternatenames":[""],"latitude":"44.88857","longitude":"23.23727","feature_class":"P","feature_code":"PPL","country_code":"RO","cc2":"","admin1_code":"19","admin2_code":"79004","admin3_code":"","admin4_code":"","population":"1016","elevation":"","dem":"159","timezone":"Europe/Bucharest","modification_date":"2013-04-20"},{"geonameid":"662583","name":"Vlad Ţepeş","asciiname":"Vlad Tepes","alternatenames":[""],"latitude":"44.35","longitude":"27.08333","feature_class":"P","feature_code":"PPLA2","country_code":"RO","cc2":"","admin1_code":"41","admin2_code":"94768","admin3_code":"","admin4_code":"","population":"2584","elevation":"","dem":"39","timezone":"Europe/Bucharest","modification_date":"2012-06-12"},{"geonameid":"662584","name":"Vlad Țepeș","asciiname":"Vlad Tepes","alternatenames":[""],"latitude":"44.13282","longitude":"26.13355","feature_class":"P","feature_code":"PPL","country_code":"RO","cc2":"","admin1_code":"42","admin2_code":"102106","admin3_code":"","admin4_code":"","population":"2043","elevation":"","dem":"83","timezone":"Europe/Bucharest","modification_date":"2013-04-20"},{"geonameid":"662598","name":"Vladimiru","asciiname":"Vladimiru","alternatenames":["Vladimir","Vladimiru","Vladimirul"],"latitude":"44.83333","longitude":"23.56667","feature_class":"P","feature_code":"PPLA2","country_code":"RO","cc2":"","admin1_code":"19","admin2_code":"82831","admin3_code":"","admin4_code":"","population":"3435","elevation":"","dem":"209","timezone":"Europe/Bucharest","modification_date":"2012-06-12"},{"geonameid":"662600","name":"Vladimirescu","asciiname":"Vladimirescu","alternatenames":["Glogovacz","Glogovat","Glogovácz","Glogovăţ","Glogowatz","Othalom","Tudor Vladimirescu","Vladimirescu","Öthalom"],"latitude":"46.16628","longitude":"21.40102","feature_class":"P","feature_code":"PPLA2","country_code":"RO","cc2":"","admin1_code":"02","admin2_code":"9397","admin3_code":"","admin4_code":"","population":"10451","elevation":"","dem":"109","timezone":"Europe/Bucharest","modification_date":"2012-06-12"},{"geonameid":"662605","name":"Vlădila","asciiname":"Vladila","alternatenames":["Vladila","Vladila Veche","Vlădila","Vlădila Veche"],"latitude":"44","longitude":"24.4","feature_class":"P","feature_code":"PPLA2","country_code":"RO","cc2":"","admin1_code":"29","admin2_code":"130026","admin3_code":"","admin4_code":"","population":"2198","elevation":"","dem":"93","timezone":"Europe/Bucharest","modification_date":"2012-06-12"},{"geonameid":"662620","name":"Vlădeşti","asciiname":"Vladesti","alternatenames":[""],"latitude":"45.85","longitude":"28.08333","feature_class":"P","feature_code":"PPLA2","country_code":"RO","cc2":"","admin1_code":"18","admin2_code":"77536","admin3_code":"","admin4_code":"","population":"2228","elevation":"","dem":"54","timezone":"Europe/Bucharest","modification_date":"2012-06-12"},{"geonameid":"662622","name":"Vlădeşti","asciiname":"Vladesti","alternatenames":[""],"latitude":"45.11667","longitude":"24.3","feature_class":"P","feature_code":"PPLA2","country_code":"RO","cc2":"","admin1_code":"39","admin2_code":"174156","admin3_code":"","admin4_code":"","population":"2411","elevation":"","dem":"284","timezone":"Europe/Bucharest","modification_date":"2012-06-12"},{"geonameid":"662626","name":"Vlădeni-Deal","asciiname":"Vladeni-Deal","alternatenames":["Vladeni","Vladeni-Deal","Vlădeni","Vlădeni-Deal"],"latitude":"47.5225","longitude":"26.87295","feature_class":"P","feature_code":"PPL","country_code":"RO","cc2":"RO","admin1_code":"07","admin2_code":"37324","admin3_code":"","admin4_code":"","population":"1658","elevation":"","dem":"173","timezone":"Europe/Bucharest","modification_date":"2013-04-20"},{"geonameid":"662635","name":"Vlădeni","asciiname":"Vladeni","alternatenames":[""],"latitude":"47.71667","longitude":"26.51667","feature_class":"P","feature_code":"PPLA2","country_code":"RO","cc2":"","admin1_code":"07","admin2_code":"39738","admin3_code":"","admin4_code":"","population":"4963","elevation":"","dem":"273","timezone":"Europe/Bucharest","modification_date":"2012-06-12"},{"geonameid":"662636","name":"Vlădeni","asciiname":"Vladeni","alternatenames":[""],"latitude":"47.41667","longitude":"27.33333","feature_class":"P","feature_code":"PPLA2","country_code":"RO","cc2":"","admin1_code":"23","admin2_code":"100148","admin3_code":"","admin4_code":"","population":"4498","elevation":"","dem":"49","timezone":"Europe/Bucharest","modification_date":"2012-06-12"},{"geonameid":"662639","name":"Vlădeni","asciiname":"Vladeni","alternatenames":["Vladeni","Vladenii","Vlădeni","Vlădenii"],"latitude":"44.8755","longitude":"25.77318","feature_class":"P","feature_code":"PPLA2","country_code":"RO","cc2":"RO","admin1_code":"16","admin2_code":"179711","admin3_code":"","admin4_code":"","population":"2963","elevation":"","dem":"195","timezone":"Europe/Bucharest","modification_date":"2013-04-20"},{"geonameid":"662640","name":"Vlădeni","asciiname":"Vladeni","alternatenames":[""],"latitude":"44.61667","longitude":"27.88333","feature_class":"P","feature_code":"PPLA2","country_code":"RO","cc2":"","admin1_code":"22","admin2_code":"94795","admin3_code":"","admin4_code":"","population":"2230","elevation":"","dem":"5","timezone":"Europe/Bucharest","modification_date":"2012-06-12"},{"geonameid":"662645","name":"Vlădaia","asciiname":"Vladaia","alternatenames":["Vladaia","Vlădaia"],"latitude":"44.35","longitude":"23.03333","feature_class":"P","feature_code":"PPLA2","country_code":"RO","cc2":"","admin1_code":"26","admin2_code":"113929","admin3_code":"","admin4_code":"","population":"2185","elevation":"","dem":"196","timezone":"Europe/Bucharest","modification_date":"2012-06-12"},{"geonameid":"662647","name":"Vizurești","asciiname":"Vizuresti","alternatenames":[""],"latitude":"44.6404","longitude":"25.8074","feature_class":"P","feature_code":"PPL","country_code":"RO","cc2":"","admin1_code":"16","admin2_code":"101840","admin3_code":"","admin4_code":"","population":"1007","elevation":"","dem":"126","timezone":"Europe/Bucharest","modification_date":"2013-04-20"},{"geonameid":"662651","name":"Viziru","asciiname":"Viziru","alternatenames":["Viziru","Vizirul"],"latitude":"45.01667","longitude":"27.7","feature_class":"P","feature_code":"PPLA2","country_code":"RO","cc2":"","admin1_code":"08","admin2_code":"44505","admin3_code":"","admin4_code":"","population":"6305","elevation":"","dem":"15","timezone":"Europe/Bucharest","modification_date":"2012-06-12"},{"geonameid":"662655","name":"Vizantea-Mânăstirească","asciiname":"Vizantea-Manastireasca","alternatenames":["Vizante","Vizantea","Vizantea-Manastireasca","Vizantea-Minastireasca","Vizantea-Mânăstirească","Vizantea-Mînăstirească","Vizantia Monastueasc","Vizantia-Manastirea","Vizantia-Mânăstirea"],"latitude":"45.98333","longitude":"26.78333","feature_class":"P","feature_code":"PPL","country_code":"RO","cc2":"","admin1_code":"00","admin2_code":"","admin3_code":"","admin4_code":"","population":"4201","elevation":"","dem":"365","timezone":"Europe/Bucharest","modification_date":"2012-06-03"},{"geonameid":"662658","name":"Vitomireşti","asciiname":"Vitomiresti","alternatenames":["Costesti","Costesti-Uda","Costestii","Costeşti","Costeşti-Uda","Vitomiresti","Vitomireşti"],"latitude":"44.86667","longitude":"24.4","feature_class":"P","feature_code":"PPLA2","country_code":"RO","cc2":"","admin1_code":"29","admin2_code":"129914","admin3_code":"","admin4_code":"","population":"2678","elevation":"","dem":"407","timezone":"Europe/Bucharest","modification_date":"2012-06-12"},{"geonameid":"662667","name":"Vitănești","asciiname":"Vitanesti","alternatenames":[""],"latitude":"44.5273","longitude":"24.69585","feature_class":"P","feature_code":"PPL","country_code":"RO","cc2":"","admin1_code":"29","admin2_code":"130366","admin3_code":"","admin4_code":"","population":"2273","elevation":"","dem":"181","timezone":"Europe/Bucharest","modification_date":"2013-04-20"},{"geonameid":"662668","name":"Vităneşti","asciiname":"Vitanesti","alternatenames":["Vitanesti","Vităneşti"],"latitude":"44","longitude":"25.41667","feature_class":"P","feature_code":"PPLA2","country_code":"RO","cc2":"","admin1_code":"35","admin2_code":"153776","admin3_code":"","admin4_code":"","population":"3214","elevation":"","dem":"45","timezone":"Europe/Bucharest","modification_date":"2012-06-12"},{"geonameid":"662679","name":"Viștea de Jos","asciiname":"Vistea de Jos","alternatenames":[""],"latitude":"45.79582","longitude":"24.7238","feature_class":"P","feature_code":"PPLA2","country_code":"RO","cc2":"","admin1_code":"09","admin2_code":"42236","admin3_code":"","admin4_code":"","population":"768","elevation":"","dem":"421","timezone":"Europe/Bucharest","modification_date":"2013-04-20"},{"geonameid":"662687","name":"Vişineşti","asciiname":"Visinesti","alternatenames":["Visinesti","Vişineşti"],"latitude":"45.1","longitude":"25.55","feature_class":"P","feature_code":"PPLA2","country_code":"RO","cc2":"","admin1_code":"16","admin2_code":"69394","admin3_code":"","admin4_code":"","population":"2372","elevation":"","dem":"493","timezone":"Europe/Bucharest","modification_date":"2012-06-12"},{"geonameid":"662691","name":"Vișina Nouă","asciiname":"Visina Noua","alternatenames":["Visina Noua","Vişina Nouă"],"latitude":"43.87434","longitude":"24.4182","feature_class":"P","feature_code":"PPLA2","country_code":"RO","cc2":"","admin1_code":"29","admin2_code":"130375","admin3_code":"","admin4_code":"","population":"2171","elevation":"","dem":"55","timezone":"Europe/Bucharest","modification_date":"2013-04-20"},{"geonameid":"662695","name":"Vişina","asciiname":"Visina","alternatenames":["Visina","Vişina"],"latitude":"44.58333","longitude":"25.33333","feature_class":"P","feature_code":"PPLA2","country_code":"RO","cc2":"","admin1_code":"16","admin2_code":"69330","admin3_code":"","admin4_code":"","population":"6604","elevation":"","dem":"165","timezone":"Europe/Bucharest","modification_date":"2012-06-12"},{"geonameid":"662697","name":"Vişina","asciiname":"Visina","alternatenames":["Visina","Visina Veche","Vişina","Vişina Veche"],"latitude":"43.86667","longitude":"24.45","feature_class":"P","feature_code":"PPLA2","country_code":"RO","cc2":"","admin1_code":"29","admin2_code":"129898","admin3_code":"","admin4_code":"","population":"3311","elevation":"","dem":"53","timezone":"Europe/Bucharest","modification_date":"2012-06-12"},{"geonameid":"662699","name":"Vişeu de Sus","asciiname":"Viseu de Sus","alternatenames":["Felsoviso","Felsövisó","Visauel-de-Sus","Visaul-de-Sus","Viseu","Viseu de Sus","Viseul","Viseul de Sus","Visuel de-Sus","Vişeu","Vişeu de Sus","Vişeul","Vişeul de Sus","Vişuel de-Sus","Vişăuel-de-Sus","Vişăul-de-Sus"],"latitude":"47.71667","longitude":"24.43333","feature_class":"P","feature_code":"PPL","country_code":"RO","cc2":"","admin1_code":"25","admin2_code":"","admin3_code":"","admin4_code":"","population":"16938","elevation":"","dem":"510","timezone":"Europe/Bucharest","modification_date":"2014-06-05"},{"geonameid":"662700","name":"Vișeu de Mijloc","asciiname":"Viseu de Mijloc","alternatenames":["Viseu de Mijloc","Viseul de Mijloc","Vişeu de Mijloc","Vişeul de Mijloc"],"latitude":"47.71562","longitude":"24.40661","feature_class":"P","feature_code":"PPLX","country_code":"RO","cc2":"RO","admin1_code":"25","admin2_code":"106979","admin3_code":"","admin4_code":"","population":"3223","elevation":"","dem":"474","timezone":"Europe/Bucharest","modification_date":"2013-04-20"},{"geonameid":"662702","name":"Vişeu de Jos","asciiname":"Viseu de Jos","alternatenames":["Visaul-de-Jos","Viseu de Jos","Viseul de Jos","Vizaul de Jos","Vizăul de Jos","Vişeu de Jos","Vişeul de Jos","Vişăul-de-Jos"],"latitude":"47.72558","longitude":"24.36613","feature_class":"P","feature_code":"PPLA2","country_code":"RO","cc2":"","admin1_code":"25","admin2_code":"109504","admin3_code":"","admin4_code":"","population":"5201","elevation":"","dem":"457","timezone":"Europe/Bucharest","modification_date":"2012-06-12"},{"geonameid":"662709","name":"Vişani","asciiname":"Visani","alternatenames":[""],"latitude":"45.15","longitude":"27.28333","feature_class":"P","feature_code":"PPLA2","country_code":"RO","cc2":"","admin1_code":"08","admin2_code":"44462","admin3_code":"","admin4_code":"","population":"2819","elevation":"","dem":"37","timezone":"Europe/Bucharest","modification_date":"2012-06-12"},{"geonameid":"662715","name":"Vârvoru de Jos","asciiname":"Varvoru de Jos","alternatenames":["Ruptura","Virvoru de Jos","Vîrvoru de Jos"],"latitude":"44.24415","longitude":"23.6079","feature_class":"P","feature_code":"PPLA2","country_code":"RO","cc2":"RO","admin1_code":"17","admin2_code":"74750","admin3_code":"","admin4_code":"","population":"0","elevation":"","dem":"111","timezone":"Europe/Bucharest","modification_date":"2012-06-12"},{"geonameid":"662717","name":"Vârvoru","asciiname":"Varvoru","alternatenames":["Varvor","Varvoru","Varvorul","Virvoru","Vârvor","Vârvoru","Vârvorul","Vîrvoru"],"latitude":"44.22527","longitude":"23.62387","feature_class":"P","feature_code":"PPL","country_code":"RO","cc2":"","admin1_code":"00","admin2_code":"","admin3_code":"","admin4_code":"","population":"3344","elevation":"","dem":"157","timezone":"Europe/Bucharest","modification_date":"2012-06-09"},{"geonameid":"662724","name":"Vârtop","asciiname":"Vartop","alternatenames":["Vartop","Vartopu","Vartopul","Virtopu","Vârtop","Vârtopu","Vârtopul","Vîrtopu"],"latitude":"44.20682","longitude":"23.34869","feature_class":"P","feature_code":"PPLA2","country_code":"RO","cc2":"","admin1_code":"17","admin2_code":"74732","admin3_code":"","admin4_code":"","population":"1818","elevation":"","dem":"135","timezone":"Europe/Bucharest","modification_date":"2012-06-12"},{"geonameid":"662730","name":"Vârtoapele de Sus","asciiname":"Vartoapele de Sus","alternatenames":["Vartoapele-de-Sus","Virtoapele de Sus","Vârtoapele-de-Sus","Vîrtoapele de Sus"],"latitude":"44.19182","longitude":"25.20025","feature_class":"P","feature_code":"PPL","country_code":"RO","cc2":"RO","admin1_code":"35","admin2_code":"154932","admin3_code":"","admin4_code":"","population":"1507","elevation":"","dem":"83","timezone":"Europe/Bucharest","modification_date":"2013-04-20"},{"geonameid":"662731","name":"Vârtoapele de Jos","asciiname":"Vartoapele de Jos","alternatenames":["Vartoapele-de-Jos","Virtoapele de Jos","Vârtoapele-de-Jos","Vîrtoapele de Jos"],"latitude":"44.18333","longitude":"25.2","feature_class":"P","feature_code":"PPL","country_code":"RO","cc2":"","admin1_code":"00","admin2_code":"","admin3_code":"","admin4_code":"","population":"3201","elevation":"","dem":"82","timezone":"Europe/Bucharest","modification_date":"2012-06-03"},{"geonameid":"662738","name":"Vârteşcoiu","asciiname":"Vartescoiu","alternatenames":["Vartescoi","Vartescoiu","Virtescoiu","Vârteşcoi","Vârteşcoiu","Vîrteşcoiu"],"latitude":"45.73333","longitude":"27.08333","feature_class":"P","feature_code":"PPLA2","country_code":"RO","cc2":"RO","admin1_code":"40","admin2_code":"178689","admin3_code":"","admin4_code":"","population":"0","elevation":"","dem":"122","timezone":"Europe/Bucharest","modification_date":"2012-06-12"},{"geonameid":"662742","name":"Vârteju","asciiname":"Varteju","alternatenames":["Vartej","Varteju","Vartejul","Vartejul-Nefliu","Virteju","Vârtej","Vârteju","Vârtejul","Vârtejul-Nefliu","Vîrteju"],"latitude":"44.35606","longitude":"25.99183","feature_class":"P","feature_code":"PPL","country_code":"RO","cc2":"RO","admin1_code":"43","admin2_code":"179409","admin3_code":"","admin4_code":"","population":"1818","elevation":"","dem":"80","timezone":"Europe/Bucharest","modification_date":"2013-04-20"},{"geonameid":"662746","name":"Vârşolţ","asciiname":"Varsolt","alternatenames":["Varsolt","Virsolt","Vârşolţ","Vîrşolţ"],"latitude":"47.2","longitude":"22.93333","feature_class":"P","feature_code":"PPLA2","country_code":"RO","cc2":"RO","admin1_code":"31","admin2_code":"143021","admin3_code":"","admin4_code":"","population":"0","elevation":"","dem":"224","timezone":"Europe/Bucharest","modification_date":"2012-06-12"},{"geonameid":"662759","name":"Vârlezi","asciiname":"Varlezi","alternatenames":["Varlezi","Virlezi","Vârlezi","Vîrlezi"],"latitude":"45.9","longitude":"27.85","feature_class":"P","feature_code":"PPLA2","country_code":"RO","cc2":"","admin1_code":"18","admin2_code":"77509","admin3_code":"","admin4_code":"","population":"2185","elevation":"","dem":"130","timezone":"Europe/Bucharest","modification_date":"2012-06-12"},{"geonameid":"662767","name":"Vârghiş","asciiname":"Varghis","alternatenames":["Varghis","Vargyas","Virghis","Vârghiş","Vârghiș","Vîrghiş"],"latitude":"46.13333","longitude":"25.53333","feature_class":"P","feature_code":"PPLA2","country_code":"RO","cc2":"","admin1_code":"15","admin2_code":"64997","admin3_code":"","admin4_code":"","population":"1876","elevation":"","dem":"521","timezone":"Europe/Bucharest","modification_date":"2013-12-01"},{"geonameid":"662769","name":"Vârfurile","asciiname":"Varfurile","alternatenames":["Csucs","Csúcs","Varfurile","Virfurile","Vârfurile","Vîrfurile"],"latitude":"46.31667","longitude":"22.51667","feature_class":"P","feature_code":"PPLA2","country_code":"RO","cc2":"","admin1_code":"02","admin2_code":"12689","admin3_code":"","admin4_code":"","population":"3247","elevation":"","dem":"228","timezone":"Europe/Bucharest","modification_date":"2012-06-12"},{"geonameid":"662772","name":"Vârfuri","asciiname":"Varfuri","alternatenames":["Varfurile","Virfuri","Vârfurile","Vîrfuri"],"latitude":"45.1","longitude":"25.51667","feature_class":"P","feature_code":"PPLA2","country_code":"RO","cc2":"","admin1_code":"16","admin2_code":"69447","admin3_code":"","admin4_code":"","population":"2086","elevation":"","dem":"512","timezone":"Europe/Bucharest","modification_date":"2012-06-12"},{"geonameid":"662778","name":"Vârfu Câmpului","asciiname":"Varfu Campului","alternatenames":["Varful-Campului","Virfu Cimpului","Vârful-Câmpului","Vîrfu Cîmpului"],"latitude":"47.84566","longitude":"26.33056","feature_class":"P","feature_code":"PPLA2","country_code":"RO","cc2":"RO","admin1_code":"07","admin2_code":"39694","admin3_code":"","admin4_code":"","population":"2115","elevation":"","dem":"292","timezone":"Europe/Bucharest","modification_date":"2013-04-20"},{"geonameid":"662782","name":"Vârciorova","asciiname":"Varciorova","alternatenames":["Varciorova","Virciorova","Vârciorova","Vîrciorova"],"latitude":"45.3271","longitude":"22.35208","feature_class":"P","feature_code":"PPL","country_code":"RO","cc2":"RO","admin1_code":"12","admin2_code":"51546","admin3_code":"","admin4_code":"","population":"1112","elevation":"","dem":"381","timezone":"Europe/Bucharest","modification_date":"2013-04-20"},{"geonameid":"662785","name":"Vârciorog","asciiname":"Varciorog","alternatenames":["Varciorog","Virciorog","Vârciorog","Vîrciorog"],"latitude":"46.96667","longitude":"22.3","feature_class":"P","feature_code":"PPLA2","country_code":"RO","cc2":"","admin1_code":"05","admin2_code":"32090","admin3_code":"","admin4_code":"","population":"2314","elevation":"","dem":"379","timezone":"Europe/Bucharest","modification_date":"2012-06-12"},{"geonameid":"662787","name":"Vipereşti","asciiname":"Viperesti","alternatenames":["Viperesti","Vipereşti"],"latitude":"45.23333","longitude":"26.46667","feature_class":"P","feature_code":"PPLA2","country_code":"RO","cc2":"","admin1_code":"11","admin2_code":"50326","admin3_code":"","admin4_code":"","population":"3600","elevation":"","dem":"209","timezone":"Europe/Bucharest","modification_date":"2012-06-12"},{"geonameid":"662796","name":"Vintileasca","asciiname":"Vintileasca","alternatenames":["Vintileasca"],"latitude":"45.6","longitude":"26.73333","feature_class":"P","feature_code":"PPL","country_code":"RO","cc2":"","admin1_code":"40","admin2_code":"","admin3_code":"","admin4_code":"","population":"2155","elevation":"","dem":"658","timezone":"Europe/Bucharest","modification_date":"2014-07-08"},{"geonameid":"662799","name":"Vintileanca","asciiname":"Vintileanca","alternatenames":["Gageni-Vintileanca","Găgeni-Vintileanca","Vintileanca"],"latitude":"44.985","longitude":"26.58005","feature_class":"P","feature_code":"PPL","country_code":"RO","cc2":"RO","admin1_code":"11","admin2_code":"49153","admin3_code":"","admin4_code":"","population":"1024","elevation":"","dem":"82","timezone":"Europe/Bucharest","modification_date":"2013-04-20"},{"geonameid":"662801","name":"Vintilă Vodă","asciiname":"Vintila Voda","alternatenames":["Vintila Voda","Vintilă Vodă"],"latitude":"45.46667","longitude":"26.71667","feature_class":"P","feature_code":"PPLA2","country_code":"RO","cc2":"","admin1_code":"11","admin2_code":"50228","admin3_code":"","admin4_code":"","population":"3367","elevation":"","dem":"439","timezone":"Europe/Bucharest","modification_date":"2012-06-12"},{"geonameid":"662802","name":"Vintere","asciiname":"Vintere","alternatenames":[""],"latitude":"46.76883","longitude":"22.14652","feature_class":"P","feature_code":"PPL","country_code":"RO","cc2":"","admin1_code":"05","admin2_code":"29573","admin3_code":"","admin4_code":"","population":"1009","elevation":"","dem":"159","timezone":"Europe/Bucharest","modification_date":"2013-04-20"},{"geonameid":"662805","name":"Vânju-Mare","asciiname":"Vanju-Mare","alternatenames":["Vanju-Mare","Vanjul-Mare","Vinju Mare","Vânju-Mare","Vânjul-Mare","Vînju Mare"],"latitude":"44.42528","longitude":"22.86972","feature_class":"P","feature_code":"PPL","country_code":"RO","cc2":"","admin1_code":"26","admin2_code":"","admin3_code":"","admin4_code":"","population":"6740","elevation":"","dem":"101","timezone":"Europe/Bucharest","modification_date":"2012-01-18"},{"geonameid":"662807","name":"Vânjuleţ","asciiname":"Vanjulet","alternatenames":["Vanjulet","Vanjuletu","Vinjulet","Vânjuleţ","Vânjuleţu","Vînjuleţ"],"latitude":"44.44111","longitude":"22.7925","feature_class":"P","feature_code":"PPLA2","country_code":"RO","cc2":"","admin1_code":"26","admin2_code":"113894","admin3_code":"","admin4_code":"","population":"1894","elevation":"","dem":"91","timezone":"Europe/Bucharest","modification_date":"2012-06-12"},{"geonameid":"662811","name":"Vinga","asciiname":"Vinga","alternatenames":["Neu Winga","Theresiopel","Theresiopolis","Thereziopolis","Ujvinga","Vinga","Vinga Noua","Vinga Nouă","Winga","Winga an der Maresch","Újvinga"],"latitude":"46.01667","longitude":"21.2","feature_class":"P","feature_code":"PPLA2","country_code":"RO","cc2":"","admin1_code":"02","admin2_code":"12643","admin3_code":"","admin4_code":"","population":"6283","elevation":"","dem":"102","timezone":"Europe/Bucharest","modification_date":"2012-06-12"},{"geonameid":"662818","name":"Vinerea","asciiname":"Vinerea","alternatenames":[""],"latitude":"45.88632","longitude":"23.35289","feature_class":"P","feature_code":"PPL","country_code":"RO","cc2":"","admin1_code":"01","admin2_code":"1696","admin3_code":"","admin4_code":"","population":"2440","elevation":"","dem":"250","timezone":"Europe/Bucharest","modification_date":"2013-04-20"},{"geonameid":"662820","name":"Vinderei","asciiname":"Vinderei","alternatenames":["Vinderei"],"latitude":"46.15","longitude":"27.8","feature_class":"P","feature_code":"PPLA2","country_code":"RO","cc2":"","admin1_code":"38","admin2_code":"166770","admin3_code":"","admin4_code":"","population":"4716","elevation":"","dem":"239","timezone":"Europe/Bucharest","modification_date":"2012-06-12"},{"geonameid":"662822","name":"Vânători-Neamţ","asciiname":"Vanatori-Neamt","alternatenames":["Draguta","Drahutel","Drăguţa","Drăhutel","Schitu-Procov","Schitu-Sihlea","Schitu-Vovidenia","Schitul Sihlea","Todiriteni","Todiriţeni","Tudoriteni","Ungureni","Valea Drahutel","Valea Drăhuţel","Vanatori-Neamt","Vanatori-Neamtu","Vanatorii-Neamt","Vinatori-Neamt","Vânători-Neamţ","Vânători-Neamţu","Vânătorii-Neamţ","Vînători-Neamţ"],"latitude":"47.2","longitude":"26.31667","feature_class":"P","feature_code":"PPL","country_code":"RO","cc2":"","admin1_code":"00","admin2_code":"","admin3_code":"","admin4_code":"","population":"8707","elevation":"","dem":"445","timezone":"Europe/Bucharest","modification_date":"2012-06-03"},{"geonameid":"662824","name":"Vânătorii Mici","asciiname":"Vanatorii Mici","alternatenames":["Vanatorii Mici","Vinatorii Mici","Vânătorii Mici","Vînătorii Mici"],"latitude":"44.49028","longitude":"25.55889","feature_class":"P","feature_code":"PPLA2","country_code":"RO","cc2":"","admin1_code":"42","admin2_code":"105972","admin3_code":"","admin4_code":"","population":"4965","elevation":"","dem":"112","timezone":"Europe/Bucharest","modification_date":"2012-06-12"},{"geonameid":"662826","name":"Vânătorii Mari","asciiname":"Vanatorii Mari","alternatenames":["Vanatorii-Mari","Vinatorii Mari","Vânătorii-Mari","Vînătorii Mari"],"latitude":"44.48898","longitude":"25.54548","feature_class":"P","feature_code":"PPL","country_code":"RO","cc2":"RO","admin1_code":"42","admin2_code":"105972","admin3_code":"","admin4_code":"","population":"1482","elevation":"","dem":"126","timezone":"Europe/Bucharest","modification_date":"2013-04-20"},{"geonameid":"662836","name":"Vânători","asciiname":"Vanatori","alternatenames":["Stolniceni","Stolniceni-Ghitescu","Stolniceni-Ghiţescu","Vinatori","Vînători"],"latitude":"47.3598","longitude":"26.76423","feature_class":"P","feature_code":"PPLA2","country_code":"RO","cc2":"RO","admin1_code":"23","admin2_code":"100086","admin3_code":"","admin4_code":"","population":"1164","elevation":"","dem":"327","timezone":"Europe/Bucharest","modification_date":"2013-04-20"},{"geonameid":"662837","name":"Vânători","asciiname":"Vanatori","alternatenames":["Vanatori","Vinatori","Vînători"],"latitude":"47.23333","longitude":"27.53333","feature_class":"P","feature_code":"PPL","country_code":"RO","cc2":"","admin1_code":"00","admin2_code":"","admin3_code":"","admin4_code":"","population":"4782","elevation":"","dem":"69","timezone":"Europe/Bucharest","modification_date":"2012-06-03"},{"geonameid":"662839","name":"Vânători","asciiname":"Vanatori","alternatenames":["Vanatori","Vinatori","Vânători","Vînători"],"latitude":"46.62456","longitude":"21.67332","feature_class":"P","feature_code":"PPL","country_code":"RO","cc2":"RO","admin1_code":"02","admin2_code":"11423","admin3_code":"","admin4_code":"","population":"1180","elevation":"","dem":"96","timezone":"Europe/Bucharest","modification_date":"2013-04-20"},{"geonameid":"662840","name":"Vânători","asciiname":"Vanatori","alternatenames":["Hasfalau","Haşfalău","Vanator","Vanatori","Vinatori","Vânător","Vânători","Vînători"],"latitude":"46.23333","longitude":"24.93333","feature_class":"P","feature_code":"PPLA2","country_code":"RO","cc2":"","admin1_code":"27","admin2_code":"120254","admin3_code":"","admin4_code":"","population":"3702","elevation":"","dem":"445","timezone":"Europe/Bucharest","modification_date":"2012-06-12"},{"geonameid":"662841","name":"Vânători","asciiname":"Vanatori","alternatenames":["Vanatori","Vinatori","Vânători","Vînători"],"latitude":"45.73333","longitude":"27.25","feature_class":"P","feature_code":"PPLA2","country_code":"RO","cc2":"","admin1_code":"40","admin2_code":"178607","admin3_code":"","admin4_code":"","population":"5521","elevation":"","dem":"45","timezone":"Europe/Bucharest","modification_date":"2012-06-12"},{"geonameid":"662842","name":"Vânători","asciiname":"Vanatori","alternatenames":["Vanatori","Vinatori","Vânători","Vînători"],"latitude":"45.53333","longitude":"28.01667","feature_class":"P","feature_code":"PPLA2","country_code":"RO","cc2":"","admin1_code":"18","admin2_code":"75150","admin3_code":"","admin4_code":"","population":"4126","elevation":"","dem":"86","timezone":"Europe/Bucharest","modification_date":"2012-06-12"},{"geonameid":"662844","name":"Vânători","asciiname":"Vanatori","alternatenames":["Vanatori","Vinatori","Vânători","Vînători"],"latitude":"44.24278","longitude":"22.92889","feature_class":"P","feature_code":"PPLA2","country_code":"RO","cc2":"","admin1_code":"26","admin2_code":"113849","admin3_code":"","admin4_code":"","population":"4570","elevation":"","dem":"82","timezone":"Europe/Bucharest","modification_date":"2012-06-12"},{"geonameid":"662850","name":"Vima Mică","asciiname":"Vima Mica","alternatenames":[""],"latitude":"47.4","longitude":"23.71667","feature_class":"P","feature_code":"PPLA2","country_code":"RO","cc2":"","admin1_code":"25","admin2_code":"109425","admin3_code":"","admin4_code":"","population":"1621","elevation":"","dem":"459","timezone":"Europe/Bucharest","modification_date":"2012-06-12"},{"geonameid":"662862","name":"Vâlcelele de Sus","asciiname":"Valcelele de Sus","alternatenames":["Valcelele de Sus","Vilcelele de Sus","Vâlcelele de Sus","Vîlcelele de Sus"],"latitude":"44.28461","longitude":"24.55821","feature_class":"P","feature_code":"PPL","country_code":"RO","cc2":"RO","admin1_code":"29","admin2_code":"129987","admin3_code":"","admin4_code":"","population":"1062","elevation":"","dem":"152","timezone":"Europe/Bucharest","modification_date":"2013-04-20"},{"geonameid":"662874","name":"Vâlcelele","asciiname":"Valcelele","alternatenames":["Valcele","Valcelele","Vilcele","Vilcelele","Vâlcele","Vâlcelele","Vîlcele","Vîlcelele"],"latitude":"45.3443","longitude":"27.34937","feature_class":"P","feature_code":"PPLA2","country_code":"RO","cc2":"RO","admin1_code":"11","admin2_code":"50399","admin3_code":"","admin4_code":"","population":"1887","elevation":"","dem":"36","timezone":"Europe/Bucharest","modification_date":"2013-04-20"},{"geonameid":"662878","name":"Vâlcelele","asciiname":"Valcelele","alternatenames":["Crucea","Vilcelele","Vîlcelele"],"latitude":"44.38834","longitude":"27.15022","feature_class":"P","feature_code":"PPLA2","country_code":"RO","cc2":"RO","admin1_code":"41","admin2_code":"94731","admin3_code":"","admin4_code":"","population":"1434","elevation":"","dem":"42","timezone":"Europe/Bucharest","modification_date":"2013-04-20"},{"geonameid":"662881","name":"Vâlcele","asciiname":"Valcele","alternatenames":["Valcele","Vilcele","Vîlcele"],"latitude":"46.29801","longitude":"26.60005","feature_class":"P","feature_code":"PPLX","country_code":"RO","cc2":"RO","admin1_code":"04","admin2_code":"20965","admin3_code":"","admin4_code":"","population":"1272","elevation":"","dem":"327","timezone":"Europe/Bucharest","modification_date":"2013-04-20"},{"geonameid":"662884","name":"Vâlcele","asciiname":"Valcele","alternatenames":["Elopatak","Elöpatak","Valcele","Vâlcele"],"latitude":"45.85","longitude":"25.68333","feature_class":"P","feature_code":"PPLA2","country_code":"RO","cc2":"","admin1_code":"15","admin2_code":"64942","admin3_code":"","admin4_code":"","population":"3646","elevation":"","dem":"640","timezone":"Europe/Bucharest","modification_date":"2012-06-12"},{"geonameid":"662887","name":"Vâlcele","asciiname":"Valcele","alternatenames":["Valcelele","Vilcele","Vâlcelele","Vîlcele"],"latitude":"45.08333","longitude":"26.63333","feature_class":"P","feature_code":"PPL","country_code":"RO","cc2":"","admin1_code":"00","admin2_code":"","admin3_code":"","admin4_code":"","population":"1811","elevation":"","dem":"110","timezone":"Europe/Bucharest","modification_date":"2012-06-03"},{"geonameid":"662889","name":"Vâlcele","asciiname":"Valcele","alternatenames":["Valcelele de Jos","Vilcele","Vilcele de Jos","Vilcelele","Vâlcelele de Jos","Vîlcele","Vîlcele de Jos","Vîlcelele"],"latitude":"44.28263","longitude":"24.54376","feature_class":"P","feature_code":"PPL","country_code":"RO","cc2":"RO","admin1_code":"29","admin2_code":"129987","admin3_code":"","admin4_code":"","population":"1097","elevation":"","dem":"124","timezone":"Europe/Bucharest","modification_date":"2013-04-20"},{"geonameid":"662898","name":"Vâlcăneşti","asciiname":"Valcanesti","alternatenames":["Valcanesti","Vilcanesti","Vâlcăneşti","Vîlcăneşti"],"latitude":"45.11667","longitude":"25.93333","feature_class":"P","feature_code":"PPLA2","country_code":"RO","cc2":"RO","admin1_code":"30","admin2_code":"136198","admin3_code":"","admin4_code":"","population":"0","elevation":"","dem":"299","timezone":"Europe/Bucharest","modification_date":"2012-06-12"},{"geonameid":"662910","name":"Viișoara","asciiname":"Viisoara","alternatenames":[""],"latitude":"47.10332","longitude":"24.44949","feature_class":"P","feature_code":"PPLX","country_code":"RO","cc2":"","admin1_code":"06","admin2_code":"32394","admin3_code":"","admin4_code":"","population":"1120","elevation":"","dem":"337","timezone":"Europe/Bucharest","modification_date":"2013-04-20"},{"geonameid":"662914","name":"Viişoara","asciiname":"Viisoara","alternatenames":["Bivolu Mare","Bivolul-Mare","Viisoara","Viişoara"],"latitude":"48.16667","longitude":"26.73333","feature_class":"P","feature_code":"PPLA2","country_code":"RO","cc2":"","admin1_code":"07","admin2_code":"39658","admin3_code":"","admin4_code":"","population":"2298","elevation":"","dem":"147","timezone":"Europe/Bucharest","modification_date":"2012-06-12"},{"geonameid":"662917","name":"Viişoara","asciiname":"Viisoara","alternatenames":["Patal","Patal-Mare","Păţal","Păţal-Mare","Viisoara","Viişoara"],"latitude":"47.38333","longitude":"22.45","feature_class":"P","feature_code":"PPLA2","country_code":"RO","cc2":"","admin1_code":"05","admin2_code":"32045","admin3_code":"","admin4_code":"","population":"1344","elevation":"","dem":"207","timezone":"Europe/Bucharest","modification_date":"2012-06-12"},{"geonameid":"662918","name":"Viişoara","asciiname":"Viisoara","alternatenames":[""],"latitude":"46.93333","longitude":"26.23333","feature_class":"P","feature_code":"PPL","country_code":"RO","cc2":"","admin1_code":"28","admin2_code":"","admin3_code":"","admin4_code":"","population":"5014","elevation":"","dem":"347","timezone":"Europe/Bucharest","modification_date":"2014-07-08"},{"geonameid":"662920","name":"Viişoara","asciiname":"Viisoara","alternatenames":["Agirbiciu","Agîrbiciu","Viisoara","Viişoara"],"latitude":"46.55","longitude":"23.91667","feature_class":"P","feature_code":"PPLA2","country_code":"RO","cc2":"","admin1_code":"13","admin2_code":"60062","admin3_code":"","admin4_code":"","population":"5786","elevation":"","dem":"340","timezone":"Europe/Bucharest","modification_date":"2012-06-12"},{"geonameid":"662921","name":"Viişoara","asciiname":"Viisoara","alternatenames":["Basesti","Băseşti","Viisoara","Viişoara"],"latitude":"46.38333","longitude":"27.88333","feature_class":"P","feature_code":"PPLA2","country_code":"RO","cc2":"","admin1_code":"38","admin2_code":"166707","admin3_code":"","admin4_code":"","population":"3894","elevation":"","dem":"253","timezone":"Europe/Bucharest","modification_date":"2012-06-12"},{"geonameid":"662922","name":"Viișoara","asciiname":"Viisoara","alternatenames":[""],"latitude":"46.28325","longitude":"26.66187","feature_class":"P","feature_code":"PPL","country_code":"RO","cc2":"","admin1_code":"04","admin2_code":"25825","admin3_code":"","admin4_code":"","population":"1171","elevation":"","dem":"258","timezone":"Europe/Bucharest","modification_date":"2013-04-20"},{"geonameid":"662923","name":"Viişoara","asciiname":"Viisoara","alternatenames":["Hundorf","Viisoara","Viişoara"],"latitude":"46.28333","longitude":"24.6","feature_class":"P","feature_code":"PPLA2","country_code":"RO","cc2":"","admin1_code":"27","admin2_code":"120218","admin3_code":"","admin4_code":"","population":"1635","elevation":"","dem":"445","timezone":"Europe/Bucharest","modification_date":"2012-06-12"},{"geonameid":"662925","name":"Viișoara","asciiname":"Viisoara","alternatenames":["Bou","Boul","Viisoara","Viişoara"],"latitude":"46.0516","longitude":"27.09593","feature_class":"P","feature_code":"PPL","country_code":"RO","cc2":"RO","admin1_code":"40","admin2_code":"177236","admin3_code":"","admin4_code":"","population":"1010","elevation":"","dem":"299","timezone":"Europe/Bucharest","modification_date":"2013-04-20"},{"geonameid":"662928","name":"Viișoara","asciiname":"Viisoara","alternatenames":[""],"latitude":"44.88116","longitude":"25.4273","feature_class":"P","feature_code":"PPL","country_code":"RO","cc2":"","admin1_code":"16","admin2_code":"65501","admin3_code":"","admin4_code":"","population":"1196","elevation":"","dem":"261","timezone":"Europe/Bucharest","modification_date":"2013-04-20"},{"geonameid":"662931","name":"Viișoara","asciiname":"Viisoara","alternatenames":["Caceamac","Caciamac","Viisoara","Viişoara"],"latitude":"44.07758","longitude":"28.19424","feature_class":"P","feature_code":"PPL","country_code":"RO","cc2":"RO","admin1_code":"14","admin2_code":"61318","admin3_code":"","admin4_code":"","population":"1575","elevation":"","dem":"136","timezone":"Europe/Bucharest","modification_date":"2013-04-20"},{"geonameid":"662932","name":"Viişoara","asciiname":"Viisoara","alternatenames":[""],"latitude":"43.78333","longitude":"25.16667","feature_class":"P","feature_code":"PPLA2","country_code":"RO","cc2":"","admin1_code":"35","admin2_code":"154914","admin3_code":"","admin4_code":"","population":"2242","elevation":"","dem":"20","timezone":"Europe/Bucharest","modification_date":"2012-06-12"},{"geonameid":"662936","name":"Viile Satu Mare","asciiname":"Viile Satu Mare","alternatenames":["Viile","Viile Satu Mare","Viile-Satmarului","Viile-Sătmarului"],"latitude":"47.66667","longitude":"22.95","feature_class":"P","feature_code":"PPLA2","country_code":"RO","cc2":"","admin1_code":"32","admin2_code":"139394","admin3_code":"","admin4_code":"","population":"3178","elevation":"","dem":"162","timezone":"Europe/Bucharest","modification_date":"2012-06-12"},{"geonameid":"662942","name":"Viile","asciiname":"Viile","alternatenames":["Ignatesti","Ignăteşti","Viile"],"latitude":"45.80691","longitude":"27.94748","feature_class":"P","feature_code":"PPL","country_code":"RO","cc2":"RO","admin1_code":"18","admin2_code":"76255","admin3_code":"","admin4_code":"","population":"1731","elevation":"","dem":"24","timezone":"Europe/Bucharest","modification_date":"2013-04-20"},{"geonameid":"662943","name":"Viile","asciiname":"Viile","alternatenames":["Beilic","Viile"],"latitude":"44.162","longitude":"27.75769","feature_class":"P","feature_code":"PPL","country_code":"RO","cc2":"RO","admin1_code":"14","admin2_code":"61951","admin3_code":"","admin4_code":"","population":"1028","elevation":"","dem":"22","timezone":"Europe/Bucharest","modification_date":"2013-04-20"},{"geonameid":"662948","name":"Viforâta","asciiname":"Viforata","alternatenames":["Viforata","Viforita","Viforâta","Viforîta"],"latitude":"44.96011","longitude":"25.45796","feature_class":"P","feature_code":"PPL","country_code":"RO","cc2":"RO","admin1_code":"16","admin2_code":"65379","admin3_code":"","admin4_code":"","population":"2109","elevation":"","dem":"302","timezone":"Europe/Bucharest","modification_date":"2013-04-20"},{"geonameid":"662956","name":"Vieru","asciiname":"Vieru","alternatenames":["Vieru","Vierul"],"latitude":"43.88787","longitude":"25.80974","feature_class":"P","feature_code":"PPL","country_code":"RO","cc2":"RO","admin1_code":"42","admin2_code":"104715","admin3_code":"","admin4_code":"","population":"1019","elevation":"","dem":"30","timezone":"Europe/Bucharest","modification_date":"2013-04-20"},{"geonameid":"662957","name":"Vierșani","asciiname":"Viersani","alternatenames":[""],"latitude":"44.87875","longitude":"23.5312","feature_class":"P","feature_code":"PPL","country_code":"RO","cc2":"","admin1_code":"19","admin2_code":"80613","admin3_code":"","admin4_code":"","population":"1039","elevation":"","dem":"196","timezone":"Europe/Bucharest","modification_date":"2013-04-20"},{"geonameid":"662968","name":"Vidra","asciiname":"Vidra","alternatenames":["Vidra"],"latitude":"46.36758","longitude":"22.88811","feature_class":"P","feature_code":"PPLA2","country_code":"RO","cc2":"","admin1_code":"01","admin2_code":"8425","admin3_code":"","admin4_code":"","population":"65","elevation":"","dem":"642","timezone":"Europe/Bucharest","modification_date":"2013-04-20"},{"geonameid":"662970","name":"Vidra","asciiname":"Vidra","alternatenames":["Vidra","Vrancea"],"latitude":"45.91667","longitude":"26.9","feature_class":"P","feature_code":"PPLA2","country_code":"RO","cc2":"","admin1_code":"40","admin2_code":"178377","admin3_code":"","admin4_code":"","population":"7423","elevation":"","dem":"275","timezone":"Europe/Bucharest","modification_date":"2012-06-12"},{"geonameid":"662971","name":"Vidra","asciiname":"Vidra","alternatenames":[""],"latitude":"44.26056","longitude":"26.16972","feature_class":"P","feature_code":"PPLA2","country_code":"RO","cc2":"","admin1_code":"43","admin2_code":"105936","admin3_code":"","admin4_code":"","population":"8322","elevation":"","dem":"53","timezone":"Europe/Bucharest","modification_date":"2012-06-12"},{"geonameid":"662976","name":"Videle","asciiname":"Videle","alternatenames":["Vida","Vida Cirtojani","Vida Cîrtojani","Videle","Виделе"],"latitude":"44.27806","longitude":"25.52444","feature_class":"P","feature_code":"PPLA2","country_code":"RO","cc2":"","admin1_code":"35","admin2_code":"151905","admin3_code":"","admin4_code":"","population":"11813","elevation":"","dem":"104","timezone":"Europe/Bucharest","modification_date":"2012-06-12"},{"geonameid":"662979","name":"Victor Vlad Delamarina","asciiname":"Victor Vlad Delamarina","alternatenames":["Lugoskisfalu","Satu Mic","Szatulmik","Szatumik","Victor Vlad Delamarina"],"latitude":"45.64056","longitude":"21.89278","feature_class":"P","feature_code":"PPLA2","country_code":"RO","cc2":"","admin1_code":"36","admin2_code":"159259","admin3_code":"","admin4_code":"","population":"2879","elevation":"","dem":"139","timezone":"Europe/Bucharest","modification_date":"2012-06-12"},{"geonameid":"662984","name":"Victoria","asciiname":"Victoria","alternatenames":[""],"latitude":"47.61018","longitude":"27.1673","feature_class":"P","feature_code":"PPL","country_code":"RO","cc2":"","admin1_code":"07","admin2_code":"37734","admin3_code":"","admin4_code":"","population":"1380","elevation":"","dem":"100","timezone":"Europe/Bucharest","modification_date":"2013-04-20"},{"geonameid":"662985","name":"Victoria","asciiname":"Victoria","alternatenames":["Carpiti","Cirpiti","Cârpiţi","Cîrpiţi","Victoria"],"latitude":"47.28333","longitude":"27.58333","feature_class":"P","feature_code":"PPLA2","country_code":"RO","cc2":"","admin1_code":"23","admin2_code":"100004","admin3_code":"","admin4_code":"","population":"4305","elevation":"","dem":"103","timezone":"Europe/Bucharest","modification_date":"2012-06-12"},{"geonameid":"662986","name":"Victoria","asciiname":"Victoria","alternatenames":["Ucea","Victoria"],"latitude":"45.72968","longitude":"24.7028","feature_class":"P","feature_code":"PPLA2","country_code":"RO","cc2":"RO","admin1_code":"09","admin2_code":"40465","admin3_code":"","admin4_code":"","population":"10247","elevation":"","dem":"551","timezone":"Europe/Bucharest","modification_date":"2013-04-20"},{"geonameid":"662988","name":"Victoria","asciiname":"Victoria","alternatenames":[""],"latitude":"44.81667","longitude":"27.61667","feature_class":"P","feature_code":"PPLA2","country_code":"RO","cc2":"","admin1_code":"08","admin2_code":"44435","admin3_code":"","admin4_code":"","population":"3942","elevation":"","dem":"23","timezone":"Europe/Bucharest","modification_date":"2012-06-12"},{"geonameid":"662992","name":"Vicovu de Sus","asciiname":"Vicovu de Sus","alternatenames":["Vicovu de Sus","Vicovul-de-Sus"],"latitude":"47.93333","longitude":"25.68333","feature_class":"P","feature_code":"PPLA2","country_code":"RO","cc2":"","admin1_code":"34","admin2_code":"151095","admin3_code":"","admin4_code":"","population":"14077","elevation":"","dem":"460","timezone":"Europe/Bucharest","modification_date":"2012-06-12"},{"geonameid":"662994","name":"Vicovu de Jos","asciiname":"Vicovu de Jos","alternatenames":["Vicovu de Jos","Vicovul-de-Jos"],"latitude":"47.9","longitude":"25.73333","feature_class":"P","feature_code":"PPLA2","country_code":"RO","cc2":"","admin1_code":"34","admin2_code":"151077","admin3_code":"","admin4_code":"","population":"5956","elevation":"","dem":"438","timezone":"Europe/Bucharest","modification_date":"2012-06-12"},{"geonameid":"663008","name":"Veza","asciiname":"Veza","alternatenames":[""],"latitude":"46.16747","longitude":"23.9247","feature_class":"P","feature_code":"PPLX","country_code":"RO","cc2":"","admin1_code":"01","admin2_code":"1348","admin3_code":"","admin4_code":"","population":"1568","elevation":"","dem":"245","timezone":"Europe/Bucharest","modification_date":"2013-04-20"},{"geonameid":"663014","name":"Vetiş","asciiname":"Vetis","alternatenames":["Vetes","Vetis","Vetiş","Vetés"],"latitude":"47.8","longitude":"22.76667","feature_class":"P","feature_code":"PPLA2","country_code":"RO","cc2":"","admin1_code":"32","admin2_code":"139358","admin3_code":"","admin4_code":"","population":"4365","elevation":"","dem":"118","timezone":"Europe/Bucharest","modification_date":"2012-06-12"},{"geonameid":"663018","name":"Veţel","asciiname":"Vetel","alternatenames":["Vetel","Veţel"],"latitude":"45.9","longitude":"22.81667","feature_class":"P","feature_code":"PPLA2","country_code":"RO","cc2":"","admin1_code":"21","admin2_code":"91982","admin3_code":"","admin4_code":"","population":"2722","elevation":"","dem":"211","timezone":"Europe/Bucharest","modification_date":"2012-06-12"},{"geonameid":"663021","name":"Veţca","asciiname":"Vetca","alternatenames":["Szekeylveczke","Székeylveczke","Vetca","Veţca"],"latitude":"46.35","longitude":"24.78333","feature_class":"P","feature_code":"PPLA2","country_code":"RO","cc2":"","admin1_code":"27","admin2_code":"120174","admin3_code":"","admin4_code":"","population":"849","elevation":"","dem":"456","timezone":"Europe/Bucharest","modification_date":"2012-06-12"},{"geonameid":"663024","name":"Veștem","asciiname":"Vestem","alternatenames":[""],"latitude":"45.71752","longitude":"24.23958","feature_class":"P","feature_code":"PPL","country_code":"RO","cc2":"","admin1_code":"33","admin2_code":"143557","admin3_code":"","admin4_code":"","population":"1715","elevation":"","dem":"383","timezone":"Europe/Bucharest","modification_date":"2013-04-20"},{"geonameid":"663025","name":"Veseuș","asciiname":"Veseus","alternatenames":["Vesaus","Veseus","Veseuş","Vesăus"],"latitude":"46.27456","longitude":"24.14276","feature_class":"P","feature_code":"PPL","country_code":"RO","cc2":"RO","admin1_code":"01","admin2_code":"5103","admin3_code":"","admin4_code":"","population":"1047","elevation":"","dem":"294","timezone":"Europe/Bucharest","modification_date":"2013-04-20"},{"geonameid":"663032","name":"Verșești","asciiname":"Versesti","alternatenames":[""],"latitude":"46.44904","longitude":"26.70183","feature_class":"P","feature_code":"PPL","country_code":"RO","cc2":"","admin1_code":"04","admin2_code":"25148","admin3_code":"","admin4_code":"","population":"1029","elevation":"","dem":"280","timezone":"Europe/Bucharest","modification_date":"2013-04-20"},{"geonameid":"663033","name":"Verșeni","asciiname":"Verseni","alternatenames":[""],"latitude":"47.11294","longitude":"26.64341","feature_class":"P","feature_code":"PPL","country_code":"RO","cc2":"","admin1_code":"23","admin2_code":"98051","admin3_code":"","admin4_code":"","population":"1240","elevation":"","dem":"242","timezone":"Europe/Bucharest","modification_date":"2013-04-20"},{"geonameid":"663035","name":"Verneşti","asciiname":"Vernesti","alternatenames":["Vernesti","Verneşti"],"latitude":"45.21667","longitude":"26.73333","feature_class":"P","feature_code":"PPLA2","country_code":"RO","cc2":"","admin1_code":"11","admin2_code":"50102","admin3_code":"","admin4_code":"","population":"8603","elevation":"","dem":"121","timezone":"Europe/Bucharest","modification_date":"2012-06-12"},{"geonameid":"663038","name":"Vermești","asciiname":"Vermesti","alternatenames":["Vermesti","Vermeşti","Vernesti","Verneşti"],"latitude":"46.42172","longitude":"26.4766","feature_class":"P","feature_code":"PPLX","country_code":"RO","cc2":"RO","admin1_code":"04","admin2_code":"20821","admin3_code":"","admin4_code":"","population":"1970","elevation":"","dem":"409","timezone":"Europe/Bucharest","modification_date":"2013-04-20"},{"geonameid":"663040","name":"Vermeş","asciiname":"Vermes","alternatenames":["Krassovermes","Krassóvermes","Vermes","Vermeş","Vermus"],"latitude":"45.52056","longitude":"21.65972","feature_class":"P","feature_code":"PPLA2","country_code":"RO","cc2":"","admin1_code":"12","admin2_code":"54537","admin3_code":"","admin4_code":"","population":"1705","elevation":"","dem":"136","timezone":"Europe/Bucharest","modification_date":"2012-06-12"},{"geonameid":"663042","name":"Verguleasa","asciiname":"Verguleasa","alternatenames":["Verguleasa"],"latitude":"44.65","longitude":"24.31667","feature_class":"P","feature_code":"PPLA2","country_code":"RO","cc2":"","admin1_code":"29","admin2_code":"129816","admin3_code":"","admin4_code":"","population":"3439","elevation":"","dem":"142","timezone":"Europe/Bucharest","modification_date":"2012-06-12"},{"geonameid":"663045","name":"Vereşti","asciiname":"Veresti","alternatenames":["Ion Gheorghe Duca","Veresti","Vereşti"],"latitude":"47.6","longitude":"26.43333","feature_class":"P","feature_code":"PPLA2","country_code":"RO","cc2":"","admin1_code":"34","admin2_code":"151022","admin3_code":"","admin4_code":"","population":"7089","elevation":"","dem":"246","timezone":"Europe/Bucharest","modification_date":"2012-06-12"},{"geonameid":"663048","name":"Verendin","asciiname":"Verendin","alternatenames":[""],"latitude":"45.07755","longitude":"22.23917","feature_class":"P","feature_code":"PPL","country_code":"RO","cc2":"","admin1_code":"12","admin2_code":"53130","admin3_code":"","admin4_code":"","population":"2016","elevation":"","dem":"507","timezone":"Europe/Bucharest","modification_date":"2013-04-20"},{"geonameid":"663058","name":"Verbiţa","asciiname":"Verbita","alternatenames":["Verbita","Verbiţa"],"latitude":"44.3","longitude":"23.16667","feature_class":"P","feature_code":"PPLA2","country_code":"RO","cc2":"","admin1_code":"17","admin2_code":"74705","admin3_code":"","admin4_code":"","population":"1583","elevation":"","dem":"220","timezone":"Europe/Bucharest","modification_date":"2012-06-12"},{"geonameid":"663078","name":"Vela","asciiname":"Vela","alternatenames":["Vela","Vella"],"latitude":"44.28333","longitude":"23.41667","feature_class":"P","feature_code":"PPLA2","country_code":"RO","cc2":"","admin1_code":"17","admin2_code":"74616","admin3_code":"","admin4_code":"","population":"2211","elevation":"","dem":"191","timezone":"Europe/Bucharest","modification_date":"2012-06-12"},{"geonameid":"663086","name":"Vedea","asciiname":"Vedea","alternatenames":["Gera Boului","Gura-Boului","Vedea"],"latitude":"44.78333","longitude":"24.61667","feature_class":"P","feature_code":"PPLA2","country_code":"RO","cc2":"","admin1_code":"03","admin2_code":"19793","admin3_code":"","admin4_code":"","population":"4243","elevation":"","dem":"298","timezone":"Europe/Bucharest","modification_date":"2012-06-12"},{"geonameid":"663087","name":"Vedea","asciiname":"Vedea","alternatenames":["Goala","Vedea"],"latitude":"44.08333","longitude":"25.06667","feature_class":"P","feature_code":"PPLA2","country_code":"RO","cc2":"","admin1_code":"35","admin2_code":"154852","admin3_code":"","admin4_code":"","population":"3108","elevation":"","dem":"71","timezone":"Europe/Bucharest","modification_date":"2012-06-12"},{"geonameid":"663088","name":"Vedea","asciiname":"Vedea","alternatenames":["Arsache","Vedea"],"latitude":"43.78333","longitude":"25.78333","feature_class":"P","feature_code":"PPLA2","country_code":"RO","cc2":"","admin1_code":"42","admin2_code":"105909","admin3_code":"","admin4_code":"","population":"5785","elevation":"","dem":"27","timezone":"Europe/Bucharest","modification_date":"2012-06-12"},{"geonameid":"663098","name":"Vatra Moldoviţei","asciiname":"Vatra Moldovitei","alternatenames":["Vatra Moldovitei","Vatra Moldoviţei"],"latitude":"47.65","longitude":"25.56667","feature_class":"P","feature_code":"PPLA2","country_code":"RO","cc2":"","admin1_code":"34","admin2_code":"150980","admin3_code":"","admin4_code":"","population":"4653","elevation":"","dem":"613","timezone":"Europe/Bucharest","modification_date":"2012-06-12"},{"geonameid":"663100","name":"Vatra Dornei","asciiname":"Vatra Dornei","alternatenames":["Dorna Vatra","Dornavatra","Dornavátra","Vatra Dornei"],"latitude":"47.35","longitude":"25.36667","feature_class":"P","feature_code":"PPLA2","country_code":"RO","cc2":"","admin1_code":"34","admin2_code":"146744","admin3_code":"","admin4_code":"","population":"16054","elevation":"","dem":"814","timezone":"Europe/Bucharest","modification_date":"2014-01-19"},{"geonameid":"663105","name":"Vătava","asciiname":"Vatava","alternatenames":["Felsorepa","Felsörèpa","Vatava","Vătava"],"latitude":"46.96667","longitude":"24.76667","feature_class":"P","feature_code":"PPLA2","country_code":"RO","cc2":"","admin1_code":"27","admin2_code":"120138","admin3_code":"","admin4_code":"","population":"2099","elevation":"","dem":"635","timezone":"Europe/Bucharest","modification_date":"2012-06-12"},{"geonameid":"663111","name":"Vaţa de Jos","asciiname":"Vata de Jos","alternatenames":["Alvaca","Alváca","Vata de Jos","Vaţa de Jos"],"latitude":"46.18333","longitude":"22.6","feature_class":"P","feature_code":"PPL","country_code":"RO","cc2":"","admin1_code":"21","admin2_code":"","admin3_code":"","admin4_code":"","population":"4239","elevation":"","dem":"228","timezone":"Europe/Bucharest","modification_date":"2014-07-08"},{"geonameid":"663118","name":"Vaslui","asciiname":"Vaslui","alternatenames":["Vasloui","Vaslui","Vasluiul","Vasluj","Vaslujus","Vaszlo","Vászló","baseullu-i","faslwy","vu~asurui","wa si lu yi","waslwyy","wslwy","wzlw","Βασλούι","Васлуй","Васлуј","וסלוי","فاسلوي","واسلوئی","وزلو","ヴァスルイ","瓦斯盧伊","바슬루이"],"latitude":"46.63333","longitude":"27.73333","feature_class":"P","feature_code":"PPLA","country_code":"RO","cc2":"","admin1_code":"38","admin2_code":"","admin3_code":"","admin4_code":"","population":"69225","elevation":"","dem":"96","timezone":"Europe/Bucharest","modification_date":"2012-01-18"},{"geonameid":"663128","name":"Vasilaţi","asciiname":"Vasilati","alternatenames":["Vasilati","Vasilatii","Vasilatii-Poporul","Vasilaţi","Vasilaţii","Vasilaţii-Poporul"],"latitude":"44.28778","longitude":"26.4475","feature_class":"P","feature_code":"PPLA2","country_code":"RO","cc2":"","admin1_code":"41","admin2_code":"105829","admin3_code":"","admin4_code":"","population":"7840","elevation":"","dem":"43","timezone":"Europe/Bucharest","modification_date":"2012-06-12"},{"geonameid":"663135","name":"Vaşcău","asciiname":"Vascau","alternatenames":["Korosbarafalva","Körösbarafalva","Vascau","Vaskoh","Vaşcău"],"latitude":"46.46667","longitude":"22.46667","feature_class":"P","feature_code":"PPL","country_code":"RO","cc2":"","admin1_code":"05","admin2_code":"","admin3_code":"","admin4_code":"","population":"2722","elevation":"","dem":"448","timezone":"Europe/Bucharest","modification_date":"2013-12-11"},{"geonameid":"663139","name":"Vășad","asciiname":"Vasad","alternatenames":[""],"latitude":"47.5186","longitude":"22.2566","feature_class":"P","feature_code":"PPL","country_code":"RO","cc2":"","admin1_code":"05","admin2_code":"29001","admin3_code":"","admin4_code":"","population":"1078","elevation":"","dem":"123","timezone":"Europe/Bucharest","modification_date":"2013-04-20"},{"geonameid":"663158","name":"Vărşag","asciiname":"Varsag","alternatenames":["Szekelyvarsag","Székelyvarság","Varsag","Virsag","Vîrşag","Vărşag"],"latitude":"46.51667","longitude":"25.35","feature_class":"P","feature_code":"PPLA2","country_code":"RO","cc2":"","admin1_code":"20","admin2_code":"86311","admin3_code":"","admin4_code":"","population":"1493","elevation":"","dem":"818","timezone":"Europe/Bucharest","modification_date":"2014-06-04"},{"geonameid":"663163","name":"Varnița","asciiname":"Varnita","alternatenames":[""],"latitude":"44.80679","longitude":"25.9453","feature_class":"P","feature_code":"PPL","country_code":"RO","cc2":"","admin1_code":"30","admin2_code":"135431","admin3_code":"","admin4_code":"","population":"1092","elevation":"","dem":"139","timezone":"Europe/Bucharest","modification_date":"2013-04-20"},{"geonameid":"663171","name":"Variaş","asciiname":"Varias","alternatenames":["Varias","Variaş","Varjas","Warjasch"],"latitude":"46.01667","longitude":"20.95","feature_class":"P","feature_code":"PPLA2","country_code":"RO","cc2":"","admin1_code":"36","admin2_code":"159213","admin3_code":"","admin4_code":"","population":"6054","elevation":"","dem":"87","timezone":"Europe/Bucharest","modification_date":"2012-06-12"},{"geonameid":"663173","name":"Vărgata","asciiname":"Vargata","alternatenames":["Csikfalva","Vargata","Vărgata"],"latitude":"46.56667","longitude":"24.8","feature_class":"P","feature_code":"PPLA2","country_code":"RO","cc2":"","admin1_code":"27","admin2_code":"120076","admin3_code":"","admin4_code":"","population":"1976","elevation":"","dem":"363","timezone":"Europe/Bucharest","modification_date":"2012-06-12"},{"geonameid":"663178","name":"Vărbilău","asciiname":"Varbilau","alternatenames":[""],"latitude":"45.18333","longitude":"25.95","feature_class":"P","feature_code":"PPLA2","country_code":"RO","cc2":"","admin1_code":"30","admin2_code":"136134","admin3_code":"","admin4_code":"","population":"7084","elevation":"","dem":"394","timezone":"Europe/Bucharest","modification_date":"2012-06-12"},{"geonameid":"663181","name":"Vărbila","asciiname":"Varbila","alternatenames":[""],"latitude":"45.04654","longitude":"26.19691","feature_class":"P","feature_code":"PPL","country_code":"RO","cc2":"","admin1_code":"30","admin2_code":"133722","admin3_code":"","admin4_code":"","population":"1407","elevation":"","dem":"191","timezone":"Europe/Bucharest","modification_date":"2013-04-20"},{"geonameid":"663191","name":"Văratec","asciiname":"Varatec","alternatenames":[""],"latitude":"47.63988","longitude":"26.40312","feature_class":"P","feature_code":"PPL","country_code":"RO","cc2":"","admin1_code":"34","admin2_code":"146370","admin3_code":"","admin4_code":"","population":"1428","elevation":"","dem":"322","timezone":"Europe/Bucharest","modification_date":"2013-04-20"},{"geonameid":"663197","name":"Vărăşti","asciiname":"Varasti","alternatenames":["Varasti","Varastii","Vărăşti","Vărăştii"],"latitude":"44.23778","longitude":"26.24861","feature_class":"P","feature_code":"PPLA2","country_code":"RO","cc2":"","admin1_code":"42","admin2_code":"105874","admin3_code":"","admin4_code":"","population":"6412","elevation":"","dem":"51","timezone":"Europe/Bucharest","modification_date":"2012-06-12"},{"geonameid":"663198","name":"Vărăști","asciiname":"Varasti","alternatenames":[""],"latitude":"44.21244","longitude":"26.97188","feature_class":"P","feature_code":"PPL","country_code":"RO","cc2":"","admin1_code":"41","admin2_code":"93441","admin3_code":"","admin4_code":"","population":"1289","elevation":"","dem":"21","timezone":"Europe/Bucharest","modification_date":"2013-04-20"},