{"country_data":{"ISO":"TO","ISO3":"TON","ISO_Numeric":"776","fips":"TN","country":"Tonga","capital":"Nuku'alofa","area":"748","Population":"122580","Continent":"OC","tld":".to","CurrencyCode":"TOP","CurrencyName":"Pa'anga","Phone":"676","Postal_Code_Format":"","Postal_Code_Regex":"","Languages":"to,en-TO","geonameid":"4032283","neighbours":"","EquivalentFipsCode":""},"cities":[{"geonameid":"4032243","name":"Vaini","asciiname":"Vaini","alternatenames":[""],"latitude":"-21.19292","longitude":"-175.17678","feature_class":"P","feature_code":"PPL","country_code":"TO","cc2":"","admin1_code":"02","admin2_code":"","admin3_code":"","admin4_code":"","population":"2976","elevation":"","dem":"9","timezone":"Pacific/Tongatapu","modification_date":"2013-05-07"},{"geonameid":"4032369","name":"Pangai","asciiname":"Pangai","alternatenames":["Bagai","Bangai","Pangai"],"latitude":"-19.81468","longitude":"-174.35423","feature_class":"P","feature_code":"PPLA","country_code":"TO","cc2":"","admin1_code":"01","admin2_code":"","admin3_code":"","admin4_code":"","population":"1738","elevation":"","dem":"6","timezone":"Pacific/Tongatapu","modification_date":"2013-06-30"},{"geonameid":"4032384","name":"‘Ohonua","asciiname":"`Ohonua","alternatenames":[""],"latitude":"-21.33333","longitude":"-174.95","feature_class":"P","feature_code":"PPLA","country_code":"TO","cc2":"","admin1_code":"EU","admin2_code":"","admin3_code":"","admin4_code":"","population":"1241","elevation":"","dem":"13","timezone":"Pacific/Tongatapu","modification_date":"2013-05-05"},{"geonameid":"4032402","name":"Nuku‘alofa","asciiname":"Nuku'alofa","alternatenames":["Niukalofa","Noukoualopha","Nucualofa","Nukalofa","Nuku'alofa","Nuku`alofa","Nuku`aloia","Nukualofa","Nukuʻalofa","Nuku‘alofa","Nuku‘aloia","Nuku’alofa","nu ku a luo fa","nu kuxalofa","nukuallopa","nukuarofa","Νουκουαλόφα","Нукуалофа","נוקואלופה","นูกูอะโลฟา","ኑኩአሎፋ","ヌクアロファ","努库阿洛法","努庫阿洛發","누쿠알로파"],"latitude":"-21.13938","longitude":"-175.2018","feature_class":"P","feature_code":"PPLC","country_code":"TO","cc2":"","admin1_code":"02","admin2_code":"","admin3_code":"","admin4_code":"","population":"22400","elevation":"","dem":"5","timezone":"Pacific/Tongatapu","modification_date":"2014-04-03"},{"geonameid":"4032420","name":"Neiafu","asciiname":"Neiafu","alternatenames":["Neafu","Nei-afo","Neiafu"],"latitude":"-18.65","longitude":"-173.98333","feature_class":"P","feature_code":"PPLA","country_code":"TO","cc2":"","admin1_code":"03","admin2_code":"","admin3_code":"","admin4_code":"","population":"4320","elevation":"","dem":"19","timezone":"Pacific/Tongatapu","modification_date":"2014-08-19"},{"geonameid":"4032619","name":"Hihifo","asciiname":"Hihifo","alternatenames":[""],"latitude":"-15.9544","longitude":"-173.79616","feature_class":"P","feature_code":"PPLA","country_code":"TO","cc2":"","admin1_code":"NI","admin2_code":"","admin3_code":"","admin4_code":"","population":"815","elevation":"","dem":"6","timezone":"Pacific/Tongatapu","modification_date":"2013-05-05"},{"geonameid":"4032623","name":"Haveluloto","asciiname":"Haveluloto","alternatenames":["Havelu","Haveluloto"],"latitude":"-21.15216","longitude":"-175.21333","feature_class":"P","feature_code":"PPL","country_code":"TO","cc2":"","admin1_code":"02","admin2_code":"","admin3_code":"","admin4_code":"","population":"3417","elevation":"","dem":"5","timezone":"Pacific/Tongatapu","modification_date":"2013-05-07"},{"geonameid":"4032369","name":"Pangai","asciiname":"Pangai","alternatenames":["Bagai","Bangai","Pangai"],"latitude":"-19.81468","longitude":"-174.35423","feature_class":"P","feature_code":"PPLA","country_code":"TO","cc2":"","admin1_code":"01","admin2_code":"","admin3_code":"","admin4_code":"","population":"1738","elevation":"","dem":"6","timezone":"Pacific/Tongatapu","modification_date":"2013-06-30"},{"geonameid":"4032384","name":"‘Ohonua","asciiname":"`Ohonua","alternatenames":[""],"latitude":"-21.33333","longitude":"-174.95","feature_class":"P","feature_code":"PPLA","country_code":"TO","cc2":"","admin1_code":"EU","admin2_code":"","admin3_code":"","admin4_code":"","population":"1241","elevation":"","dem":"13","timezone":"Pacific/Tongatapu","modification_date":"2013-05-05"},{"geonameid":"4032402","name":"Nuku‘alofa","asciiname":"Nuku'alofa","alternatenames":["Niukalofa","Noukoualopha","Nucualofa","Nukalofa","Nuku'alofa","Nuku`alofa","Nuku`aloia","Nukualofa","Nukuʻalofa","Nuku‘alofa","Nuku‘aloia","Nuku’alofa","nu ku a luo fa","nu kuxalofa","nukuallopa","nukuarofa","Νουκουαλόφα","Нукуалофа","נוקואלופה","นูกูอะโลฟา","ኑኩአሎፋ","ヌクアロファ","努库阿洛法","努庫阿洛發","누쿠알로파"],"latitude":"-21.13938","longitude":"-175.2018","feature_class":"P","feature_code":"PPLC","country_code":"TO","cc2":"","admin1_code":"02","admin2_code":"","admin3_code":"","admin4_code":"","population":"22400","elevation":"","dem":"5","timezone":"Pacific/Tongatapu","modification_date":"2014-04-03"},{"geonameid":"4032420","name":"Neiafu","asciiname":"Neiafu","alternatenames":["Neafu","Nei-afo","Neiafu"],"latitude":"-18.65","longitude":"-173.98333","feature_class":"P","feature_code":"PPLA","country_code":"TO","cc2":"","admin1_code":"03","admin2_code":"","admin3_code":"","admin4_code":"","population":"4320","elevation":"","dem":"19","timezone":"Pacific/Tongatapu","modification_date":"2014-08-19"},{"geonameid":"4032619","name":"Hihifo","asciiname":"Hihifo","alternatenames":[""],"latitude":"-15.9544","longitude":"-173.79616","feature_class":"P","feature_code":"PPLA","country_code":"TO","cc2":"","admin1_code":"NI","admin2_code":"","admin3_code":"","admin4_code":"","population":"815","elevation":"","dem":"6","timezone":"Pacific/Tongatapu","modification_date":"2013-05-05"},{"geonameid":"4032402","name":"Nuku‘alofa","asciiname":"Nuku'alofa","alternatenames":["Niukalofa","Noukoualopha","Nucualofa","Nukalofa","Nuku'alofa","Nuku`alofa","Nuku`aloia","Nukualofa","Nukuʻalofa","Nuku‘alofa","Nuku‘aloia","Nuku’alofa","nu ku a luo fa","nu kuxalofa","nukuallopa","nukuarofa","Νουκουαλόφα","Нукуалофа","נוקואלופה","นูกูอะโลฟา","ኑኩአሎፋ","ヌクアロファ","努库阿洛法","努庫阿洛發","누쿠알로파"],"latitude":"-21.13938","longitude":"-175.2018","feature_class":"P","feature_code":"PPLC","country_code":"TO","cc2":"","admin1_code":"02","admin2_code":"","admin3_code":"","admin4_code":"","population":"22400","elevation":"","dem":"5","timezone":"Pacific/Tongatapu","modification_date":"2014-04-03"}]}