{"country_data":{"ISO":"TR","ISO3":"TUR","ISO_Numeric":"792","fips":"TU","country":"Turkey","capital":"Ankara","area":"780580","Population":"77804122","Continent":"AS","tld":".tr","CurrencyCode":"TRY","CurrencyName":"Lira","Phone":"90","Postal_Code_Format":"#####","Postal_Code_Regex":"^(\\d{5})$","Languages":"tr-TR,ku,diq,az,av","geonameid":"298795","neighbours":"SY,GE,IQ,IR,GR,AM,AZ,BG","EquivalentFipsCode":""},"cities":[{"geonameid":"295781","name":"Demre","asciiname":"Demre","alternatenames":["Demre","Eynihal","Gokyazi","Gökyazı","Kale","Zumrutkaya","Zümrütkaya","Кале"],"latitude":"36.24444","longitude":"29.985","feature_class":"P","feature_code":"PPLA2","country_code":"TR","cc2":"","admin1_code":"07","admin2_code":"","admin3_code":"","admin4_code":"","population":"14420","elevation":"","dem":"9","timezone":"Europe/Istanbul","modification_date":"2012-01-18"},{"geonameid":"295907","name":"Zeytinliova","asciiname":"Zeytinliova","alternatenames":["Palamut","Yavakoy","Yavaköy","Yayakoy","Yayaköy","Zeytinliova"],"latitude":"38.99118","longitude":"27.67635","feature_class":"P","feature_code":"PPLA3","country_code":"TR","cc2":"","admin1_code":"45","admin2_code":"","admin3_code":"","admin4_code":"","population":"4905","elevation":"","dem":"236","timezone":"Europe/Istanbul","modification_date":"2015-02-07"},{"geonameid":"295921","name":"Zeytindağ","asciiname":"Zeytindag","alternatenames":["Resadiye","Reşadiye","Zeytindag","Zeytindağ"],"latitude":"38.96722","longitude":"27.07222","feature_class":"P","feature_code":"PPLA3","country_code":"TR","cc2":"","admin1_code":"35","admin2_code":"","admin3_code":"","admin4_code":"","population":"3192","elevation":"","dem":"132","timezone":"Europe/Istanbul","modification_date":"2013-09-08"},{"geonameid":"295982","name":"Zara","asciiname":"Zara","alternatenames":["Kocgiri","Koçgiri","Zara"],"latitude":"39.89778","longitude":"37.75833","feature_class":"P","feature_code":"PPLA2","country_code":"TR","cc2":"","admin1_code":"58","admin2_code":"","admin3_code":"","admin4_code":"","population":"12797","elevation":"","dem":"1342","timezone":"Europe/Istanbul","modification_date":"2012-01-18"},{"geonameid":"296134","name":"Yunak","asciiname":"Yunak","alternatenames":["Yunak"],"latitude":"38.81418","longitude":"31.73223","feature_class":"P","feature_code":"PPLA2","country_code":"TR","cc2":"","admin1_code":"71","admin2_code":"","admin3_code":"","admin4_code":"","population":"14050","elevation":"","dem":"1088","timezone":"Europe/Istanbul","modification_date":"2012-01-18"},{"geonameid":"296137","name":"Yumurtalık","asciiname":"Yumurtalik","alternatenames":["Aegoe","Ayas","Yumurtalik","Yumurtalık"],"latitude":"36.77386","longitude":"35.79297","feature_class":"P","feature_code":"PPLA2","country_code":"TR","cc2":"","admin1_code":"81","admin2_code":"","admin3_code":"","admin4_code":"","population":"0","elevation":"","dem":"18","timezone":"Europe/Istanbul","modification_date":"2013-08-06"},{"geonameid":"296138","name":"Yumurtalık","asciiname":"Yumurtalik","alternatenames":["Vimourtalic","Yumurtalik","Yumurtalık"],"latitude":"36.76667","longitude":"35.78333","feature_class":"P","feature_code":"PPL","country_code":"TR","cc2":"","admin1_code":"00","admin2_code":"","admin3_code":"","admin4_code":"","population":"5388","elevation":"","dem":"-9999","timezone":"Europe/Istanbul","modification_date":"2010-08-10"},{"geonameid":"296173","name":"Yüksekova","asciiname":"Yuksekova","alternatenames":["Dize","YKO","Yueksekova","Yuksekova","Yusekova","Yüksekova","Yüsekova"],"latitude":"37.57362","longitude":"44.28716","feature_class":"P","feature_code":"PPLA2","country_code":"TR","cc2":"","admin1_code":"70","admin2_code":"","admin3_code":"","admin4_code":"","population":"71729","elevation":"","dem":"1874","timezone":"Europe/Istanbul","modification_date":"2013-08-05"},{"geonameid":"296247","name":"Salat","asciiname":"Salat","alternatenames":["Salat","Salatiulya","Sinan","Yukarisalat","Yukary-Salat","Yukarısalat"],"latitude":"37.84","longitude":"40.89417","feature_class":"P","feature_code":"PPLA3","country_code":"TR","cc2":"","admin1_code":"21","admin2_code":"","admin3_code":"","admin4_code":"","population":"6677","elevation":"","dem":"532","timezone":"Europe/Istanbul","modification_date":"2013-09-08"},{"geonameid":"296509","name":"Kozak","asciiname":"Kozak","alternatenames":["Kozak","Yukaribey","Yukarıbey"],"latitude":"39.25124","longitude":"27.09021","feature_class":"P","feature_code":"PPLA3","country_code":"TR","cc2":"","admin1_code":"35","admin2_code":"","admin3_code":"","admin4_code":"","population":"0","elevation":"","dem":"500","timezone":"Europe/Istanbul","modification_date":"2015-01-07"},{"geonameid":"296555","name":"Yücebağ","asciiname":"Yucebag","alternatenames":["Yucebag","Yücebağ"],"latitude":"38.39367","longitude":"41.26713","feature_class":"P","feature_code":"PPLA3","country_code":"TR","cc2":"","admin1_code":"76","admin2_code":"","admin3_code":"","admin4_code":"","population":"0","elevation":"","dem":"1079","timezone":"Europe/Istanbul","modification_date":"2015-02-07"},{"geonameid":"296562","name":"Yozgat","asciiname":"Yozgat","alternatenames":["Gioznkat","Jozgat","Jozgatas","Saralus","Yozgad","Yozgat","Yozqat","Yuzgat","yojeugateu","yozugato","yue zi jia te","ywzgat","ywzghat","Γιοζγκάτ","Йозгат","يوزغات","یوزگات","ヨズガト","約茲加特","요즈가트"],"latitude":"39.82","longitude":"34.80444","feature_class":"P","feature_code":"PPLA","country_code":"TR","cc2":"","admin1_code":"66","admin2_code":"","admin3_code":"","admin4_code":"","population":"87881","elevation":"","dem":"1290","timezone":"Europe/Istanbul","modification_date":"2012-01-18"},{"geonameid":"296594","name":"Yoncalı","asciiname":"Yoncali","alternatenames":["Birik","Sotik","Yoncali","Yoncalı","Şotik"],"latitude":"39.00913","longitude":"38.2532","feature_class":"P","feature_code":"PPLA3","country_code":"TR","cc2":"","admin1_code":"44","admin2_code":"","admin3_code":"","admin4_code":"","population":"0","elevation":"","dem":"1329","timezone":"Europe/Istanbul","modification_date":"2013-09-08"},{"geonameid":"296639","name":"Yolboyu","asciiname":"Yolboyu","alternatenames":["Kirgali","Kirkali","Kırgalı","Kırkali","Pirinclik","Pirinçlik","Yolboyu"],"latitude":"37.89764","longitude":"40.00086","feature_class":"P","feature_code":"PPLA3","country_code":"TR","cc2":"","admin1_code":"21","admin2_code":"","admin3_code":"","admin4_code":"","population":"0","elevation":"","dem":"846","timezone":"Europe/Istanbul","modification_date":"2015-02-07"},{"geonameid":"296644","name":"Yolbaşı","asciiname":"Yolbasi","alternatenames":["Keferallap","Yolbasi","Yolbaşı"],"latitude":"37.38892","longitude":"41.31713","feature_class":"P","feature_code":"PPL","country_code":"TR","cc2":"","admin1_code":"72","admin2_code":"","admin3_code":"","admin4_code":"","population":"5400","elevation":"","dem":"936","timezone":"Europe/Istanbul","modification_date":"2012-01-18"},{"geonameid":"296653","name":"Yolağzı","asciiname":"Yolagzi","alternatenames":["Derindip","Dirindip","Yolagzi","Yolağzı"],"latitude":"37.52484","longitude":"41.35357","feature_class":"P","feature_code":"PPL","country_code":"TR","cc2":"","admin1_code":"76","admin2_code":"","admin3_code":"","admin4_code":"","population":"2600","elevation":"","dem":"1036","timezone":"Europe/Istanbul","modification_date":"2012-01-18"},{"geonameid":"296684","name":"Yoğun","asciiname":"Yogun","alternatenames":["Yogun","Yoğun"],"latitude":"38.03405","longitude":"39.45269","feature_class":"P","feature_code":"PPLA3","country_code":"TR","cc2":"","admin1_code":"21","admin2_code":"","admin3_code":"","admin4_code":"","population":"0","elevation":"","dem":"715","timezone":"Europe/Istanbul","modification_date":"2013-09-08"},{"geonameid":"296708","name":"Yıldızeli","asciiname":"Yildizeli","alternatenames":["Yenihan","Yildizeli","Yıldızeli"],"latitude":"39.86639","longitude":"36.59889","feature_class":"P","feature_code":"PPLA2","country_code":"TR","cc2":"","admin1_code":"58","admin2_code":"","admin3_code":"","admin4_code":"","population":"0","elevation":"","dem":"1365","timezone":"Europe/Istanbul","modification_date":"2012-01-18"},{"geonameid":"296757","name":"Yiğityolu","asciiname":"Yigityolu","alternatenames":["Karbeyaz","Karbeyaz Bucagi","Karbeyaz Bucağı","Yigityolu","Yiğityolu"],"latitude":"35.99563","longitude":"36.26004","feature_class":"P","feature_code":"PPLA3","country_code":"TR","cc2":"","admin1_code":"31","admin2_code":"","admin3_code":"","admin4_code":"","population":"0","elevation":"","dem":"625","timezone":"Europe/Istanbul","modification_date":"2014-10-01"},{"geonameid":"296761","name":"Yiğitler","asciiname":"Yigitler","alternatenames":["Yigitaliler","Yigitler","Yiğitaliler","Yiğitler"],"latitude":"39.8675","longitude":"26.61111","feature_class":"P","feature_code":"PPLA3","country_code":"TR","cc2":"","admin1_code":"17","admin2_code":"","admin3_code":"","admin4_code":"","population":"0","elevation":"","dem":"174","timezone":"Europe/Istanbul","modification_date":"2013-09-08"},{"geonameid":"296790","name":"Yeşilyurt","asciiname":"Yesilyurt","alternatenames":["Yesilyurt","Yeşilyurt"],"latitude":"38.33972","longitude":"28.66444","feature_class":"P","feature_code":"PPLA3","country_code":"TR","cc2":"","admin1_code":"45","admin2_code":"","admin3_code":"","admin4_code":"","population":"0","elevation":"","dem":"181","timezone":"Europe/Istanbul","modification_date":"2013-09-08"},{"geonameid":"296791","name":"Yeşilyurt","asciiname":"Yesilyurt","alternatenames":["Cirmikti","Ismetpasa","Yesilyurt","Yeşilyurt","Çırmıktı","İsmetpaşa"],"latitude":"38.29722","longitude":"38.24972","feature_class":"P","feature_code":"PPLA2","country_code":"TR","cc2":"","admin1_code":"44","admin2_code":"","admin3_code":"","admin4_code":"","population":"13766","elevation":"","dem":"1019","timezone":"Europe/Istanbul","modification_date":"2012-01-18"},{"geonameid":"296794","name":"Yeşilyurt","asciiname":"Yesilyurt","alternatenames":["Yesilyurt","Yeşilyurt"],"latitude":"37.19324","longitude":"28.27537","feature_class":"P","feature_code":"PPLA3","country_code":"TR","cc2":"","admin1_code":"48","admin2_code":"","admin3_code":"","admin4_code":"","population":"0","elevation":"","dem":"487","timezone":"Europe/Istanbul","modification_date":"2013-09-08"},{"geonameid":"296796","name":"Yeşilyazı","asciiname":"Yesilyazi","alternatenames":["Havacor","Havaçor","Yesilyazi","Yeşilyazı","Zeranik","Zerenik","Zeronik"],"latitude":"39.33473","longitude":"39.08122","feature_class":"P","feature_code":"PPLA3","country_code":"TR","cc2":"","admin1_code":"62","admin2_code":"","admin3_code":"","admin4_code":"","population":"0","elevation":"","dem":"1299","timezone":"Europe/Istanbul","modification_date":"2015-02-07"},{"geonameid":"296821","name":"Yeşilova","asciiname":"Yesilova","alternatenames":["Acem","Yesilova","Yeşilova"],"latitude":"38.4095","longitude":"33.83804","feature_class":"P","feature_code":"PPLA3","country_code":"TR","cc2":"","admin1_code":"75","admin2_code":"","admin3_code":"","admin4_code":"","population":"0","elevation":"","dem":"935","timezone":"Europe/Istanbul","modification_date":"2013-09-08"},{"geonameid":"296823","name":"Yeşilova","asciiname":"Yesilova","alternatenames":["Satilar","Satirlar","Satılar","Satırlar","Yesilova","Yeşilova"],"latitude":"37.50806","longitude":"29.75472","feature_class":"P","feature_code":"PPLA2","country_code":"TR","cc2":"","admin1_code":"15","admin2_code":"","admin3_code":"","admin4_code":"","population":"6777","elevation":"","dem":"1206","timezone":"Europe/Istanbul","modification_date":"2012-02-28"},{"geonameid":"296832","name":"Yeşilli","asciiname":"Yesilli","alternatenames":["Rismil","Rişmil","Yesilli","Yeşilli"],"latitude":"37.34049","longitude":"40.82558","feature_class":"P","feature_code":"PPLA2","country_code":"TR","cc2":"","admin1_code":"72","admin2_code":"","admin3_code":"","admin4_code":"","population":"32072","elevation":"","dem":"848","timezone":"Europe/Istanbul","modification_date":"2013-07-06"},{"geonameid":"296852","name":"Erzin","asciiname":"Erzin","alternatenames":["Ehrzin","Erzin","Yesilkent","Yeşilkent","Эрзин"],"latitude":"36.95348","longitude":"36.19839","feature_class":"P","feature_code":"PPLA2","country_code":"TR","cc2":"","admin1_code":"31","admin2_code":"","admin3_code":"","admin4_code":"","population":"26316","elevation":"","dem":"167","timezone":"Europe/Istanbul","modification_date":"2014-11-05"},{"geonameid":"296860","name":"Yeşilhisar","asciiname":"Yesilhisar","alternatenames":["Karahisar","Karahısar","Yesilhisar","Yeşilhisar"],"latitude":"38.34972","longitude":"35.08667","feature_class":"P","feature_code":"PPLA2","country_code":"TR","cc2":"","admin1_code":"38","admin2_code":"7910468","admin3_code":"","admin4_code":"","population":"14354","elevation":"","dem":"1170","timezone":"Europe/Istanbul","modification_date":"2015-04-02"},{"geonameid":"296862","name":"Misli","asciiname":"Misli","alternatenames":["Akpinar","Akpınar","Golcuk","Gölcük","Misli","Yesilgolcuk","Yeşilgölcük"],"latitude":"38.23119","longitude":"34.77671","feature_class":"P","feature_code":"PPLA3","country_code":"TR","cc2":"","admin1_code":"73","admin2_code":"","admin3_code":"","admin4_code":"","population":"0","elevation":"","dem":"1315","timezone":"Europe/Istanbul","modification_date":"2013-09-08"},{"geonameid":"296869","name":"Yeşildere","asciiname":"Yesildere","alternatenames":["Ibrala","Yesildere","Yeşildere","İbrala"],"latitude":"37.15668","longitude":"33.51447","feature_class":"P","feature_code":"PPLA3","country_code":"TR","cc2":"","admin1_code":"78","admin2_code":"","admin3_code":"","admin4_code":"","population":"0","elevation":"","dem":"1189","timezone":"Europe/Istanbul","modification_date":"2013-09-08"},{"geonameid":"296885","name":"Yeşilalan","asciiname":"Yesilalan","alternatenames":["Barman","Yesilalan","Yeşilalan"],"latitude":"37.46352","longitude":"40.78812","feature_class":"P","feature_code":"PPL","country_code":"TR","cc2":"","admin1_code":"72","admin2_code":"","admin3_code":"","admin4_code":"","population":"3791","elevation":"","dem":"963","timezone":"Europe/Istanbul","modification_date":"2012-01-18"},{"geonameid":"296895","name":"Yerköy","asciiname":"Yerkoy","alternatenames":["Yerkoy","Yerköy"],"latitude":"39.63806","longitude":"34.46722","feature_class":"P","feature_code":"PPLA2","country_code":"TR","cc2":"","admin1_code":"66","admin2_code":"","admin3_code":"","admin4_code":"","population":"35294","elevation":"","dem":"770","timezone":"Europe/Istanbul","modification_date":"2012-01-18"},{"geonameid":"296898","name":"Yerkesik","asciiname":"Yerkesik","alternatenames":["Yerkesik"],"latitude":"37.13625","longitude":"28.28403","feature_class":"P","feature_code":"PPLA3","country_code":"TR","cc2":"","admin1_code":"48","admin2_code":"","admin3_code":"","admin4_code":"","population":"0","elevation":"","dem":"664","timezone":"Europe/Istanbul","modification_date":"2015-05-06"},{"geonameid":"296942","name":"Yenişarbademli","asciiname":"Yenisarbademli","alternatenames":["Bademli","Yenisarbademli","Yenişarbademli"],"latitude":"37.70778","longitude":"31.38639","feature_class":"P","feature_code":"PPLA2","country_code":"TR","cc2":"","admin1_code":"33","admin2_code":"","admin3_code":"","admin4_code":"","population":"5198","elevation":"","dem":"1185","timezone":"Europe/Istanbul","modification_date":"2012-02-28"},{"geonameid":"296943","name":"Yenişakran","asciiname":"Yenisakran","alternatenames":["Yenisakran","Yenişakran"],"latitude":"38.88639","longitude":"27.06694","feature_class":"P","feature_code":"PPL","country_code":"TR","cc2":"","admin1_code":"35","admin2_code":"","admin3_code":"","admin4_code":"","population":"3552","elevation":"","dem":"5","timezone":"Europe/Istanbul","modification_date":"2013-05-05"},{"geonameid":"296947","name":"Yenipınar","asciiname":"Yenipinar","alternatenames":["Asagi Keferzo","Ashagy-Keferzo","Aşağı Keferzo","Yenipinar","Yenipınar"],"latitude":"37.84345","longitude":"41.30247","feature_class":"P","feature_code":"PPL","country_code":"TR","cc2":"","admin1_code":"76","admin2_code":"","admin3_code":"","admin4_code":"","population":"1100","elevation":"","dem":"728","timezone":"Europe/Istanbul","modification_date":"2012-01-18"},{"geonameid":"296948","name":"Yenipazar","asciiname":"Yenipazar","alternatenames":["Yenipazar"],"latitude":"39.46361","longitude":"35.08306","feature_class":"P","feature_code":"PPLA3","country_code":"TR","cc2":"","admin1_code":"66","admin2_code":"","admin3_code":"","admin4_code":"","population":"0","elevation":"","dem":"1063","timezone":"Europe/Istanbul","modification_date":"2013-09-08"},{"geonameid":"296950","name":"Yenipazar","asciiname":"Yenipazar","alternatenames":["Yenipazar"],"latitude":"37.82332","longitude":"28.19573","feature_class":"P","feature_code":"PPLA2","country_code":"TR","cc2":"","admin1_code":"09","admin2_code":"","admin3_code":"","admin4_code":"","population":"6513","elevation":"","dem":"63","timezone":"Europe/Istanbul","modification_date":"2015-04-06"},{"geonameid":"296953","name":"Yenimehmetli","asciiname":"Yenimehmetli","alternatenames":["Yenimehmet","Yenimehmetli"],"latitude":"39.42","longitude":"32.16889","feature_class":"P","feature_code":"PPLA3","country_code":"TR","cc2":"","admin1_code":"68","admin2_code":"","admin3_code":"","admin4_code":"","population":"0","elevation":"","dem":"932","timezone":"Europe/Istanbul","modification_date":"2013-09-08"},{"geonameid":"296976","name":"Yeniköy","asciiname":"Yenikoy","alternatenames":["Yenikoy","Yeniköy"],"latitude":"39.77874","longitude":"28.00299","feature_class":"P","feature_code":"PPLA3","country_code":"TR","cc2":"","admin1_code":"10","admin2_code":"","admin3_code":"","admin4_code":"","population":"0","elevation":"","dem":"243","timezone":"Europe/Istanbul","modification_date":"2013-09-08"},{"geonameid":"297027","name":"Yeniköy","asciiname":"Yenikoy","alternatenames":["Yenikly","Yenikoy","Yeniköy"],"latitude":"37.88111","longitude":"41.04972","feature_class":"P","feature_code":"PPL","country_code":"TR","cc2":"","admin1_code":"76","admin2_code":"","admin3_code":"","admin4_code":"","population":"3269","elevation":"","dem":"533","timezone":"Europe/Istanbul","modification_date":"2012-01-18"},{"geonameid":"297039","name":"Yenicekale","asciiname":"Yenicekale","alternatenames":["Yenicekale","Yenikoy","Yeniköy"],"latitude":"37.59621","longitude":"36.63111","feature_class":"P","feature_code":"PPLA3","country_code":"TR","cc2":"","admin1_code":"46","admin2_code":"","admin3_code":"","admin4_code":"","population":"0","elevation":"","dem":"958","timezone":"Europe/Istanbul","modification_date":"2013-09-08"},{"geonameid":"297052","name":"Yeniköy","asciiname":"Yenikoy","alternatenames":["Haraberes","Harabereş","Harabresik","Harabreşik","Kharabreshik","Yenikoy","Yeniköy"],"latitude":"37.27074","longitude":"42.42472","feature_class":"P","feature_code":"PPL","country_code":"TR","cc2":"","admin1_code":"80","admin2_code":"","admin3_code":"","admin4_code":"","population":"1104","elevation":"","dem":"518","timezone":"Europe/Istanbul","modification_date":"2014-10-01"},{"geonameid":"297090","name":"Didim","asciiname":"Didim","alternatenames":["Didim","Didimy","Yenihisar","Yoran","Дидимы"],"latitude":"37.38496","longitude":"27.25643","feature_class":"P","feature_code":"PPL","country_code":"TR","cc2":"TR","admin1_code":"09","admin2_code":"8632405","admin3_code":"","admin4_code":"","population":"26000","elevation":"","dem":"69","timezone":"Europe/Istanbul","modification_date":"2015-04-08"},{"geonameid":"297097","name":"Yenifoça","asciiname":"Yenifoca","alternatenames":["Foggia Nova","Naes Foyes","Yenice","Yenicefoca","Yenifoca","Yenifoça"],"latitude":"38.73333","longitude":"26.83333","feature_class":"P","feature_code":"PPLA3","country_code":"TR","cc2":"","admin1_code":"35","admin2_code":"8632429","admin3_code":"","admin4_code":"","population":"3742","elevation":"0","dem":"17","timezone":"Europe/Istanbul","modification_date":"2013-11-20"},{"geonameid":"297099","name":"Yenifakılı","asciiname":"Yenifakili","alternatenames":["Fakili","Fakiliistasyonu","Fakılı","Fakılıistasyonu","Karafakili","Karafakılı","Yenifakili","Yenifakılı"],"latitude":"39.21142","longitude":"35.00036","feature_class":"P","feature_code":"PPLA2","country_code":"TR","cc2":"","admin1_code":"66","admin2_code":"","admin3_code":"","admin4_code":"","population":"11470","elevation":"","dem":"1026","timezone":"Europe/Istanbul","modification_date":"2012-01-18"},{"geonameid":"297119","name":"Altpınar","asciiname":"Altpinar","alternatenames":["Altpinar","Altpınar","Torunlar","Yenicik"],"latitude":"39.20417","longitude":"32.74778","feature_class":"P","feature_code":"PPL","country_code":"TR","cc2":"","admin1_code":"68","admin2_code":"","admin3_code":"","admin4_code":"","population":"12925","elevation":"","dem":"1062","timezone":"Europe/Istanbul","modification_date":"2012-02-02"},{"geonameid":"297125","name":"Yeniceoba","asciiname":"Yeniceoba","alternatenames":["Yeniceoba"],"latitude":"38.86972","longitude":"32.78833","feature_class":"P","feature_code":"PPLA3","country_code":"TR","cc2":"","admin1_code":"71","admin2_code":"","admin3_code":"","admin4_code":"","population":"0","elevation":"","dem":"964","timezone":"Europe/Istanbul","modification_date":"2013-09-08"},{"geonameid":"297144","name":"Yenice","asciiname":"Yenice","alternatenames":["Yenice","Yenice Koyu","Yenice Köyü"],"latitude":"39.93083","longitude":"27.25806","feature_class":"P","feature_code":"PPLA2","country_code":"TR","cc2":"","admin1_code":"17","admin2_code":"","admin3_code":"","admin4_code":"","population":"0","elevation":"","dem":"274","timezone":"Europe/Istanbul","modification_date":"2012-01-18"},{"geonameid":"297148","name":"Yenice","asciiname":"Yenice","alternatenames":["Yenice"],"latitude":"39.76089","longitude":"28.90729","feature_class":"P","feature_code":"PPL","country_code":"TR","cc2":"","admin1_code":"16","admin2_code":"","admin3_code":"","admin4_code":"","population":"3708","elevation":"","dem":"769","timezone":"Europe/Istanbul","modification_date":"2013-05-08"},{"geonameid":"297172","name":"Yenice","asciiname":"Yenice","alternatenames":["Yenice"],"latitude":"37.82837","longitude":"28.57115","feature_class":"P","feature_code":"PPLA3","country_code":"TR","cc2":"","admin1_code":"09","admin2_code":"","admin3_code":"","admin4_code":"","population":"0","elevation":"","dem":"184","timezone":"Europe/Istanbul","modification_date":"2013-09-08"},{"geonameid":"297184","name":"Yenice","asciiname":"Yenice","alternatenames":["Yenice"],"latitude":"36.97744","longitude":"35.05197","feature_class":"P","feature_code":"PPLA3","country_code":"TR","cc2":"","admin1_code":"32","admin2_code":"","admin3_code":"","admin4_code":"","population":"0","elevation":"","dem":"31","timezone":"Europe/Istanbul","modification_date":"2013-09-08"},{"geonameid":"297195","name":"Yenibaşak","asciiname":"Yenibasak","alternatenames":["Ardusin","Arduşin","Yenibasak","Yenibaşak"],"latitude":"38.80414","longitude":"40.99222","feature_class":"P","feature_code":"PPLA3","country_code":"TR","cc2":"","admin1_code":"12","admin2_code":"","admin3_code":"","admin4_code":"","population":"0","elevation":"","dem":"1590","timezone":"Europe/Istanbul","modification_date":"2015-02-07"},{"geonameid":"297246","name":"Reşadiye","asciiname":"Resadiye","alternatenames":["Resadiye","Reşadiye","Yelkenli"],"latitude":"38.48879","longitude":"42.53501","feature_class":"P","feature_code":"PPLA2","country_code":"TR","cc2":"","admin1_code":"13","admin2_code":"","admin3_code":"","admin4_code":"","population":"0","elevation":"","dem":"1670","timezone":"Europe/Istanbul","modification_date":"2015-03-08"},{"geonameid":"297284","name":"Yeditepe","asciiname":"Yeditepe","alternatenames":["Bezge","Yeditepe"],"latitude":"35.96753","longitude":"36.01452","feature_class":"P","feature_code":"PPLA3","country_code":"TR","cc2":"","admin1_code":"31","admin2_code":"","admin3_code":"","admin4_code":"","population":"0","elevation":"","dem":"766","timezone":"Europe/Istanbul","modification_date":"2014-11-05"},{"geonameid":"297286","name":"Yedisu","asciiname":"Yedisu","alternatenames":["Yedisu"],"latitude":"39.43277","longitude":"40.53368","feature_class":"P","feature_code":"PPLA2","country_code":"TR","cc2":"","admin1_code":"12","admin2_code":"","admin3_code":"","admin4_code":"","population":"1771","elevation":"","dem":"1437","timezone":"Europe/Istanbul","modification_date":"2015-06-08"},{"geonameid":"297307","name":"Yazyurdu","asciiname":"Yazyurdu","alternatenames":["Celikanliyurd","Celikanliyurt","Celikânlıyurd","Celikânlıyurt","Gobekviran","Göbekviran","Yazyurdu"],"latitude":"38.79926","longitude":"36.9319","feature_class":"P","feature_code":"PPLA3","country_code":"TR","cc2":"","admin1_code":"58","admin2_code":"","admin3_code":"","admin4_code":"","population":"0","elevation":"","dem":"1765","timezone":"Europe/Istanbul","modification_date":"2013-09-08"},{"geonameid":"297371","name":"Yazıhan","asciiname":"Yazihan","alternatenames":["Yazihan","Yazıhan"],"latitude":"38.59472","longitude":"38.18","feature_class":"P","feature_code":"PPLA2","country_code":"TR","cc2":"","admin1_code":"44","admin2_code":"","admin3_code":"","admin4_code":"","population":"5156","elevation":"","dem":"828","timezone":"Europe/Istanbul","modification_date":"2012-05-06"},{"geonameid":"297404","name":"Yayvantepe","asciiname":"Yayvantepe","alternatenames":["Kartmin","Katmin","Yayvantepe"],"latitude":"37.30131","longitude":"41.52061","feature_class":"P","feature_code":"PPL","country_code":"TR","cc2":"","admin1_code":"72","admin2_code":"","admin3_code":"","admin4_code":"","population":"1813","elevation":"","dem":"912","timezone":"Europe/Istanbul","modification_date":"2015-06-08"},{"geonameid":"297416","name":"Yaylı","asciiname":"Yayli","alternatenames":["Kavs","Kavuz","Yayli","Yaylı"],"latitude":"37.20201","longitude":"40.75477","feature_class":"P","feature_code":"PPL","country_code":"TR","cc2":"","admin1_code":"72","admin2_code":"","admin3_code":"","admin4_code":"","population":"1581","elevation":"","dem":"551","timezone":"Europe/Istanbul","modification_date":"2012-01-18"},{"geonameid":"297456","name":"Yaylak","asciiname":"Yaylak","alternatenames":["Baziki","Hevenk","Yaylak"],"latitude":"37.38268","longitude":"38.33892","feature_class":"P","feature_code":"PPLA3","country_code":"TR","cc2":"","admin1_code":"63","admin2_code":"","admin3_code":"","admin4_code":"","population":"0","elevation":"","dem":"510","timezone":"Europe/Istanbul","modification_date":"2013-09-08"},{"geonameid":"297461","name":"Yayladere","asciiname":"Yayladere","alternatenames":["Conek","Cönek","Holhol","Jajladere","Xorxol","Yayladere","Яйладере","ضلع یالادیر"],"latitude":"39.22614","longitude":"40.0695","feature_class":"P","feature_code":"PPL","country_code":"TR","cc2":"","admin1_code":"12","admin2_code":"","admin3_code":"","admin4_code":"","population":"3925","elevation":"","dem":"1562","timezone":"Europe/Istanbul","modification_date":"2012-01-18"},{"geonameid":"297466","name":"Yayladağı","asciiname":"Yayladagi","alternatenames":["Ordu","Yayladagi","Yayladağı","Yayladgi","Yayladği"],"latitude":"35.9025","longitude":"36.06272","feature_class":"P","feature_code":"PPLA2","country_code":"TR","cc2":"","admin1_code":"31","admin2_code":"","admin3_code":"","admin4_code":"","population":"8308","elevation":"","dem":"421","timezone":"Europe/Istanbul","modification_date":"2012-01-18"},{"geonameid":"297499","name":"Yayla","asciiname":"Yayla","alternatenames":["Yayla"],"latitude":"38.63092","longitude":"40.52793","feature_class":"P","feature_code":"PPLA3","country_code":"TR","cc2":"","admin1_code":"12","admin2_code":"","admin3_code":"","admin4_code":"","population":"0","elevation":"","dem":"1308","timezone":"Europe/Istanbul","modification_date":"2015-02-07"},{"geonameid":"297517","name":"Yaygın","asciiname":"Yaygin","alternatenames":["Migdi","Miğdi","Yaygin","Yaygın","Ziyaret"],"latitude":"38.89748","longitude":"41.30613","feature_class":"P","feature_code":"PPLA3","country_code":"TR","cc2":"","admin1_code":"49","admin2_code":"","admin3_code":"","admin4_code":"","population":"0","elevation":"","dem":"1280","timezone":"Europe/Istanbul","modification_date":"2015-02-07"},{"geonameid":"297532","name":"Yavuzeli","asciiname":"Yavuzeli","alternatenames":["Cingife","Yarimca","Yarımca","Yavuzeli"],"latitude":"37.31772","longitude":"37.56824","feature_class":"P","feature_code":"PPLA2","country_code":"TR","cc2":"","admin1_code":"83","admin2_code":"","admin3_code":"","admin4_code":"","population":"8170","elevation":"","dem":"565","timezone":"Europe/Istanbul","modification_date":"2012-01-18"},{"geonameid":"297542","name":"Yavu","asciiname":"Yavu","alternatenames":["Belcik","Yavi","Yavu"],"latitude":"39.79202","longitude":"36.20603","feature_class":"P","feature_code":"PPLA3","country_code":"TR","cc2":"","admin1_code":"58","admin2_code":"","admin3_code":"","admin4_code":"","population":"0","elevation":"","dem":"1199","timezone":"Europe/Istanbul","modification_date":"2013-09-08"},{"geonameid":"297564","name":"Yatağan","asciiname":"Yatagan","alternatenames":["Ahikoy","Ahiköy","Yatagan","Yatağan"],"latitude":"37.34025","longitude":"28.14279","feature_class":"P","feature_code":"PPLA2","country_code":"TR","cc2":"","admin1_code":"48","admin2_code":"","admin3_code":"","admin4_code":"","population":"19020","elevation":"","dem":"380","timezone":"Europe/Istanbul","modification_date":"2013-08-06"},{"geonameid":"297621","name":"Yarpuzlu","asciiname":"Yarpuzlu","alternatenames":["Yarpuzlu"],"latitude":"38.05954","longitude":"38.52989","feature_class":"P","feature_code":"PPLA3","country_code":"TR","cc2":"","admin1_code":"02","admin2_code":"","admin3_code":"","admin4_code":"","population":"0","elevation":"","dem":"1103","timezone":"Europe/Istanbul","modification_date":"2013-09-08"},{"geonameid":"297624","name":"Yarpuz","asciiname":"Yarpuz","alternatenames":["Cebel","Cebelibereket","Yarpuz"],"latitude":"37.04824","longitude":"36.43066","feature_class":"P","feature_code":"PPLA3","country_code":"TR","cc2":"","admin1_code":"91","admin2_code":"","admin3_code":"","admin4_code":"","population":"0","elevation":"","dem":"974","timezone":"Europe/Istanbul","modification_date":"2013-09-08"},{"geonameid":"297628","name":"Yarma","asciiname":"Yarma","alternatenames":["Yarma"],"latitude":"37.81149","longitude":"32.88278","feature_class":"P","feature_code":"PPLA3","country_code":"TR","cc2":"","admin1_code":"71","admin2_code":"","admin3_code":"","admin4_code":"","population":"2601","elevation":"","dem":"1003","timezone":"Europe/Istanbul","modification_date":"2013-09-08"},{"geonameid":"297673","name":"Yardımcı","asciiname":"Yardimci","alternatenames":["Cabirulensar","Cabirülensar","Sumatar","Yardimci","Yardımcı"],"latitude":"37.02091","longitude":"39.00533","feature_class":"P","feature_code":"PPLA3","country_code":"TR","cc2":"","admin1_code":"63","admin2_code":"","admin3_code":"","admin4_code":"","population":"0","elevation":"","dem":"398","timezone":"Europe/Istanbul","modification_date":"2013-09-08"},{"geonameid":"297684","name":"Yarbasan","asciiname":"Yarbasan","alternatenames":["Yarbasan","Yarbasanisiklar","Yarbasanışıklar"],"latitude":"38.98889","longitude":"28.80806","feature_class":"P","feature_code":"PPLA3","country_code":"TR","cc2":"","admin1_code":"45","admin2_code":"","admin3_code":"","admin4_code":"","population":"0","elevation":"","dem":"914","timezone":"Europe/Istanbul","modification_date":"2013-09-08"},{"geonameid":"297704","name":"Yaprakbaşı","asciiname":"Yaprakbasi","alternatenames":["Bari","Yaprakbasi","Yaprakbaşı"],"latitude":"37.65397","longitude":"40.54482","feature_class":"P","feature_code":"PPL","country_code":"TR","cc2":"","admin1_code":"21","admin2_code":"","admin3_code":"","admin4_code":"","population":"1483","elevation":"","dem":"752","timezone":"Europe/Istanbul","modification_date":"2012-01-18"},{"geonameid":"297757","name":"Yanarsu","asciiname":"Yanarsu","alternatenames":["Garzan","Yanarsu","Zok"],"latitude":"38.04333","longitude":"41.56282","feature_class":"P","feature_code":"PPLA3","country_code":"TR","cc2":"","admin1_code":"74","admin2_code":"","admin3_code":"","admin4_code":"","population":"0","elevation":"","dem":"749","timezone":"Europe/Istanbul","modification_date":"2013-09-08"},{"geonameid":"297784","name":"Yamaç","asciiname":"Yamac","alternatenames":["Yamac","Yamaç"],"latitude":"38.77623","longitude":"40.43894","feature_class":"P","feature_code":"PPLA3","country_code":"TR","cc2":"","admin1_code":"12","admin2_code":"","admin3_code":"","admin4_code":"","population":"0","elevation":"","dem":"1453","timezone":"Europe/Istanbul","modification_date":"2015-07-03"},{"geonameid":"297789","name":"Yalvaç","asciiname":"Yalvac","alternatenames":["Jalvach","Yalvac","Yalvaç","Ялвач"],"latitude":"38.29556","longitude":"31.17778","feature_class":"P","feature_code":"PPLA2","country_code":"TR","cc2":"","admin1_code":"33","admin2_code":"","admin3_code":"","admin4_code":"","population":"39145","elevation":"","dem":"1100","timezone":"Europe/Istanbul","modification_date":"2012-02-28"},{"geonameid":"297831","name":"Yalınca","asciiname":"Yalinca","alternatenames":["Dim","Dimkoy","Dimköy","Yalinca","Yalinizca","Yalınca","Yalınızca"],"latitude":"37.85657","longitude":"43.5223","feature_class":"P","feature_code":"PPLA3","country_code":"TR","cc2":"","admin1_code":"65","admin2_code":"","admin3_code":"","admin4_code":"","population":"0","elevation":"","dem":"2361","timezone":"Europe/Istanbul","modification_date":"2014-11-05"},{"geonameid":"297839","name":"Yalıhüyük","asciiname":"Yalihuyuk","alternatenames":["Yalihuyuk","Yalıhüyük"],"latitude":"37.30077","longitude":"32.08548","feature_class":"P","feature_code":"PPLA2","country_code":"TR","cc2":"","admin1_code":"71","admin2_code":"","admin3_code":"","admin4_code":"","population":"6116","elevation":"","dem":"1106","timezone":"Europe/Istanbul","modification_date":"2012-01-18"},{"geonameid":"297856","name":"Yalangöz","asciiname":"Yalangoz","alternatenames":["Yalangoz","Yalangöz","Yalankoz"],"latitude":"36.57627","longitude":"36.50732","feature_class":"P","feature_code":"PPLA3","country_code":"TR","cc2":"","admin1_code":"31","admin2_code":"","admin3_code":"","admin4_code":"","population":"0","elevation":"","dem":"134","timezone":"Europe/Istanbul","modification_date":"2014-10-01"},{"geonameid":"297882","name":"Yakapınar","asciiname":"Yakapinar","alternatenames":["Yakapinar","Yakapınar"],"latitude":"36.97342","longitude":"35.62043","feature_class":"P","feature_code":"PPLA3","country_code":"TR","cc2":"","admin1_code":"81","admin2_code":"","admin3_code":"","admin4_code":"","population":"0","elevation":"","dem":"78","timezone":"Europe/Istanbul","modification_date":"2013-09-08"},{"geonameid":"297899","name":"Yakacık","asciiname":"Yakacik","alternatenames":["Aya","Baiae","Karacami","Payas","Yakacik","Yakacık"],"latitude":"36.75755","longitude":"36.21588","feature_class":"P","feature_code":"PPLA3","country_code":"TR","cc2":"","admin1_code":"31","admin2_code":"","admin3_code":"","admin4_code":"","population":"0","elevation":"","dem":"34","timezone":"Europe/Istanbul","modification_date":"2013-09-08"},{"geonameid":"297917","name":"Yahyalı","asciiname":"Yahyali","alternatenames":["Gazibenli","Jakh'jaly","Yahyali","Yahyalı","Яхьялы"],"latitude":"38.10228","longitude":"35.35704","feature_class":"P","feature_code":"PPLA2","country_code":"TR","cc2":"","admin1_code":"38","admin2_code":"","admin3_code":"","admin4_code":"","population":"25019","elevation":"","dem":"1180","timezone":"Europe/Istanbul","modification_date":"2012-01-18"},{"geonameid":"297925","name":"Yahşihan","asciiname":"Yahsihan","alternatenames":["Yahsihan","Yahsiyan","Yahşihan","Yahşiyan"],"latitude":"39.85028","longitude":"33.45294","feature_class":"P","feature_code":"PPLA2","country_code":"TR","cc2":"","admin1_code":"79","admin2_code":"","admin3_code":"","admin4_code":"","population":"0","elevation":"","dem":"707","timezone":"Europe/Istanbul","modification_date":"2012-01-18"},{"geonameid":"297991","name":"Yağcılar","asciiname":"Yagcilar","alternatenames":["Yagcilar","Yağcılar"],"latitude":"39.41712","longitude":"28.38109","feature_class":"P","feature_code":"PPLA3","country_code":"TR","cc2":"","admin1_code":"10","admin2_code":"","admin3_code":"","admin4_code":"","population":"0","elevation":"","dem":"364","timezone":"Europe/Istanbul","modification_date":"2013-09-08"},{"geonameid":"298033","name":"Viranşehir","asciiname":"Viransehir","alternatenames":["Antoninopolis","Veeranshahr","Viransehir","Viranshekhire","Viranşehir","Wiranschehir","Вираншехире"],"latitude":"37.22349","longitude":"39.75519","feature_class":"P","feature_code":"PPLA2","country_code":"TR","cc2":"","admin1_code":"63","admin2_code":"","admin3_code":"","admin4_code":"","population":"154163","elevation":"","dem":"551","timezone":"Europe/Istanbul","modification_date":"2015-02-07"},{"geonameid":"298088","name":"Varto","asciiname":"Varto","alternatenames":["Gumgum","Gümgüm","Varto"],"latitude":"39.17375","longitude":"41.45402","feature_class":"P","feature_code":"PPLA2","country_code":"TR","cc2":"","admin1_code":"49","admin2_code":"","admin3_code":"","admin4_code":"","population":"18691","elevation":"","dem":"1523","timezone":"Europe/Istanbul","modification_date":"2015-06-08"},{"geonameid":"298117","name":"Van","asciiname":"Van","alternatenames":["Gorad Van","Thospia","Urartu","VAN","Van","Van i Tyrkia","Vana","Vanas","Wan","ban","bhyana","fan cheng","van","vani","vu~an","wan","Ван","Горад Ван","Վան","وان","भ्यान","வான்","วาน","ვანი","ヴァン","凡城","반"],"latitude":"38.49457","longitude":"43.38323","feature_class":"P","feature_code":"PPLA","country_code":"TR","cc2":"","admin1_code":"65","admin2_code":"","admin3_code":"","admin4_code":"","population":"371713","elevation":"","dem":"1708","timezone":"Europe/Istanbul","modification_date":"2015-03-08"},{"geonameid":"298178","name":"Uzunkuyu","asciiname":"Uzunkuyu","alternatenames":["Uzunkoyu","Uzunkuyu"],"latitude":"38.27858","longitude":"26.54315","feature_class":"P","feature_code":"PPLA3","country_code":"TR","cc2":"","admin1_code":"35","admin2_code":"","admin3_code":"","admin4_code":"","population":"0","elevation":"","dem":"244","timezone":"Europe/Istanbul","modification_date":"2015-01-07"},{"geonameid":"298198","name":"Uzungeçit","asciiname":"Uzungecit","alternatenames":["Derahin","Derakhin","Dirahini","Uzungecit","Uzungeçit"],"latitude":"37.49052","longitude":"42.99036","feature_class":"P","feature_code":"PPL","country_code":"TR","cc2":"","admin1_code":"80","admin2_code":"","admin3_code":"","admin4_code":"","population":"3993","elevation":"","dem":"1541","timezone":"Europe/Istanbul","modification_date":"2014-10-01"},{"geonameid":"298230","name":"Cimin","asciiname":"Cimin","alternatenames":["Cimin","Uzumlu","Üzümlü"],"latitude":"39.70947","longitude":"39.70015","feature_class":"P","feature_code":"PPLA2","country_code":"TR","cc2":"","admin1_code":"24","admin2_code":"","admin3_code":"","admin4_code":"","population":"39591","elevation":"","dem":"1422","timezone":"Europe/Istanbul","modification_date":"2015-02-07"},{"geonameid":"298233","name":"Üzümlü","asciiname":"Uzumlu","alternatenames":["Manastir","Manastır","Uzumlu","Uzumlu Manastir","Uzumlu Manastır","Üzümlü"],"latitude":"37.54057","longitude":"31.6038","feature_class":"P","feature_code":"PPLA3","country_code":"TR","cc2":"","admin1_code":"71","admin2_code":"","admin3_code":"","admin4_code":"","population":"0","elevation":"","dem":"1303","timezone":"Europe/Istanbul","modification_date":"2013-09-08"},{"geonameid":"298235","name":"Yeşilüzümlü","asciiname":"Yesiluzumlu","alternatenames":["Ozumlu","Uzumlu","Yesiluzumlu","Yeşilüzümlü","Özümlü","Üzümlü"],"latitude":"36.73361","longitude":"29.23333","feature_class":"P","feature_code":"PPLA3","country_code":"TR","cc2":"","admin1_code":"48","admin2_code":"","admin3_code":"","admin4_code":"","population":"0","elevation":"","dem":"505","timezone":"Europe/Istanbul","modification_date":"2015-05-06"},{"geonameid":"298299","name":"Uşak","asciiname":"Usak","alternatenames":["Flaviopolis","Gorad Ushak","Ouchak","Ousak","Temenothyrae","Usak","Usakas","Uschak","Ushak","Ushaq","Uşak","Ušakas","awshak","usaka","ushaku","usyakeu","wu sha ke","Ουσάκ","Горад Ушак","Ушак","أوشاك","اوشاک","عشاق","ਉਸ਼ਾਕ","ウシャク","烏沙克","우샤크"],"latitude":"38.67351","longitude":"29.4058","feature_class":"P","feature_code":"PPLA","country_code":"TR","cc2":"","admin1_code":"64","admin2_code":"","admin3_code":"","admin4_code":"","population":"152862","elevation":"","dem":"910","timezone":"Europe/Istanbul","modification_date":"2012-01-16"},{"geonameid":"298316","name":"Urla","asciiname":"Urla","alternatenames":["Urla","Vourlah Skala","Урла"],"latitude":"38.32292","longitude":"26.76403","feature_class":"P","feature_code":"PPLA2","country_code":"TR","cc2":"","admin1_code":"35","admin2_code":"","admin3_code":"","admin4_code":"","population":"45199","elevation":"","dem":"67","timezone":"Europe/Istanbul","modification_date":"2013-08-06"},{"geonameid":"298326","name":"Urgub","asciiname":"Urgub","alternatenames":["Urgub","Urgup","Ürgüp"],"latitude":"38.6296","longitude":"34.91199","feature_class":"P","feature_code":"PPLA2","country_code":"TR","cc2":"","admin1_code":"50","admin2_code":"","admin3_code":"","admin4_code":"","population":"16642","elevation":"","dem":"1067","timezone":"Europe/Istanbul","modification_date":"2012-01-18"},{"geonameid":"298333","name":"Şanlıurfa","asciiname":"Sanliurfa","alternatenames":["Antiocheia","Edesa","Edessa","Ehdessa","Orfa","Ourfa","SFQ","Sanliurfa","Urfa","Urfeh","Şanlıurfa","Αντιόχεια","Эдесса"],"latitude":"37.16708","longitude":"38.79392","feature_class":"P","feature_code":"PPLA","country_code":"TR","cc2":"","admin1_code":"63","admin2_code":"","admin3_code":"","admin4_code":"","population":"449549","elevation":"","dem":"528","timezone":"Europe/Istanbul","modification_date":"2014-12-06"},{"geonameid":"298360","name":"Umurlu","asciiname":"Umurlu","alternatenames":["Umurlu"],"latitude":"37.85003","longitude":"27.96275","feature_class":"P","feature_code":"PPLA3","country_code":"TR","cc2":"","admin1_code":"09","admin2_code":"","admin3_code":"","admin4_code":"","population":"0","elevation":"","dem":"52","timezone":"Europe/Istanbul","modification_date":"2013-09-08"},{"geonameid":"298371","name":"Umraniye","asciiname":"Umraniye","alternatenames":["Batik","Batık","Umraniye"],"latitude":"39.175","longitude":"31.23444","feature_class":"P","feature_code":"PPLA3","country_code":"TR","cc2":"","admin1_code":"03","admin2_code":"","admin3_code":"","admin4_code":"","population":"0","elevation":"","dem":"905","timezone":"Europe/Istanbul","modification_date":"2013-09-08"},{"geonameid":"298378","name":"Uluyatır","asciiname":"Uluyatir","alternatenames":["Mizar","Uluyatir","Uluyatır"],"latitude":"36.96333","longitude":"37.69361","feature_class":"P","feature_code":"PPL","country_code":"TR","cc2":"","admin1_code":"83","admin2_code":"","admin3_code":"","admin4_code":"","population":"3350","elevation":"","dem":"568","timezone":"Europe/Istanbul","modification_date":"2012-01-18"},{"geonameid":"298414","name":"Ulukışla","asciiname":"Ulukisla","alternatenames":["Faustinopolis","Halala","Suecaeddin","Ulukisla","Ulukışla","awlwqshla","Şücaeddin","اولوقشلا","شجاع‌الدین"],"latitude":"37.54776","longitude":"34.48528","feature_class":"P","feature_code":"PPLA2","country_code":"TR","cc2":"","admin1_code":"73","admin2_code":"","admin3_code":"","admin4_code":"","population":"0","elevation":"","dem":"1435","timezone":"Europe/Istanbul","modification_date":"2012-01-18"},{"geonameid":"298433","name":"Uludere","asciiname":"Uludere","alternatenames":["Goyan","Guyan","Göyan","Güyan","Helet","Kalhesanan","Kalkhesnan","Kilaban","Kylaban","Kılaban","Uludere"],"latitude":"37.44074","longitude":"42.85236","feature_class":"P","feature_code":"PPLA2","country_code":"TR","cc2":"","admin1_code":"80","admin2_code":"","admin3_code":"","admin4_code":"","population":"8827","elevation":"","dem":"1346","timezone":"Europe/Istanbul","modification_date":"2014-10-01"},{"geonameid":"298435","name":"Arsuz","asciiname":"Arsuz","alternatenames":["Arsus","Arsuz","Aruz","Arúz","Kabevli","Kapevli","Rhossus","Ulucinar","Uluçınar"],"latitude":"36.41305","longitude":"35.89033","feature_class":"P","feature_code":"PPLA3","country_code":"TR","cc2":"","admin1_code":"31","admin2_code":"","admin3_code":"","admin4_code":"","population":"0","elevation":"","dem":"6","timezone":"Europe/Istanbul","modification_date":"2014-11-05"},{"geonameid":"298451","name":"Uluborlu","asciiname":"Uluborlu","alternatenames":["Uluborlu","Uluborru"],"latitude":"38.07825","longitude":"30.45019","feature_class":"P","feature_code":"PPLA2","country_code":"TR","cc2":"","admin1_code":"33","admin2_code":"","admin3_code":"","admin4_code":"","population":"12514","elevation":"","dem":"1050","timezone":"Europe/Istanbul","modification_date":"2012-02-28"},{"geonameid":"298454","name":"Ulubey","asciiname":"Ulubey","alternatenames":["Gobek","Göbek","Ulubei","Ulubey","Улубеи"],"latitude":"38.41987","longitude":"29.29129","feature_class":"P","feature_code":"PPLA2","country_code":"TR","cc2":"","admin1_code":"64","admin2_code":"","admin3_code":"","admin4_code":"","population":"5092","elevation":"","dem":"743","timezone":"Europe/Istanbul","modification_date":"2013-08-06"},{"geonameid":"298471","name":"Ulaş","asciiname":"Ulas","alternatenames":[""],"latitude":"39.44492","longitude":"37.039","feature_class":"P","feature_code":"PPLA2","country_code":"TR","cc2":"","admin1_code":"58","admin2_code":"","admin3_code":"","admin4_code":"","population":"3879","elevation":"","dem":"1381","timezone":"Europe/Istanbul","modification_date":"2006-01-17"},{"geonameid":"298485","name":"Ula","asciiname":"Ula","alternatenames":["Ula"],"latitude":"37.10491","longitude":"28.41667","feature_class":"P","feature_code":"PPLA2","country_code":"TR","cc2":"","admin1_code":"48","admin2_code":"","admin3_code":"","admin4_code":"","population":"5275","elevation":"","dem":"606","timezone":"Europe/Istanbul","modification_date":"2013-08-06"},{"geonameid":"298533","name":"Kerh","asciiname":"Kerh","alternatenames":["Karhidicle","Karkhydidzhle","Kerh","Kerhidicle Koyu","Kerhidicle Köyü","Kârhidicle","Uctepe","Üçtepe"],"latitude":"37.82524","longitude":"40.54361","feature_class":"P","feature_code":"PPL","country_code":"TR","cc2":"","admin1_code":"21","admin2_code":"","admin3_code":"","admin4_code":"","population":"1983","elevation":"","dem":"578","timezone":"Europe/Istanbul","modification_date":"2012-01-18"},{"geonameid":"298552","name":"Üçpınar","asciiname":"Ucpinar","alternatenames":["Hocakoy","Hocaköy","Ucpinar","Üçpınar"],"latitude":"37.13413","longitude":"32.26146","feature_class":"P","feature_code":"PPLA3","country_code":"TR","cc2":"","admin1_code":"71","admin2_code":"","admin3_code":"","admin4_code":"","population":"0","elevation":"","dem":"1476","timezone":"Europe/Istanbul","modification_date":"2013-09-08"},{"geonameid":"298585","name":"Reshidi","asciiname":"Reshidi","alternatenames":["Rasidi","Raşidi","Reshidi","Residi","Reşidi","Uckavak","Üçkavak"],"latitude":"37.49222","longitude":"40.96028","feature_class":"P","feature_code":"PPL","country_code":"TR","cc2":"","admin1_code":"72","admin2_code":"","admin3_code":"","admin4_code":"","population":"1220","elevation":"","dem":"1117","timezone":"Europe/Istanbul","modification_date":"2012-01-18"},{"geonameid":"298620","name":"Üçdam","asciiname":"Ucdam","alternatenames":["Esil","Eşil","Ucdam","Üçdam"],"latitude":"39.56308","longitude":"40.1757","feature_class":"P","feature_code":"PPLA3","country_code":"TR","cc2":"","admin1_code":"62","admin2_code":"","admin3_code":"","admin4_code":"","population":"0","elevation":"","dem":"1585","timezone":"Europe/Istanbul","modification_date":"2015-02-07"},{"geonameid":"298647","name":"Tuzlukçu","asciiname":"Tuzlukcu","alternatenames":["Tuzlukcu","Tuzlukçu"],"latitude":"38.47778","longitude":"31.62639","feature_class":"P","feature_code":"PPLA2","country_code":"TR","cc2":"","admin1_code":"71","admin2_code":"","admin3_code":"","admin4_code":"","population":"6008","elevation":"","dem":"993","timezone":"Europe/Istanbul","modification_date":"2012-01-18"},{"geonameid":"298659","name":"Melefan","asciiname":"Melefan","alternatenames":["Melefan","Tuzlagozu","Tuzlagözü"],"latitude":"38.18333","longitude":"41.56667","feature_class":"P","feature_code":"PPLA3","country_code":"TR","cc2":"","admin1_code":"76","admin2_code":"","admin3_code":"","admin4_code":"","population":"0","elevation":"","dem":"866","timezone":"Europe/Istanbul","modification_date":"2013-09-08"},{"geonameid":"298727","name":"Tutak","asciiname":"Tutak","alternatenames":["Tutak"],"latitude":"39.53854","longitude":"42.76587","feature_class":"P","feature_code":"PPLA2","country_code":"TR","cc2":"","admin1_code":"04","admin2_code":"","admin3_code":"","admin4_code":"","population":"0","elevation":"","dem":"1559","timezone":"Europe/Istanbul","modification_date":"2015-02-07"},{"geonameid":"298728","name":"Tut","asciiname":"Tut","alternatenames":["Tut"],"latitude":"37.79529","longitude":"37.9161","feature_class":"P","feature_code":"PPLA2","country_code":"TR","cc2":"","admin1_code":"02","admin2_code":"","admin3_code":"","admin4_code":"","population":"7560","elevation":"","dem":"1054","timezone":"Europe/Istanbul","modification_date":"2012-01-18"},{"geonameid":"298729","name":"Turunçova","asciiname":"Turuncova","alternatenames":["Turuncova","Turunçova"],"latitude":"36.36889","longitude":"30.1375","feature_class":"P","feature_code":"PPL","country_code":"TR","cc2":"","admin1_code":"07","admin2_code":"","admin3_code":"","admin4_code":"","population":"8356","elevation":"","dem":"48","timezone":"Europe/Istanbul","modification_date":"2013-05-05"},{"geonameid":"298770","name":"Türkoğlu","asciiname":"Turkoglu","alternatenames":["Turkoglu","Türkoğlu"],"latitude":"37.38844","longitude":"36.84833","feature_class":"P","feature_code":"PPLA2","country_code":"TR","cc2":"","admin1_code":"46","admin2_code":"","admin3_code":"","admin4_code":"","population":"0","elevation":"","dem":"491","timezone":"Europe/Istanbul","modification_date":"2012-01-18"},{"geonameid":"298806","name":"Turgutlu","asciiname":"Turgutlu","alternatenames":["Caesarea Trocetta","Cassaba","Kasaba","Turgutlu"],"latitude":"38.49533","longitude":"27.6997","feature_class":"P","feature_code":"PPLA2","country_code":"TR","cc2":"","admin1_code":"45","admin2_code":"","admin3_code":"","admin4_code":"","population":"103292","elevation":"","dem":"98","timezone":"Europe/Istanbul","modification_date":"2013-08-06"},{"geonameid":"298815","name":"Turgut","asciiname":"Turgut","alternatenames":["Turgut"],"latitude":"38.62694","longitude":"31.81083","feature_class":"P","feature_code":"PPLA3","country_code":"TR","cc2":"","admin1_code":"71","admin2_code":"","admin3_code":"","admin4_code":"","population":"0","elevation":"","dem":"1004","timezone":"Europe/Istanbul","modification_date":"2013-09-08"},{"geonameid":"298816","name":"Turgut","asciiname":"Turgut","alternatenames":["Leyna","Leyne","Turgut"],"latitude":"37.375","longitude":"28.03111","feature_class":"P","feature_code":"PPLA3","country_code":"TR","cc2":"","admin1_code":"48","admin2_code":"","admin3_code":"","admin4_code":"","population":"2065","elevation":"","dem":"529","timezone":"Europe/Istanbul","modification_date":"2013-09-08"},{"geonameid":"298846","name":"Tunceli","asciiname":"Tunceli","alternatenames":["Kalan","Mameki","Mamekiye","Mamekî","Mamiki","Tunceli","Tuncəli","Tundzheli","tnjyly","tong jie li","to~unjeri","tunjelli","twnjly","Тунджели","Тунджелі","تنجیلی","تونجلي","تونجلی","مامەکی","トゥンジェリ","通傑利","툰젤리"],"latitude":"39.09921","longitude":"39.54351","feature_class":"P","feature_code":"PPLA","country_code":"TR","cc2":"","admin1_code":"62","admin2_code":"","admin3_code":"","admin4_code":"","population":"29062","elevation":"","dem":"903","timezone":"Europe/Istanbul","modification_date":"2015-02-07"},{"geonameid":"298867","name":"Sütlüce","asciiname":"Sutluce","alternatenames":["Sutluce","Sütlüce","Tulluk","Tüllük"],"latitude":"39.16228","longitude":"39.544","feature_class":"P","feature_code":"PPLA3","country_code":"TR","cc2":"","admin1_code":"62","admin2_code":"","admin3_code":"","admin4_code":"","population":"0","elevation":"","dem":"1493","timezone":"Europe/Istanbul","modification_date":"2015-02-07"},{"geonameid":"298882","name":"Tufanbeyli","asciiname":"Tufanbeyli","alternatenames":["Hoket","Hoketce","Höket","Höketçe","Magara","Mağara","Tufanbejli","Tufanbeyli","Туфанбейли","ضلع توفانبیلی"],"latitude":"38.26333","longitude":"36.22056","feature_class":"P","feature_code":"PPLA2","country_code":"TR","cc2":"","admin1_code":"81","admin2_code":"","admin3_code":"","admin4_code":"","population":"5158","elevation":"","dem":"1427","timezone":"Europe/Istanbul","modification_date":"2012-01-18"},{"geonameid":"298935","name":"Torbalı","asciiname":"Torbali","alternatenames":["Tepekoey","Tepeköy","Torbali","Torbaly","Torbalı","Торбалы"],"latitude":"38.1519","longitude":"27.36223","feature_class":"P","feature_code":"PPL","country_code":"TR","cc2":"","admin1_code":"35","admin2_code":"","admin3_code":"","admin4_code":"","population":"50303","elevation":"","dem":"34","timezone":"Europe/Istanbul","modification_date":"2012-01-18"},{"geonameid":"298953","name":"Toptepe","asciiname":"Toptepe","alternatenames":["Nebil","Toptepe"],"latitude":"37.26103","longitude":"41.2493","feature_class":"P","feature_code":"PPL","country_code":"TR","cc2":"","admin1_code":"72","admin2_code":"","admin3_code":"","admin4_code":"","population":"1491","elevation":"","dem":"952","timezone":"Europe/Istanbul","modification_date":"2012-01-18"},{"geonameid":"298977","name":"Toprakkale","asciiname":"Toprakkale","alternatenames":["Toprakkale"],"latitude":"37.06855","longitude":"36.14661","feature_class":"P","feature_code":"PPLA2","country_code":"TR","cc2":"","admin1_code":"91","admin2_code":"","admin3_code":"","admin4_code":"","population":"8577","elevation":"","dem":"70","timezone":"Europe/Istanbul","modification_date":"2012-01-18"},{"geonameid":"299031","name":"Topaklı","asciiname":"Topakli","alternatenames":["Topakli","Topaklı"],"latitude":"39.00555","longitude":"34.82644","feature_class":"P","feature_code":"PPLA3","country_code":"TR","cc2":"","admin1_code":"50","admin2_code":"","admin3_code":"","admin4_code":"","population":"0","elevation":"","dem":"1206","timezone":"Europe/Istanbul","modification_date":"2013-09-08"},{"geonameid":"299044","name":"Tömük","asciiname":"Tomuk","alternatenames":["Elvanli","Elvanlı","Tomuk","Tömük"],"latitude":"36.68333","longitude":"34.36667","feature_class":"P","feature_code":"PPL","country_code":"TR","cc2":"TR","admin1_code":"32","admin2_code":"","admin3_code":"","admin4_code":"","population":"10964","elevation":"","dem":"121","timezone":"Europe/Istanbul","modification_date":"2013-05-05"},{"geonameid":"299054","name":"Tomarza","asciiname":"Tomarza","alternatenames":["Gostere","Goztere","Göstere","Tomarza"],"latitude":"38.44722","longitude":"35.79917","feature_class":"P","feature_code":"PPLA2","country_code":"TR","cc2":"","admin1_code":"38","admin2_code":"","admin3_code":"","admin4_code":"","population":"11753","elevation":"","dem":"1394","timezone":"Europe/Istanbul","modification_date":"2012-01-18"},{"geonameid":"299087","name":"Toklar","asciiname":"Toklar","alternatenames":["Toklar"],"latitude":"38.41806","longitude":"36.015","feature_class":"P","feature_code":"PPLA3","country_code":"TR","cc2":"","admin1_code":"38","admin2_code":"","admin3_code":"","admin4_code":"","population":"0","elevation":"","dem":"1449","timezone":"Europe/Istanbul","modification_date":"2013-09-08"},{"geonameid":"299137","name":"Tire","asciiname":"Tire","alternatenames":["Arcadiopolis","Teira","Teıra","Theda","Thireh","Tira","Tire","tyrh","تیره"],"latitude":"38.08877","longitude":"27.73508","feature_class":"P","feature_code":"PPLA2","country_code":"TR","cc2":"","admin1_code":"35","admin2_code":"","admin3_code":"","admin4_code":"","population":"47220","elevation":"","dem":"120","timezone":"Europe/Istanbul","modification_date":"2013-08-06"},{"geonameid":"299268","name":"Tercan","asciiname":"Tercan","alternatenames":["Mamahatun","Mamhatun","Tercan","trjan","ترجان"],"latitude":"39.77709","longitude":"40.37783","feature_class":"P","feature_code":"PPLA2","country_code":"TR","cc2":"","admin1_code":"24","admin2_code":"","admin3_code":"","admin4_code":"","population":"12235","elevation":"","dem":"1412","timezone":"Europe/Istanbul","modification_date":"2015-02-07"},{"geonameid":"299272","name":"Telminar","asciiname":"Telminar","alternatenames":["Habap","Telmimar","Telminar","Tepeustu","Tepeüstü"],"latitude":"37.11092","longitude":"41.38396","feature_class":"P","feature_code":"PPL","country_code":"TR","cc2":"","admin1_code":"72","admin2_code":"","admin3_code":"","admin4_code":"","population":"1441","elevation":"","dem":"505","timezone":"Europe/Istanbul","modification_date":"2012-01-18"},{"geonameid":"299317","name":"Tepehan","asciiname":"Tepehan","alternatenames":["Sinan","Tepehan"],"latitude":"38.11417","longitude":"38.73222","feature_class":"P","feature_code":"PPLA3","country_code":"TR","cc2":"","admin1_code":"44","admin2_code":"","admin3_code":"","admin4_code":"","population":"0","elevation":"","dem":"1365","timezone":"Europe/Istanbul","modification_date":"2013-09-08"},{"geonameid":"299327","name":"Tepecikören","asciiname":"Tepecikoren","alternatenames":["Tepecikoren","Tepecikören"],"latitude":"37.36135","longitude":"35.62627","feature_class":"P","feature_code":"PPLA3","country_code":"TR","cc2":"","admin1_code":"81","admin2_code":"","admin3_code":"","admin4_code":"","population":"0","elevation":"","dem":"172","timezone":"Europe/Istanbul","modification_date":"2013-09-08"},{"geonameid":"299345","name":"Tepecik","asciiname":"Tepecik","alternatenames":["Tepecik"],"latitude":"37.82358","longitude":"27.87496","feature_class":"P","feature_code":"PPL","country_code":"TR","cc2":"","admin1_code":"09","admin2_code":"","admin3_code":"","admin4_code":"","population":"3801","elevation":"","dem":"42","timezone":"Europe/Istanbul","modification_date":"2015-04-08"},{"geonameid":"299350","name":"Tepebaşı","asciiname":"Tepebasi","alternatenames":["Halimiye","Tepebasi","Tepebaşı"],"latitude":"36.66628","longitude":"32.72214","feature_class":"P","feature_code":"PPLA3","country_code":"TR","cc2":"","admin1_code":"78","admin2_code":"","admin3_code":"","admin4_code":"","population":"0","elevation":"","dem":"1059","timezone":"Europe/Istanbul","modification_date":"2013-09-08"},{"geonameid":"299354","name":"Tepealtı","asciiname":"Tepealti","alternatenames":["Telyakup","Tepealti","Tepealtı"],"latitude":"37.09476","longitude":"41.37049","feature_class":"P","feature_code":"PPL","country_code":"TR","cc2":"","admin1_code":"72","admin2_code":"","admin3_code":"","admin4_code":"","population":"1333","elevation":"","dem":"471","timezone":"Europe/Istanbul","modification_date":"2012-01-18"},{"geonameid":"299357","name":"Tepe","asciiname":"Tepe","alternatenames":["Behramki","Bekhramki","Tepe","Tepekey","Tepekoy","Tepekëy","Tepeköy"],"latitude":"37.79361","longitude":"40.77083","feature_class":"P","feature_code":"PPLA3","country_code":"TR","cc2":"","admin1_code":"21","admin2_code":"","admin3_code":"","admin4_code":"","population":"0","elevation":"","dem":"537","timezone":"Europe/Istanbul","modification_date":"2013-09-08"},{"geonameid":"299375","name":"Temelli","asciiname":"Temelli","alternatenames":["Samutlu","Temelli","Yukari Samutlu","Yukarı Samutlu"],"latitude":"39.7275","longitude":"32.35528","feature_class":"P","feature_code":"PPLA3","country_code":"TR","cc2":"","admin1_code":"68","admin2_code":"","admin3_code":"","admin4_code":"","population":"0","elevation":"","dem":"768","timezone":"Europe/Istanbul","modification_date":"2013-09-08"},{"geonameid":"299413","name":"Tekman","asciiname":"Tekman","alternatenames":["Takos","Tatos","Tekman"],"latitude":"39.64111","longitude":"41.50542","feature_class":"P","feature_code":"PPLA2","country_code":"TR","cc2":"","admin1_code":"25","admin2_code":"","admin3_code":"","admin4_code":"","population":"8270","elevation":"","dem":"1905","timezone":"Europe/Istanbul","modification_date":"2015-04-08"},{"geonameid":"299445","name":"Tekirova","asciiname":"Tekirova","alternatenames":["Celcikli","Celtikli","Phaselis","Tekirova","Tekrova","Tekróva","Çeltikli","Текирова"],"latitude":"36.5017","longitude":"30.52723","feature_class":"P","feature_code":"PPL","country_code":"TR","cc2":"TR","admin1_code":"07","admin2_code":"","admin3_code":"","admin4_code":"","population":"20000","elevation":"","dem":"11","timezone":"Europe/Istanbul","modification_date":"2008-11-15"},{"geonameid":"299499","name":"Tefenni","asciiname":"Tefenni","alternatenames":["Tefenni"],"latitude":"37.30968","longitude":"29.77538","feature_class":"P","feature_code":"PPLA2","country_code":"TR","cc2":"","admin1_code":"15","admin2_code":"","admin3_code":"","admin4_code":"","population":"5317","elevation":"","dem":"1162","timezone":"Europe/Istanbul","modification_date":"2012-02-02"},{"geonameid":"299504","name":"Tecirli","asciiname":"Tecirli","alternatenames":["Degirmenocagi","Değirmenocağı","Tecirli"],"latitude":"37.16183","longitude":"36.10978","feature_class":"P","feature_code":"PPLA3","country_code":"TR","cc2":"","admin1_code":"91","admin2_code":"","admin3_code":"","admin4_code":"","population":"0","elevation":"","dem":"47","timezone":"Europe/Istanbul","modification_date":"2013-09-08"},{"geonameid":"299545","name":"Tavşanlı","asciiname":"Tavsanli","alternatenames":["Taushanli","Tavsanli","Tavşanlı"],"latitude":"39.54237","longitude":"29.49866","feature_class":"P","feature_code":"PPLA2","country_code":"TR","cc2":"","admin1_code":"43","admin2_code":"","admin3_code":"","admin4_code":"","population":"52182","elevation":"","dem":"859","timezone":"Europe/Istanbul","modification_date":"2013-08-06"},{"geonameid":"299575","name":"Tavas","asciiname":"Tavas","alternatenames":["Tavas","Yarangum","Yarangume","Yarangüm","Yarangüme","ta wa si","tawas","Тавас","تاواس","ضلع تاوواس","塔瓦斯"],"latitude":"37.57351","longitude":"29.07058","feature_class":"P","feature_code":"PPLA2","country_code":"TR","cc2":"","admin1_code":"20","admin2_code":"","admin3_code":"","admin4_code":"","population":"11584","elevation":"","dem":"948","timezone":"Europe/Istanbul","modification_date":"2013-08-06"},{"geonameid":"299582","name":"Tatvan","asciiname":"Tatvan","alternatenames":["Tatvan","Татван"],"latitude":"38.50667","longitude":"42.28167","feature_class":"P","feature_code":"PPLA2","country_code":"TR","cc2":"","admin1_code":"13","admin2_code":"","admin3_code":"","admin4_code":"","population":"73222","elevation":"","dem":"1662","timezone":"Europe/Istanbul","modification_date":"2012-01-18"},{"geonameid":"299643","name":"Taşucu","asciiname":"Tasucu","alternatenames":["Akiman","Balacale","Bolcali","Bolcalı","Bulacali","Holmi","Tasucu","Taşucu"],"latitude":"36.32489","longitude":"33.86023","feature_class":"P","feature_code":"PPLA3","country_code":"TR","cc2":"","admin1_code":"32","admin2_code":"","admin3_code":"","admin4_code":"","population":"0","elevation":"","dem":"227","timezone":"Europe/Istanbul","modification_date":"2013-09-08"},{"geonameid":"299658","name":"Taşpınar","asciiname":"Taspinar","alternatenames":["Taspinar","Taşpınar"],"latitude":"38.17963","longitude":"34.02499","feature_class":"P","feature_code":"PPLA3","country_code":"TR","cc2":"","admin1_code":"75","admin2_code":"","admin3_code":"","admin4_code":"","population":"0","elevation":"","dem":"1056","timezone":"Europe/Istanbul","modification_date":"2013-09-08"},{"geonameid":"299701","name":"Taşlıçay","asciiname":"Taslicay","alternatenames":["Asagitaslicay","Aşağıtaşlıçay","Taslicay","Taşlıçay"],"latitude":"39.62966","longitude":"43.36878","feature_class":"P","feature_code":"PPLA2","country_code":"TR","cc2":"","admin1_code":"04","admin2_code":"","admin3_code":"","admin4_code":"","population":"5477","elevation":"","dem":"1736","timezone":"Europe/Istanbul","modification_date":"2015-02-07"},{"geonameid":"299724","name":"Taşlı","asciiname":"Tasli","alternatenames":["Gundukevir","Guntkevir","Gyundyukevir","Gündükevir","Güntkevir","Tasli","Taşlı"],"latitude":"37.98699","longitude":"42.1351","feature_class":"P","feature_code":"PPL","country_code":"TR","cc2":"","admin1_code":"74","admin2_code":"","admin3_code":"","admin4_code":"","population":"1029","elevation":"","dem":"870","timezone":"Europe/Istanbul","modification_date":"2015-06-08"},{"geonameid":"299755","name":"Taşkent","asciiname":"Taskent","alternatenames":["Pirlerkondu","Taskent","Taşkent"],"latitude":"36.9243","longitude":"32.49131","feature_class":"P","feature_code":"PPLA2","country_code":"TR","cc2":"","admin1_code":"71","admin2_code":"","admin3_code":"","admin4_code":"","population":"11838","elevation":"","dem":"1542","timezone":"Europe/Istanbul","modification_date":"2012-01-18"},{"geonameid":"299785","name":"Taşdelen","asciiname":"Tasdelen","alternatenames":["Mutmur","Tasdelen","Taşdelen"],"latitude":"38.84426","longitude":"38.51167","feature_class":"P","feature_code":"PPLA3","country_code":"TR","cc2":"","admin1_code":"44","admin2_code":"","admin3_code":"","admin4_code":"","population":"0","elevation":"","dem":"1113","timezone":"Europe/Istanbul","modification_date":"2013-09-08"},{"geonameid":"299790","name":"Bakırdağı","asciiname":"Bakirdagi","alternatenames":["Bakirdagi","Bakırdağı","Tasci","Taşçı"],"latitude":"38.21597","longitude":"35.79021","feature_class":"P","feature_code":"PPLA3","country_code":"TR","cc2":"","admin1_code":"38","admin2_code":"","admin3_code":"","admin4_code":"","population":"0","elevation":"","dem":"1318","timezone":"Europe/Istanbul","modification_date":"2013-09-08"},{"geonameid":"299814","name":"Taşağıl","asciiname":"Tasagil","alternatenames":["Tasagil","Taşağıl"],"latitude":"36.9224","longitude":"31.23608","feature_class":"P","feature_code":"PPLA3","country_code":"TR","cc2":"","admin1_code":"07","admin2_code":"","admin3_code":"","admin4_code":"","population":"0","elevation":"","dem":"86","timezone":"Europe/Istanbul","modification_date":"2013-09-08"},{"geonameid":"299817","name":"Tarsus","asciiname":"Tarsus","alternatenames":["Antiochia ad Cydnum","Gorad Tarsus","Tars","Tarsas","Tarse","Tarso","Tarson","Tarsos","Tarsous","Tarsus","Tarsus i Mersin","Tersus","da shu","taleususeu","tarsws","tarususu","trsws","Ταρσός","Горад Тарсус","Тарс","Тарсус","Տարսոն","טרסוס","تارسوس","ضلع ٹارسس","طرسوس","タルスス","大數","타르수스"],"latitude":"36.91876","longitude":"34.8784","feature_class":"P","feature_code":"PPLA2","country_code":"TR","cc2":"","admin1_code":"32","admin2_code":"","admin3_code":"","admin4_code":"","population":"256482","elevation":"","dem":"28","timezone":"Europe/Istanbul","modification_date":"2012-01-18"},{"geonameid":"299840","name":"Taraksu","asciiname":"Taraksu","alternatenames":["Taraksu","Taraksukoyu","Taraksuköyü"],"latitude":"38.01667","longitude":"39.08333","feature_class":"P","feature_code":"PPLA3","country_code":"TR","cc2":"","admin1_code":"02","admin2_code":"","admin3_code":"","admin4_code":"","population":"0","elevation":"","dem":"603","timezone":"Europe/Istanbul","modification_date":"2013-09-08"},{"geonameid":"299858","name":"Tanyeri","asciiname":"Tanyeri","alternatenames":["Tanyeri"],"latitude":"39.61137","longitude":"39.83151","feature_class":"P","feature_code":"PPLA3","country_code":"TR","cc2":"","admin1_code":"24","admin2_code":"","admin3_code":"","admin4_code":"","population":"0","elevation":"","dem":"1221","timezone":"Europe/Istanbul","modification_date":"2013-09-08"},{"geonameid":"299873","name":"Tanır","asciiname":"Tanir","alternatenames":["Tanir","Tanır"],"latitude":"38.41944","longitude":"36.91222","feature_class":"P","feature_code":"PPLA3","country_code":"TR","cc2":"","admin1_code":"46","admin2_code":"","admin3_code":"","admin4_code":"","population":"0","elevation":"","dem":"1239","timezone":"Europe/Istanbul","modification_date":"2013-09-08"},{"geonameid":"299900","name":"Talas","asciiname":"Talas","alternatenames":["Tafas","Talas","Талас"],"latitude":"38.6908","longitude":"35.5538","feature_class":"P","feature_code":"PPLA2","country_code":"TR","cc2":"","admin1_code":"38","admin2_code":"","admin3_code":"","admin4_code":"","population":"36890","elevation":"","dem":"1153","timezone":"Europe/Istanbul","modification_date":"2012-01-18"},{"geonameid":"299930","name":"Tahtaköprü","asciiname":"Tahtakopru","alternatenames":["Tahtakopru","Tahtaköprü"],"latitude":"39.95","longitude":"29.65","feature_class":"P","feature_code":"PPLA3","country_code":"TR","cc2":"","admin1_code":"16","admin2_code":"","admin3_code":"","admin4_code":"","population":"1575","elevation":"","dem":"578","timezone":"Europe/Istanbul","modification_date":"2013-09-08"},{"geonameid":"299958","name":"Tahir","asciiname":"Tahir","alternatenames":["Tahir"],"latitude":"39.85586","longitude":"42.42834","feature_class":"P","feature_code":"PPLA3","country_code":"TR","cc2":"","admin1_code":"04","admin2_code":"","admin3_code":"","admin4_code":"","population":"0","elevation":"","dem":"2129","timezone":"Europe/Istanbul","modification_date":"2015-04-08"},{"geonameid":"300015","name":"Suvarlı","asciiname":"Suvarli","alternatenames":["Suvarli","Suvarlı"],"latitude":"37.53867","longitude":"37.6321","feature_class":"P","feature_code":"PPLA3","country_code":"TR","cc2":"","admin1_code":"02","admin2_code":"","admin3_code":"","admin4_code":"","population":"0","elevation":"","dem":"979","timezone":"Europe/Istanbul","modification_date":"2013-09-08"},{"geonameid":"300027","name":"Şenocak","asciiname":"Senocak","alternatenames":["Senocak","Shuti","Suti","Şenocak","Şuti"],"latitude":"37.65136","longitude":"40.69531","feature_class":"P","feature_code":"PPL","country_code":"TR","cc2":"","admin1_code":"72","admin2_code":"","admin3_code":"","admin4_code":"","population":"1576","elevation":"","dem":"809","timezone":"Europe/Istanbul","modification_date":"2012-01-18"},{"geonameid":"300030","name":"Pavlu Cebel","asciiname":"Pavlu Cebel","alternatenames":["Pavlu Cebel","Sutculer","Sütçüler"],"latitude":"37.50058","longitude":"30.94777","feature_class":"P","feature_code":"PPLA2","country_code":"TR","cc2":"","admin1_code":"33","admin2_code":"","admin3_code":"","admin4_code":"","population":"3433","elevation":"","dem":"956","timezone":"Europe/Istanbul","modification_date":"2012-02-28"},{"geonameid":"300058","name":"Susurluk","asciiname":"Susurluk","alternatenames":["Firt","Fırt","Susigirlik","Susughirli","Susugurlu","Susurluk","Susığırlık"],"latitude":"39.91361","longitude":"28.15778","feature_class":"P","feature_code":"PPLA2","country_code":"TR","cc2":"","admin1_code":"10","admin2_code":"","admin3_code":"","admin4_code":"","population":"24816","elevation":"","dem":"55","timezone":"Europe/Istanbul","modification_date":"2013-06-05"},{"geonameid":"300075","name":"Suruç","asciiname":"Suruc","alternatenames":["Suruc","Suruch","Suruç","Syuryuch","Суруч"],"latitude":"36.97612","longitude":"38.42533","feature_class":"P","feature_code":"PPLA2","country_code":"TR","cc2":"","admin1_code":"63","admin2_code":"","admin3_code":"","admin4_code":"","population":"46694","elevation":"","dem":"499","timezone":"Europe/Istanbul","modification_date":"2015-02-07"},{"geonameid":"300087","name":"Avine","asciiname":"Avine","alternatenames":["Avine","Surgucu","Syurgyudzhyu","Sürgücü"],"latitude":"37.585","longitude":"40.73722","feature_class":"P","feature_code":"PPLA3","country_code":"TR","cc2":"","admin1_code":"72","admin2_code":"","admin3_code":"","admin4_code":"","population":"4139","elevation":"","dem":"855","timezone":"Europe/Istanbul","modification_date":"2013-09-08"},{"geonameid":"300091","name":"Sürgü","asciiname":"Surgu","alternatenames":["Surgu","Sürgü"],"latitude":"38.01243","longitude":"37.96848","feature_class":"P","feature_code":"PPLA3","country_code":"TR","cc2":"","admin1_code":"44","admin2_code":"","admin3_code":"","admin4_code":"","population":"0","elevation":"","dem":"1347","timezone":"Europe/Istanbul","modification_date":"2013-09-08"},{"geonameid":"300141","name":"Sulusaray","asciiname":"Sulusaray","alternatenames":["Ciftlik","Sulusaray","Çiftlik"],"latitude":"39.99389","longitude":"36.08404","feature_class":"P","feature_code":"PPLA2","country_code":"TR","cc2":"","admin1_code":"60","admin2_code":"","admin3_code":"","admin4_code":"","population":"4037","elevation":"","dem":"1037","timezone":"Europe/Istanbul","modification_date":"2012-01-18"},{"geonameid":"300155","name":"Sülüklü","asciiname":"Suluklu","alternatenames":["Suluklu","Sülüklü"],"latitude":"38.88111","longitude":"32.3425","feature_class":"P","feature_code":"PPLA3","country_code":"TR","cc2":"","admin1_code":"71","admin2_code":"","admin3_code":"","admin4_code":"","population":"0","elevation":"","dem":"1031","timezone":"Europe/Istanbul","modification_date":"2013-09-08"},{"geonameid":"300164","name":"Suluçem","asciiname":"Sulucem","alternatenames":["Musun","Sulucem","Suluçem"],"latitude":"39.69386","longitude":"43.81472","feature_class":"P","feature_code":"PPLA3","country_code":"TR","cc2":"","admin1_code":"04","admin2_code":"","admin3_code":"","admin4_code":"","population":"0","elevation":"","dem":"1750","timezone":"Europe/Istanbul","modification_date":"2013-09-08"},{"geonameid":"300195","name":"Sultanhisar","asciiname":"Sultanhisar","alternatenames":["Sultanhisar"],"latitude":"37.88989","longitude":"28.15436","feature_class":"P","feature_code":"PPLA2","country_code":"TR","cc2":"","admin1_code":"09","admin2_code":"","admin3_code":"","admin4_code":"","population":"6259","elevation":"","dem":"89","timezone":"Europe/Istanbul","modification_date":"2015-04-06"},{"geonameid":"300197","name":"Sultanhanı","asciiname":"Sultanhani","alternatenames":["Sultanhani","Sultanhanı"],"latitude":"38.2471","longitude":"33.54961","feature_class":"P","feature_code":"PPLA3","country_code":"TR","cc2":"","admin1_code":"75","admin2_code":"","admin3_code":"","admin4_code":"","population":"0","elevation":"","dem":"945","timezone":"Europe/Istanbul","modification_date":"2013-09-08"},{"geonameid":"300201","name":"Sultandağı","asciiname":"Sultandagi","alternatenames":["Isakli","Ishakli","Sultandagi","Sultandağı","İsaklı","İshaklı"],"latitude":"38.53111","longitude":"31.22806","feature_class":"P","feature_code":"PPLA2","country_code":"TR","cc2":"","admin1_code":"03","admin2_code":"","admin3_code":"","admin4_code":"","population":"7550","elevation":"","dem":"1017","timezone":"Europe/Istanbul","modification_date":"2012-04-05"},{"geonameid":"300225","name":"Süleymanlı","asciiname":"Suleymanli","alternatenames":["Suleymanli","Süleymanlı","Zeytunfirnis","Zeytünfırnıs"],"latitude":"37.87528","longitude":"36.83167","feature_class":"P","feature_code":"PPLA3","country_code":"TR","cc2":"","admin1_code":"46","admin2_code":"","admin3_code":"","admin4_code":"","population":"0","elevation":"","dem":"889","timezone":"Europe/Istanbul","modification_date":"2013-09-08"},{"geonameid":"300257","name":"Sulak","asciiname":"Sulak","alternatenames":["Bafi","Sulak"],"latitude":"37.41342","longitude":"41.96114","feature_class":"P","feature_code":"PPL","country_code":"TR","cc2":"","admin1_code":"80","admin2_code":"","admin3_code":"","admin4_code":"","population":"1433","elevation":"","dem":"696","timezone":"Europe/Istanbul","modification_date":"2014-10-01"},{"geonameid":"300258","name":"Sulak","asciiname":"Sulak","alternatenames":["Mihrip","Nehrip","Nekhrip","Nihrip","Sulak"],"latitude":"37.29458","longitude":"42.13637","feature_class":"P","feature_code":"PPL","country_code":"TR","cc2":"","admin1_code":"80","admin2_code":"","admin3_code":"","admin4_code":"","population":"1433","elevation":"","dem":"513","timezone":"Europe/Istanbul","modification_date":"2014-10-01"},{"geonameid":"300273","name":"Şuhut","asciiname":"Suhut","alternatenames":["Suhut","Şuhut"],"latitude":"38.53111","longitude":"30.54583","feature_class":"P","feature_code":"PPLA2","country_code":"TR","cc2":"","admin1_code":"03","admin2_code":"","admin3_code":"","admin4_code":"","population":"13842","elevation":"","dem":"1138","timezone":"Europe/Istanbul","modification_date":"2012-04-05"},{"geonameid":"300352","name":"Sorgun","asciiname":"Sorgun","alternatenames":["Buyukkohne","Büyükköhne","Kohne","Köhne","Sorgun","Sorgune","Yesilova","Yeşilova","Соргуне"],"latitude":"39.81012","longitude":"35.18596","feature_class":"P","feature_code":"PPLA2","country_code":"TR","cc2":"","admin1_code":"66","admin2_code":"","admin3_code":"","admin4_code":"","population":"62862","elevation":"","dem":"1079","timezone":"Europe/Istanbul","modification_date":"2012-01-18"},{"geonameid":"300371","name":"Soma","asciiname":"Soma","alternatenames":["Germe","Soma","Somy","Сомы"],"latitude":"39.18554","longitude":"27.60945","feature_class":"P","feature_code":"PPLA2","country_code":"TR","cc2":"","admin1_code":"45","admin2_code":"","admin3_code":"","admin4_code":"","population":"65934","elevation":"","dem":"155","timezone":"Europe/Istanbul","modification_date":"2013-08-06"},{"geonameid":"300377","name":"Solhan","asciiname":"Solhan","alternatenames":["Boglan","Boğlan","Buglan","Solhan"],"latitude":"38.96525","longitude":"41.05443","feature_class":"P","feature_code":"PPLA2","country_code":"TR","cc2":"","admin1_code":"12","admin2_code":"","admin3_code":"","admin4_code":"","population":"15303","elevation":"","dem":"1356","timezone":"Europe/Istanbul","modification_date":"2015-02-07"},{"geonameid":"300399","name":"Söke","asciiname":"Soeke","alternatenames":["Sjoke","So'ke","Sok","Soke","Sokia","Söke","se kai","swkh","Сок","Соьке","Сёке","Сӧке","سوکه","瑟凱"],"latitude":"37.7482","longitude":"27.40614","feature_class":"P","feature_code":"PPL","country_code":"TR","cc2":"","admin1_code":"09","admin2_code":"","admin3_code":"","admin4_code":"","population":"68230","elevation":"38","dem":"42","timezone":"Europe/Istanbul","modification_date":"2011-09-21"},{"geonameid":"300430","name":"Söğütlü","asciiname":"Sogutlu","alternatenames":["Sogutlu","Söğütlü"],"latitude":"38.80019","longitude":"40.66971","feature_class":"P","feature_code":"PPLA2","country_code":"TR","cc2":"","admin1_code":"12","admin2_code":"","admin3_code":"","admin4_code":"","population":"0","elevation":"","dem":"1204","timezone":"Europe/Istanbul","modification_date":"2015-02-07"},{"geonameid":"300438","name":"Kindirip","asciiname":"Kindirip","alternatenames":["Kindirip","Sogutlu","Söğütlü"],"latitude":"37.44703","longitude":"41.22104","feature_class":"P","feature_code":"PPL","country_code":"TR","cc2":"","admin1_code":"72","admin2_code":"","admin3_code":"","admin4_code":"","population":"7798","elevation":"","dem":"985","timezone":"Europe/Istanbul","modification_date":"2012-01-18"},{"geonameid":"300468","name":"Söğüt","asciiname":"Sogut","alternatenames":["Sogut","Söğüt"],"latitude":"40.0143","longitude":"30.18486","feature_class":"P","feature_code":"PPLA2","country_code":"TR","cc2":"","admin1_code":"11","admin2_code":"","admin3_code":"","admin4_code":"","population":"0","elevation":"","dem":"690","timezone":"Europe/Istanbul","modification_date":"2012-05-06"},{"geonameid":"300593","name":"Sivrihisar","asciiname":"Sivrihisar","alternatenames":["Justinianapolis","Sivrihisar"],"latitude":"39.45037","longitude":"31.53409","feature_class":"P","feature_code":"PPLA2","country_code":"TR","cc2":"","admin1_code":"26","admin2_code":"","admin3_code":"","admin4_code":"","population":"10535","elevation":"","dem":"1090","timezone":"Europe/Istanbul","modification_date":"2012-04-05"},{"geonameid":"300601","name":"Sivrice","asciiname":"Sivrice","alternatenames":["Sivrice"],"latitude":"38.44816","longitude":"39.30845","feature_class":"P","feature_code":"PPLA2","country_code":"TR","cc2":"","admin1_code":"23","admin2_code":"","admin3_code":"","admin4_code":"","population":"5481","elevation":"","dem":"1279","timezone":"Europe/Istanbul","modification_date":"2013-08-06"},{"geonameid":"300603","name":"Sivrice","asciiname":"Sivrice","alternatenames":["Sivrice"],"latitude":"37.27731","longitude":"41.33727","feature_class":"P","feature_code":"PPL","country_code":"TR","cc2":"","admin1_code":"72","admin2_code":"","admin3_code":"","admin4_code":"","population":"1467","elevation":"","dem":"953","timezone":"Europe/Istanbul","modification_date":"2012-01-18"},{"geonameid":"300614","name":"Siverek","asciiname":"Siverek","alternatenames":["Severek","Siverek","Sivereke","Suverek","Сивереке"],"latitude":"37.75503","longitude":"39.31667","feature_class":"P","feature_code":"PPLA2","country_code":"TR","cc2":"","admin1_code":"63","admin2_code":"","admin3_code":"","admin4_code":"","population":"175341","elevation":"","dem":"787","timezone":"Europe/Istanbul","modification_date":"2012-01-18"},{"geonameid":"300616","name":"Sivaslı","asciiname":"Sivasli","alternatenames":["Sivasli","Sivaslı"],"latitude":"38.49944","longitude":"29.68361","feature_class":"P","feature_code":"PPLA2","country_code":"TR","cc2":"","admin1_code":"64","admin2_code":"","admin3_code":"","admin4_code":"","population":"7378","elevation":"","dem":"942","timezone":"Europe/Istanbul","modification_date":"2013-08-06"},{"geonameid":"300619","name":"Sivas","asciiname":"Sivas","alternatenames":["Gorad Sivas","Megalopolis","Sebastea","Sebastia","Sevas","Sevasteia","Sewas","Sivas","Sivasas","Siwas","Sêwas","VAS","sibaseu","sivasi","su~ivu~asu","sywas","sywws","xi wa si","Σεβάστεια","Горад Сівас","Сивас","Сівас","Սեբաստիա","סיווס","سيواس","سیواس","سێواس","სივასი","スィヴァス","錫瓦斯","시바스"],"latitude":"39.74833","longitude":"37.01611","feature_class":"P","feature_code":"PPLA","country_code":"TR","cc2":"","admin1_code":"58","admin2_code":"","admin3_code":"","admin4_code":"","population":"264022","elevation":"","dem":"1287","timezone":"Europe/Istanbul","modification_date":"2012-08-08"},{"geonameid":"300632","name":"Şirvan","asciiname":"Sirvan","alternatenames":["Kufra","Kufre","Küfre","Sirvan","Şirvan"],"latitude":"38.0624","longitude":"42.02918","feature_class":"P","feature_code":"PPLA2","country_code":"TR","cc2":"","admin1_code":"74","admin2_code":"","admin3_code":"","admin4_code":"","population":"5510","elevation":"","dem":"1000","timezone":"Europe/Istanbul","modification_date":"2012-01-18"},{"geonameid":"300635","name":"Tililan","asciiname":"Tililan","alternatenames":["Sirtkoy","Sırtköy","Telila","Telilâ","Tilila","Tililan"],"latitude":"37.37428","longitude":"42.03386","feature_class":"P","feature_code":"PPL","country_code":"TR","cc2":"","admin1_code":"80","admin2_code":"","admin3_code":"","admin4_code":"","population":"3372","elevation":"","dem":"615","timezone":"Europe/Istanbul","modification_date":"2013-08-05"},{"geonameid":"300640","name":"Şırnak","asciiname":"Sirnak","alternatenames":["Shirnak","Sirnak","Şırnak","Ширнак"],"latitude":"37.51393","longitude":"42.45432","feature_class":"P","feature_code":"PPLA","country_code":"TR","cc2":"","admin1_code":"80","admin2_code":"","admin3_code":"","admin4_code":"","population":"52743","elevation":"","dem":"1269","timezone":"Europe/Istanbul","modification_date":"2014-10-01"},{"geonameid":"300732","name":"Sındırgı","asciiname":"Sindirgi","alternatenames":["Korukoy","Koruköy","Sindirgi","Sındırgı"],"latitude":"39.24128","longitude":"28.17842","feature_class":"P","feature_code":"PPLA2","country_code":"TR","cc2":"","admin1_code":"10","admin2_code":"","admin3_code":"","admin4_code":"","population":"10907","elevation":"","dem":"220","timezone":"Europe/Istanbul","modification_date":"2013-06-05"},{"geonameid":"300734","name":"Yenice","asciiname":"Yenice","alternatenames":["Kurtgokozu","Kürtgökozü","Sindiran","Sındıran","Yenice"],"latitude":"39.27528","longitude":"32.68028","feature_class":"P","feature_code":"PPLA3","country_code":"TR","cc2":"","admin1_code":"68","admin2_code":"","admin3_code":"","admin4_code":"","population":"0","elevation":"","dem":"1177","timezone":"Europe/Istanbul","modification_date":"2013-09-08"},{"geonameid":"300743","name":"Sincik","asciiname":"Sincik","alternatenames":["Sincik"],"latitude":"38.03675","longitude":"38.61487","feature_class":"P","feature_code":"PPLA2","country_code":"TR","cc2":"","admin1_code":"02","admin2_code":"","admin3_code":"","admin4_code":"","population":"7152","elevation":"","dem":"1325","timezone":"Europe/Istanbul","modification_date":"2012-01-18"},{"geonameid":"300750","name":"Sincan","asciiname":"Sincan","alternatenames":["Sincan"],"latitude":"39.47167","longitude":"37.87083","feature_class":"P","feature_code":"PPLA3","country_code":"TR","cc2":"","admin1_code":"58","admin2_code":"","admin3_code":"","admin4_code":"","population":"0","elevation":"","dem":"1225","timezone":"Europe/Istanbul","modification_date":"2013-09-08"},{"geonameid":"300754","name":"Sincanlı","asciiname":"Sincanli","alternatenames":["Sinanpasa","Sinanpaşa","Sincanli","Sincanlı"],"latitude":"38.74444","longitude":"30.24278","feature_class":"P","feature_code":"PPLA2","country_code":"TR","cc2":"","admin1_code":"03","admin2_code":"","admin3_code":"","admin4_code":"","population":"5940","elevation":"","dem":"1121","timezone":"Europe/Istanbul","modification_date":"2013-08-06"},{"geonameid":"300767","name":"Sinanköy","asciiname":"Sinankoy","alternatenames":["Salat","Sinan","Sinankoy","Sinanköy"],"latitude":"37.86264","longitude":"40.99367","feature_class":"P","feature_code":"PPL","country_code":"TR","cc2":"","admin1_code":"21","admin2_code":"","admin3_code":"","admin4_code":"","population":"1726","elevation":"","dem":"535","timezone":"Europe/Istanbul","modification_date":"2012-01-18"},{"geonameid":"300791","name":"Simav","asciiname":"Simav","alternatenames":["Simav","Synaus"],"latitude":"39.0882","longitude":"28.97767","feature_class":"P","feature_code":"PPLA2","country_code":"TR","cc2":"","admin1_code":"43","admin2_code":"","admin3_code":"","admin4_code":"","population":"34909","elevation":"","dem":"826","timezone":"Europe/Istanbul","modification_date":"2013-08-06"},{"geonameid":"300796","name":"Silvan","asciiname":"Silvan","alternatenames":["Miyafarkin","Sil'van","Silvan","Сильван"],"latitude":"38.13708","longitude":"41.00817","feature_class":"P","feature_code":"PPLA2","country_code":"TR","cc2":"","admin1_code":"21","admin2_code":"","admin3_code":"","admin4_code":"","population":"65956","elevation":"","dem":"810","timezone":"Europe/Istanbul","modification_date":"2015-02-07"},{"geonameid":"300797","name":"Silopi","asciiname":"Silopi","alternatenames":["Girgimac","Girgimaç","Girikamo","Girikoma","Sil'opi","Silopi","Sil’opi","Силопи"],"latitude":"37.24379","longitude":"42.46345","feature_class":"P","feature_code":"PPLA2","country_code":"TR","cc2":"","admin1_code":"80","admin2_code":"","admin3_code":"","admin4_code":"","population":"74798","elevation":"","dem":"492","timezone":"Europe/Istanbul","modification_date":"2014-10-01"},{"geonameid":"300799","name":"Sille","asciiname":"Sille","alternatenames":["Sille"],"latitude":"37.92731","longitude":"32.41995","feature_class":"P","feature_code":"PPLA3","country_code":"TR","cc2":"","admin1_code":"71","admin2_code":"","admin3_code":"","admin4_code":"","population":"0","elevation":"","dem":"1177","timezone":"Europe/Istanbul","modification_date":"2013-09-08"},{"geonameid":"300808","name":"Silifke","asciiname":"Silifke","alternatenames":["Selefke","Selefkeh","Seleucia","Seleucia ad Calycadnum","Silifka","Silifke","Sılıfka","shirifuke","slwkyh","sylyfky","xi li fu kai","Силифке","سلوکیه","سيليفكى","ضلع سلیفکے","シリフケ","錫利夫凱"],"latitude":"36.37778","longitude":"33.93444","feature_class":"P","feature_code":"PPLA2","country_code":"TR","cc2":"","admin1_code":"32","admin2_code":"","admin3_code":"","admin4_code":"","population":"75315","elevation":"","dem":"17","timezone":"Europe/Istanbul","modification_date":"2012-01-18"},{"geonameid":"300822","name":"Siirt","asciiname":"Siirt","alternatenames":["Gorad Siirt","SXZ","Sairt","Sert","Sgerd","Siirt","Sirt","Sirtas","Sêrt","siileuteu","siirti","su~iiruto","syrt","xi er te","Горад Сіірт","Сиирт","Сирт","Сіїрт","Սղերդ","سعرد","سیرت","سێرت","სიირთი","スィイルト","錫爾特","시이르트"],"latitude":"37.9293","longitude":"41.94134","feature_class":"P","feature_code":"PPLA","country_code":"TR","cc2":"","admin1_code":"74","admin2_code":"","admin3_code":"","admin4_code":"","population":"114034","elevation":"","dem":"893","timezone":"Europe/Istanbul","modification_date":"2015-06-13"},{"geonameid":"300920","name":"Seyitgazi","asciiname":"Seyitgazi","alternatenames":["Seyitgazi"],"latitude":"39.44472","longitude":"30.69472","feature_class":"P","feature_code":"PPLA2","country_code":"TR","cc2":"","admin1_code":"26","admin2_code":"","admin3_code":"","admin4_code":"","population":"3284","elevation":"","dem":"983","timezone":"Europe/Istanbul","modification_date":"2013-07-06"},{"geonameid":"300997","name":"Seyhan","asciiname":"Seyhan","alternatenames":["Sejg'an","Sejkhan","Seyhan","syhan","Сейгьан","Сейхан","سيحان","ضلع سیحان"],"latitude":"36.98747","longitude":"35.30592","feature_class":"P","feature_code":"PPLA2","country_code":"TR","cc2":"","admin1_code":"81","admin2_code":"","admin3_code":"","admin4_code":"","population":"0","elevation":"","dem":"23","timezone":"Europe/Istanbul","modification_date":"2012-01-18"},{"geonameid":"301010","name":"Seydişehir","asciiname":"Seydisehir","alternatenames":["Seydisehir","Seydişehir"],"latitude":"37.41926","longitude":"31.84527","feature_class":"P","feature_code":"PPLA2","country_code":"TR","cc2":"","admin1_code":"71","admin2_code":"","admin3_code":"","admin4_code":"","population":"51089","elevation":"","dem":"1127","timezone":"Europe/Istanbul","modification_date":"2012-01-18"},{"geonameid":"301043","name":"Sevinç","asciiname":"Sevinc","alternatenames":["Sevinc","Sevinc Koy","Sevinç","Sevinç Köy"],"latitude":"39.78","longitude":"30.68889","feature_class":"P","feature_code":"PPL","country_code":"TR","cc2":"","admin1_code":"26","admin2_code":"","admin3_code":"","admin4_code":"","population":"1281","elevation":"831","dem":"787","timezone":"Europe/Istanbul","modification_date":"2014-02-18"},{"geonameid":"301064","name":"Servi","asciiname":"Servi","alternatenames":["Servi"],"latitude":"38.57038","longitude":"40.32004","feature_class":"P","feature_code":"PPLA3","country_code":"TR","cc2":"","admin1_code":"12","admin2_code":"","admin3_code":"","admin4_code":"","population":"0","elevation":"","dem":"1071","timezone":"Europe/Istanbul","modification_date":"2015-07-03"},{"geonameid":"301089","name":"Serinyol","asciiname":"Serinyol","alternatenames":["Batirga","Bedirge","Serinyol"],"latitude":"36.36139","longitude":"36.21361","feature_class":"P","feature_code":"PPLA3","country_code":"TR","cc2":"","admin1_code":"31","admin2_code":"","admin3_code":"","admin4_code":"","population":"16753","elevation":"","dem":"122","timezone":"Europe/Istanbul","modification_date":"2013-09-08"},{"geonameid":"301101","name":"Serik","asciiname":"Serik","alternatenames":["Kokes","Koles","Kukes","Kükes","Serik","sai li ke","sryq","Серик","سریق","塞里克"],"latitude":"36.91694","longitude":"31.09889","feature_class":"P","feature_code":"PPLA2","country_code":"TR","cc2":"","admin1_code":"07","admin2_code":"","admin3_code":"","admin4_code":"","population":"36925","elevation":"","dem":"28","timezone":"Europe/Istanbul","modification_date":"2012-01-18"},{"geonameid":"301116","name":"Şereflikoçhisar","asciiname":"Sereflikochisar","alternatenames":["Kochisar","Koçhisar","Serefli","Sereflikochisar","Shereflikochkhisar","xie lei fu li ke qi xi sa er","Şerefli","Şereflikoçhisar","Шерефликочхисар","ШерефликъочхӀисар","شرفلی قوچ‌حصار","ضلع شیریفلیکوچیسار","謝雷夫利科奇希薩爾"],"latitude":"38.93925","longitude":"33.5386","feature_class":"P","feature_code":"PPL","country_code":"TR","cc2":"","admin1_code":"68","admin2_code":"","admin3_code":"","admin4_code":"","population":"44101","elevation":"","dem":"948","timezone":"Europe/Istanbul","modification_date":"2010-08-03"},{"geonameid":"301158","name":"Şenyurt","asciiname":"Senyurt","alternatenames":["Derbesie","Derbesiye","Senyurt","Shen"],"latitude":"37.07887","longitude":"40.64408","feature_class":"P","feature_code":"PPLA3","country_code":"TR","cc2":"","admin1_code":"72","admin2_code":"","admin3_code":"","admin4_code":"","population":"1950","elevation":"","dem":"472","timezone":"Europe/Istanbul","modification_date":"2013-09-08"},{"geonameid":"305429","name":"Kuruçay","asciiname":"Kurucay","alternatenames":["Kurucay","Kuruçay"],"latitude":"39.64024","longitude":"38.47422","feature_class":"P","feature_code":"PPLA3","country_code":"TR","cc2":"","admin1_code":"24","admin2_code":"","admin3_code":"","admin4_code":"","population":"0","elevation":"","dem":"1056","timezone":"Europe/Istanbul","modification_date":"2013-09-08"},{"geonameid":"305510","name":"Kurthasanlı","asciiname":"Kurthasanli","alternatenames":["Kurthasanli","Kurthasanlı"],"latitude":"38.32611","longitude":"32.17528","feature_class":"P","feature_code":"PPLA3","country_code":"TR","cc2":"","admin1_code":"71","admin2_code":"","admin3_code":"","admin4_code":"","population":"0","elevation":"","dem":"1029","timezone":"Europe/Istanbul","modification_date":"2013-09-08"},{"geonameid":"305532","name":"Kurtalan","asciiname":"Kurtalan","alternatenames":["Kurtalan","Misirdic","Misric","Mısrıç"],"latitude":"37.92533","longitude":"41.68493","feature_class":"P","feature_code":"PPLA2","country_code":"TR","cc2":"","admin1_code":"74","admin2_code":"","admin3_code":"","admin4_code":"","population":"32114","elevation":"","dem":"715","timezone":"Europe/Istanbul","modification_date":"2015-06-08"},{"geonameid":"305542","name":"Kurşunlu","asciiname":"Kursunlu","alternatenames":["Kursunlu","Kurşunlu"],"latitude":"38.66","longitude":"37.8525","feature_class":"P","feature_code":"PPLA3","country_code":"TR","cc2":"","admin1_code":"44","admin2_code":"","admin3_code":"","admin4_code":"","population":"0","elevation":"","dem":"1514","timezone":"Europe/Istanbul","modification_date":"2013-09-08"},{"geonameid":"305569","name":"Sarıkavak","asciiname":"Sarikavak","alternatenames":["Kozak","Kurkcu","Kürkçü","Sarikavak","Sarıkavak"],"latitude":"36.58127","longitude":"33.64299","feature_class":"P","feature_code":"PPLA3","country_code":"TR","cc2":"","admin1_code":"32","admin2_code":"","admin3_code":"","admin4_code":"","population":"0","elevation":"","dem":"747","timezone":"Europe/Istanbul","modification_date":"2013-09-08"},{"geonameid":"305680","name":"Beykonak","asciiname":"Beykonak","alternatenames":[""],"latitude":"36.32573","longitude":"30.30302","feature_class":"P","feature_code":"PPL","country_code":"TR","cc2":"","admin1_code":"07","admin2_code":"","admin3_code":"","admin4_code":"","population":"30339","elevation":"","dem":"1","timezone":"Europe/Istanbul","modification_date":"2011-12-07"},{"geonameid":"305681","name":"Kumluca","asciiname":"Kumluca","alternatenames":["Kumluca"],"latitude":"36.37028","longitude":"30.28694","feature_class":"P","feature_code":"PPLA2","country_code":"TR","cc2":"","admin1_code":"07","admin2_code":"","admin3_code":"","admin4_code":"","population":"0","elevation":"","dem":"36","timezone":"Europe/Istanbul","modification_date":"2012-02-02"},{"geonameid":"305685","name":"Kumlu","asciiname":"Kumlu","alternatenames":["Dekok","Dikuk","Dikük","Dukuk","Dükük","Kumlu"],"latitude":"37.1725","longitude":"40.73472","feature_class":"P","feature_code":"PPL","country_code":"TR","cc2":"","admin1_code":"72","admin2_code":"","admin3_code":"","admin4_code":"","population":"1274","elevation":"","dem":"521","timezone":"Europe/Istanbul","modification_date":"2012-01-18"},{"geonameid":"305686","name":"Kumlu","asciiname":"Kumlu","alternatenames":["Iskan","Kumlu"],"latitude":"36.36353","longitude":"36.45502","feature_class":"P","feature_code":"PPLA2","country_code":"TR","cc2":"","admin1_code":"31","admin2_code":"","admin3_code":"","admin4_code":"","population":"0","elevation":"","dem":"91","timezone":"Europe/Istanbul","modification_date":"2012-01-18"},{"geonameid":"305690","name":"Kumköy","asciiname":"Kumkoey","alternatenames":[""],"latitude":"36.88286","longitude":"30.95178","feature_class":"P","feature_code":"PPL","country_code":"TR","cc2":"","admin1_code":"07","admin2_code":"7732195","admin3_code":"","admin4_code":"","population":"1074","elevation":"","dem":"3","timezone":"Europe/Istanbul","modification_date":"2013-11-16"},{"geonameid":"305697","name":"Kumdanlı","asciiname":"Kumdanli","alternatenames":["Hoyran","Kumdanli","Kumdanlı"],"latitude":"38.3239","longitude":"30.9764","feature_class":"P","feature_code":"PPLA3","country_code":"TR","cc2":"","admin1_code":"33","admin2_code":"","admin3_code":"","admin4_code":"","population":"0","elevation":"","dem":"1012","timezone":"Europe/Istanbul","modification_date":"2013-09-08"},{"geonameid":"305699","name":"Kumçatı","asciiname":"Kumcati","alternatenames":["Dergul","Dergyul'","Dergyul’","Dergül","Kumcati","Kumçatı"],"latitude":"37.46594","longitude":"42.28791","feature_class":"P","feature_code":"PPL","country_code":"TR","cc2":"","admin1_code":"80","admin2_code":"","admin3_code":"","admin4_code":"","population":"5005","elevation":"","dem":"514","timezone":"Europe/Istanbul","modification_date":"2014-10-01"},{"geonameid":"305737","name":"Kuluncak","asciiname":"Kuluncak","alternatenames":["Kuluncak"],"latitude":"38.88278","longitude":"37.67278","feature_class":"P","feature_code":"PPLA2","country_code":"TR","cc2":"","admin1_code":"44","admin2_code":"","admin3_code":"","admin4_code":"","population":"8495","elevation":"","dem":"1301","timezone":"Europe/Istanbul","modification_date":"2013-07-06"},{"geonameid":"305742","name":"Kulu","asciiname":"Kulu","alternatenames":["Kulu"],"latitude":"39.09513","longitude":"33.07989","feature_class":"P","feature_code":"PPLA2","country_code":"TR","cc2":"","admin1_code":"71","admin2_code":"","admin3_code":"","admin4_code":"","population":"47037","elevation":"","dem":"983","timezone":"Europe/Istanbul","modification_date":"2012-01-18"},{"geonameid":"305750","name":"Kulp","asciiname":"Kulp","alternatenames":["Kulp"],"latitude":"38.49754","longitude":"41.00668","feature_class":"P","feature_code":"PPLA2","country_code":"TR","cc2":"","admin1_code":"21","admin2_code":"","admin3_code":"","admin4_code":"","population":"26569","elevation":"","dem":"998","timezone":"Europe/Istanbul","modification_date":"2015-02-07"},{"geonameid":"305810","name":"Kula","asciiname":"Kula","alternatenames":["Kovla","Kul","Kula","Opsicium","Кул"],"latitude":"38.54726","longitude":"28.64976","feature_class":"P","feature_code":"PPLA2","country_code":"TR","cc2":"","admin1_code":"45","admin2_code":"7910589","admin3_code":"","admin4_code":"","population":"31100","elevation":"","dem":"671","timezone":"Europe/Istanbul","modification_date":"2013-08-06"},{"geonameid":"305859","name":"Kotum","asciiname":"Kotum","alternatenames":["Kotom","Kotum","Kucuksu","Küçüksu"],"latitude":"38.44098","longitude":"42.32069","feature_class":"P","feature_code":"PPLA3","country_code":"TR","cc2":"","admin1_code":"13","admin2_code":"","admin3_code":"","admin4_code":"","population":"0","elevation":"","dem":"1729","timezone":"Europe/Istanbul","modification_date":"2013-09-08"},{"geonameid":"305894","name":"Küçükkuyu","asciiname":"Kucukkuyu","alternatenames":["Kucukkuyu","Küçükkuyu"],"latitude":"39.54889","longitude":"26.60528","feature_class":"P","feature_code":"PPLA3","country_code":"TR","cc2":"","admin1_code":"17","admin2_code":"7732344","admin3_code":"","admin4_code":"","population":"0","elevation":"","dem":"14","timezone":"Europe/Istanbul","modification_date":"2013-09-08"},