{"region_data":{"countryId":"2287781","adminCode1":"82","countryName":"Ivory Coast","fclName":"country, state, region,...","countryCode":"CI","lng":"-4.28333","fcodeName":"first-order administrative division","toponymName":"Lagunes","fcl":"A","numberOfChildren":9,"name":"Lagunes","fcode":"ADM1","geonameId":2597316,"lat":"5.86667","adminName1":"Lagunes","population":0},"country_data":{"ISO":"CI","ISO3":"CIV","ISO_Numeric":"384","fips":"IV","country":"Ivory Coast","capital":"Yamoussoukro","area":"322460","Population":"21058798","Continent":"AF","tld":".ci","CurrencyCode":"XOF","CurrencyName":"Franc","Phone":"225","Postal_Code_Format":"","Postal_Code_Regex":"","Languages":"fr-CI","geonameid":"2287781","neighbours":"LR,GH,GN,BF,ML","EquivalentFipsCode":""},"cities":[{"geonameid":"2280761","name":"Tiassalé","asciiname":"Tiassale","alternatenames":["Tiassale","Tiassalé"],"latitude":"5.89839","longitude":"-4.82293","feature_class":"P","feature_code":"PPL","country_code":"CI","cc2":"","admin1_code":"82","admin2_code":"","admin3_code":"","admin4_code":"","population":"35090","elevation":"","dem":"29","timezone":"Africa/Abidjan","modification_date":"2012-02-28"},{"geonameid":"2287778","name":"Jacqueville","asciiname":"Jacqueville","alternatenames":["Half Jack","Jackville","Jacqueville","Jaqueville"],"latitude":"5.20515","longitude":"-4.4146","feature_class":"P","feature_code":"PPLA2","country_code":"CI","cc2":"","admin1_code":"82","admin2_code":"","admin3_code":"","admin4_code":"","population":"0","elevation":"","dem":"12","timezone":"Africa/Abidjan","modification_date":"2012-01-17"},{"geonameid":"2288105","name":"Grand-Lahou","asciiname":"Grand-Lahou","alternatenames":["Grand Lahu","Grand-Lahou"],"latitude":"5.13553","longitude":"-5.02396","feature_class":"P","feature_code":"PPL","country_code":"CI","cc2":"","admin1_code":"82","admin2_code":"","admin3_code":"","admin4_code":"","population":"10273","elevation":"","dem":"6","timezone":"Africa/Abidjan","modification_date":"2014-01-10"},{"geonameid":"2288118","name":"Affery","asciiname":"Affery","alternatenames":["Aferi","Affery","Aféri","Grand Aferi","Grand Aféri"],"latitude":"6.32035","longitude":"-3.95235","feature_class":"P","feature_code":"PPL","country_code":"CI","cc2":"","admin1_code":"82","admin2_code":"","admin3_code":"","admin4_code":"","population":"29909","elevation":"","dem":"106","timezone":"Africa/Abidjan","modification_date":"2014-01-10"},{"geonameid":"2290582","name":"Dabou","asciiname":"Dabou","alternatenames":["Dab","Dabou","Dabu","Даб"],"latitude":"5.32556","longitude":"-4.37685","feature_class":"P","feature_code":"PPL","country_code":"CI","cc2":"","admin1_code":"82","admin2_code":"","admin3_code":"","admin4_code":"","population":"69661","elevation":"","dem":"21","timezone":"Africa/Abidjan","modification_date":"2014-01-21"},{"geonameid":"2291580","name":"Bingerville","asciiname":"Bingerville","alternatenames":["Bingerville"],"latitude":"5.35581","longitude":"-3.88537","feature_class":"P","feature_code":"PPLA2","country_code":"CI","cc2":"","admin1_code":"82","admin2_code":"","admin3_code":"","admin4_code":"","population":"50694","elevation":"","dem":"59","timezone":"Africa/Abidjan","modification_date":"2012-02-28"},{"geonameid":"2292531","name":"Azaguié","asciiname":"Azaguie","alternatenames":["Azaguie","Azaguié"],"latitude":"5.62984","longitude":"-4.08204","feature_class":"P","feature_code":"PPLA2","country_code":"CI","cc2":"","admin1_code":"82","admin2_code":"","admin3_code":"","admin4_code":"","population":"0","elevation":"","dem":"81","timezone":"Africa/Abidjan","modification_date":"2014-01-10"},{"geonameid":"2292852","name":"Anyama","asciiname":"Anyama","alternatenames":["An'jame","Aniama","Anyama","Anyama Sossokoua","Аньяме"],"latitude":"5.49462","longitude":"-4.05183","feature_class":"P","feature_code":"PPLA2","country_code":"CI","cc2":"","admin1_code":"82","admin2_code":"","admin3_code":"","admin4_code":"","population":"100653","elevation":"","dem":"95","timezone":"Africa/Abidjan","modification_date":"2012-01-17"},{"geonameid":"2293045","name":"Alépé","asciiname":"Alepe","alternatenames":["Alepe","Alépé","Little Alepe"],"latitude":"5.5004","longitude":"-3.66308","feature_class":"P","feature_code":"PPLA2","country_code":"CI","cc2":"","admin1_code":"82","admin2_code":"","admin3_code":"","admin4_code":"","population":"0","elevation":"","dem":"13","timezone":"Africa/Abidjan","modification_date":"2012-01-17"},{"geonameid":"2293107","name":"Akoupé","asciiname":"Akoupe","alternatenames":["Akoupe","Akoupé","Akupe"],"latitude":"6.38423","longitude":"-3.88759","feature_class":"P","feature_code":"PPL","country_code":"CI","cc2":"","admin1_code":"82","admin2_code":"","admin3_code":"","admin4_code":"","population":"35970","elevation":"","dem":"142","timezone":"Africa/Abidjan","modification_date":"2014-01-10"},{"geonameid":"2293342","name":"Adzopé","asciiname":"Adzope","alternatenames":["Adzope","Adzopé","Адзопе"],"latitude":"6.10694","longitude":"-3.86194","feature_class":"P","feature_code":"PPL","country_code":"CI","cc2":"","admin1_code":"82","admin2_code":"","admin3_code":"","admin4_code":"","population":"61884","elevation":"","dem":"109","timezone":"Africa/Abidjan","modification_date":"2014-01-10"},{"geonameid":"2293521","name":"Abobo","asciiname":"Abobo","alternatenames":["Abobo","Abobo-Gare"],"latitude":"5.41613","longitude":"-4.0159","feature_class":"P","feature_code":"PPL","country_code":"CI","cc2":"","admin1_code":"82","admin2_code":"","admin3_code":"","admin4_code":"","population":"900000","elevation":"","dem":"105","timezone":"Africa/Abidjan","modification_date":"2012-02-28"},{"geonameid":"2293538","name":"Abidjan","asciiname":"Abidjan","alternatenames":["ABJ","Abican","Abidjan","Abidzan","Abidzana","Abidzanas","Abidzans","Abidzhan","Abidżan","Abidžan","Abidžana","Abidžanas","Abidžans","Abigano","Abijan","Abiyan","Abiyán","Abizhan khot","Abiĝano","Ampitzan","Gorad Abidzhan","a bi rang","a bi shang","abdjan","abijan","abijana","abijang","abijani","abydjan","abyjan","xabi can","ʼbydgʼn","Αμπιτζάν","Абиджан","Абижан хот","Абиџан","Абіджан","Горад Абіджан","Աբիջան","אבידגאן","אבידזשאן","آبدجان","آبیجان","أبيدجان","आबिजान","আবিজান","ਅਬੀਜਾਨ","അബിജാൻ","อาบีจาน","აბიჯანი","アビジャン","阿必尚","阿比让","아비장"],"latitude":"5.30966","longitude":"-4.01266","feature_class":"P","feature_code":"PPLA","country_code":"CI","cc2":"","admin1_code":"82","admin2_code":"","admin3_code":"","admin4_code":"","population":"3677115","elevation":"","dem":"10","timezone":"Africa/Abidjan","modification_date":"2012-02-28"},{"geonameid":"2596951","name":"Agou","asciiname":"Agou","alternatenames":["Agou"],"latitude":"5.98289","longitude":"-3.94393","feature_class":"P","feature_code":"PPLA2","country_code":"CI","cc2":"","admin1_code":"82","admin2_code":"","admin3_code":"","admin4_code":"","population":"0","elevation":"","dem":"93","timezone":"Africa/Abidjan","modification_date":"2014-01-15"},{"geonameid":"8536562","name":"Songon","asciiname":"Songon","alternatenames":[""],"latitude":"5.3196","longitude":"-4.25415","feature_class":"P","feature_code":"PPLA2","country_code":"CI","cc2":"","admin1_code":"82","admin2_code":"","admin3_code":"","admin4_code":"","population":"0","elevation":"","dem":"19","timezone":"Africa/Abidjan","modification_date":"2013-06-05"}]}