{"region_data":{"countryId":"1814991","adminCode1":"18","countryName":"China","fclName":"country, state, region,...","countryCode":"CN","lng":"107","fcodeName":"first-order administrative division","toponymName":"Guizhou Sheng","fcl":"A","numberOfChildren":9,"name":"Guizhou Sheng","fcode":"ADM1","geonameId":1809445,"lat":"27","adminName1":"Guizhou Sheng","population":37930000},"country_data":{"ISO":"CN","ISO3":"CHN","ISO_Numeric":"156","fips":"CH","country":"China","capital":"Beijing","area":"9596960","Population":"1330044000","Continent":"AS","tld":".cn","CurrencyCode":"CNY","CurrencyName":"Yuan Renminbi","Phone":"86","Postal_Code_Format":"######","Postal_Code_Regex":"^(\\d{6})$","Languages":"zh-CN,yue,wuu,dta,ug,za","geonameid":"1814991","neighbours":"LA,BT,TJ,KZ,MN,AF,NP,MM,KG,PK,KP,RU,VN,IN","EquivalentFipsCode":""},"cities":[{"geonameid":"1550084","name":"Youyupu","asciiname":"Youyupu","alternatenames":["Youyupu","Yu-yu-p'u","Yu-yü-p’u","you yu pu","鱿鱼铺"],"latitude":"27.5517","longitude":"109.135","feature_class":"P","feature_code":"PPL","country_code":"CN","cc2":"","admin1_code":"18","admin2_code":"","admin3_code":"","admin4_code":"","population":"1124","elevation":"","dem":"714","timezone":"Asia/Shanghai","modification_date":"2015-02-05"},{"geonameid":"1550143","name":"Zhujiachang","asciiname":"Zhujiachang","alternatenames":["Chu-chia-ch'ang","Chu-chia-ch’ang","Zhujiachang"],"latitude":"27.3575","longitude":"108.93833","feature_class":"P","feature_code":"PPL","country_code":"CN","cc2":"CN","admin1_code":"18","admin2_code":"","admin3_code":"","admin4_code":"","population":"1295","elevation":"","dem":"508","timezone":"Asia/Shanghai","modification_date":"2012-01-16"},{"geonameid":"1550222","name":"Xujiaba","asciiname":"Xujiaba","alternatenames":["Hsu-chia-pa","Hsü-chia-pa","Xujiaba"],"latitude":"27.88472","longitude":"108.11361","feature_class":"P","feature_code":"PPL","country_code":"CN","cc2":"CN","admin1_code":"18","admin2_code":"","admin3_code":"","admin4_code":"","population":"3989","elevation":"","dem":"589","timezone":"Asia/Shanghai","modification_date":"2012-01-16"},{"geonameid":"1550413","name":"Pingtou","asciiname":"Pingtou","alternatenames":["Pingtou","Pingtou Xiang","ping tou","ping tou xiang","平头","平头乡"],"latitude":"28.03507","longitude":"109.0678","feature_class":"P","feature_code":"PPLA4","country_code":"CN","cc2":"","admin1_code":"18","admin2_code":"","admin3_code":"","admin4_code":"","population":"0","elevation":"","dem":"430","timezone":"Asia/Shanghai","modification_date":"2013-05-07"},{"geonameid":"1550415","name":"Changping","asciiname":"Changping","alternatenames":["Changping","Changping Xiang","Wuga","wu ga","zhang ping","zhang ping xiang","务旮","长坪","长坪乡"],"latitude":"28.09861","longitude":"109.2755","feature_class":"P","feature_code":"PPLA4","country_code":"CN","cc2":"","admin1_code":"18","admin2_code":"","admin3_code":"","admin4_code":"","population":"0","elevation":"","dem":"759","timezone":"Asia/Shanghai","modification_date":"2013-05-07"},{"geonameid":"1550418","name":"Jiujiang","asciiname":"Jiujiang","alternatenames":["Jiujiang","Jiujiang Zhen","jiu jiang","jiu jiang zhen","九江","九江镇"],"latitude":"28.1675","longitude":"109.12773","feature_class":"P","feature_code":"PPLA4","country_code":"CN","cc2":"","admin1_code":"18","admin2_code":"","admin3_code":"","admin4_code":"","population":"0","elevation":"","dem":"437","timezone":"Asia/Shanghai","modification_date":"2013-05-07"},{"geonameid":"1550419","name":"Miao’ai","asciiname":"Miao'ai","alternatenames":["Miao'ai","Miao'ai Xiang","Miao’ai","Miao’ai Xiang","miao ai","miao ai xiang","妙隘","妙隘乡"],"latitude":"28.17376","longitude":"109.02154","feature_class":"P","feature_code":"PPLA4","country_code":"CN","cc2":"","admin1_code":"18","admin2_code":"","admin3_code":"","admin4_code":"","population":"0","elevation":"","dem":"420","timezone":"Asia/Shanghai","modification_date":"2013-05-07"},{"geonameid":"1550426","name":"Mushu","asciiname":"Mushu","alternatenames":["Mushu","Mushu Xiang","mu shu","mu shu xiang","木树","木树乡"],"latitude":"28.38333","longitude":"109.25972","feature_class":"P","feature_code":"PPLA4","country_code":"CN","cc2":"","admin1_code":"18","admin2_code":"","admin3_code":"","admin4_code":"","population":"0","elevation":"","dem":"395","timezone":"Asia/Shanghai","modification_date":"2013-05-07"},{"geonameid":"1550428","name":"Yajia","asciiname":"Yajia","alternatenames":["Yajia","Yajia Zhen","ya jia","ya jia zhen","迓驾","迓驾镇"],"latitude":"28.45482","longitude":"109.18426","feature_class":"P","feature_code":"PPLA4","country_code":"CN","cc2":"","admin1_code":"18","admin2_code":"","admin3_code":"","admin4_code":"","population":"0","elevation":"","dem":"406","timezone":"Asia/Shanghai","modification_date":"2013-05-07"},{"geonameid":"1550431","name":"Xinye","asciiname":"Xinye","alternatenames":["Xinye","Xinye Xiang","xin ye","xin ye xiang","新业","新业乡"],"latitude":"28.03972","longitude":"108.69389","feature_class":"P","feature_code":"PPLA4","country_code":"CN","cc2":"","admin1_code":"18","admin2_code":"","admin3_code":"","admin4_code":"","population":"0","elevation":"","dem":"830","timezone":"Asia/Shanghai","modification_date":"2013-05-07"},{"geonameid":"1550441","name":"Kuanping","asciiname":"Kuanping","alternatenames":["Kuanping","Kuanping Tujiazu Miaozu Xiang","kuan ping","kuan ping tu jia zu miao zu xiang","宽坪","宽坪土家族苗族乡"],"latitude":"28.02454","longitude":"108.01702","feature_class":"P","feature_code":"PPLA4","country_code":"CN","cc2":"","admin1_code":"18","admin2_code":"","admin3_code":"","admin4_code":"","population":"0","elevation":"","dem":"790","timezone":"Asia/Shanghai","modification_date":"2013-05-07"},{"geonameid":"1550443","name":"Lengshuixi","asciiname":"Lengshuixi","alternatenames":["Lengshuixi","Lengshuixi Xiang","leng shui xi","leng shui xi xiang","冷水溪","冷水溪乡"],"latitude":"28.14215","longitude":"108.86807","feature_class":"P","feature_code":"PPLA4","country_code":"CN","cc2":"","admin1_code":"18","admin2_code":"","admin3_code":"","admin4_code":"","population":"0","elevation":"","dem":"524","timezone":"Asia/Shanghai","modification_date":"2013-05-07"},{"geonameid":"1550448","name":"Shanshu","asciiname":"Shanshu","alternatenames":["Shanshu","Shanshu Xiang","Shanshu'ao","Shanshu’ao","shan shu","shan shu xiang","杉树","杉树乡"],"latitude":"28.11139","longitude":"108.41139","feature_class":"P","feature_code":"PPLA4","country_code":"CN","cc2":"","admin1_code":"18","admin2_code":"","admin3_code":"","admin4_code":"","population":"0","elevation":"","dem":"657","timezone":"Asia/Shanghai","modification_date":"2013-05-07"},{"geonameid":"1550452","name":"Donghua","asciiname":"Donghua","alternatenames":["Donghua","Donghua Tujiazu Miaozu Xiang","Donghuaxi","dong hua","dong hua tu jia zu miao zu xiang","dong hua xi","东华","东华土家族苗族乡","东华溪"],"latitude":"28.07994","longitude":"108.08821","feature_class":"P","feature_code":"PPLA4","country_code":"CN","cc2":"","admin1_code":"18","admin2_code":"","admin3_code":"","admin4_code":"","population":"0","elevation":"","dem":"702","timezone":"Asia/Shanghai","modification_date":"2013-05-07"},{"geonameid":"1550453","name":"Hexing","asciiname":"Hexing","alternatenames":["Hexing","Hexing Tujiazu Xiang","Puziwan","he xing","he xing tu jia zu xiang","pu zi wan","合兴","合兴土家族乡","铺子湾"],"latitude":"28.10154","longitude":"108.06233","feature_class":"P","feature_code":"PPLA4","country_code":"CN","cc2":"","admin1_code":"18","admin2_code":"","admin3_code":"","admin4_code":"","population":"0","elevation":"","dem":"756","timezone":"Asia/Shanghai","modification_date":"2013-05-07"},{"geonameid":"1550455","name":"Shiliang","asciiname":"Shiliang","alternatenames":["Shiliang","Shiliang Xiang","shi liang","shi liang xiang","石梁","石梁乡"],"latitude":"28.17288","longitude":"108.75172","feature_class":"P","feature_code":"PPLA4","country_code":"CN","cc2":"","admin1_code":"18","admin2_code":"","admin3_code":"","admin4_code":"","population":"0","elevation":"","dem":"829","timezone":"Asia/Shanghai","modification_date":"2013-05-07"},{"geonameid":"1550468","name":"Changbao","asciiname":"Changbao","alternatenames":["Changbao","Changbao Tujiazu Xiang","zhang bao","zhang bao tu jia zu xiang","长堡","长堡土家族乡"],"latitude":"28.18972","longitude":"108.27806","feature_class":"P","feature_code":"PPLA4","country_code":"CN","cc2":"","admin1_code":"18","admin2_code":"","admin3_code":"","admin4_code":"","population":"0","elevation":"","dem":"357","timezone":"Asia/Shanghai","modification_date":"2013-05-07"},{"geonameid":"1550470","name":"Yong’an","asciiname":"Yong'an","alternatenames":["Yong'an","Yong'an Xiang","Yong’an","Yong’an Xiang","yong an","yong an xiang","永安","永安乡"],"latitude":"28.24161","longitude":"108.67492","feature_class":"P","feature_code":"PPLA4","country_code":"CN","cc2":"","admin1_code":"18","admin2_code":"","admin3_code":"","admin4_code":"","population":"0","elevation":"","dem":"664","timezone":"Asia/Shanghai","modification_date":"2013-05-07"},{"geonameid":"1550471","name":"Daoba","asciiname":"Daoba","alternatenames":["Daoba","Daoba Xiang","dao ba","dao ba xiang","刀坝","刀坝乡"],"latitude":"28.24019","longitude":"108.5849","feature_class":"P","feature_code":"PPLA4","country_code":"CN","cc2":"","admin1_code":"18","admin2_code":"","admin3_code":"","admin4_code":"","population":"0","elevation":"","dem":"770","timezone":"Asia/Shanghai","modification_date":"2013-05-07"},{"geonameid":"1550475","name":"Yantang","asciiname":"Yantang","alternatenames":["Meiziba","Yantang","Yantang Tujiazu Xiang","mei zi ba","yan tang","yan tang tu jia zu xiang","堰塘","堰塘土家族乡","梅子坝"],"latitude":"28.22392","longitude":"108.10548","feature_class":"P","feature_code":"PPLA4","country_code":"CN","cc2":"","admin1_code":"18","admin2_code":"","admin3_code":"","admin4_code":"","population":"0","elevation":"","dem":"727","timezone":"Asia/Shanghai","modification_date":"2013-05-07"},{"geonameid":"1550482","name":"Qianjia","asciiname":"Qianjia","alternatenames":["Qianjia","Qianjia Tujiazu Xiang","Waduanliang","qian jia","qian jia tu jia zu xiang","wa duan liang","挖断梁","钱家","钱家土家族乡"],"latitude":"28.29684","longitude":"108.07583","feature_class":"P","feature_code":"PPLA4","country_code":"CN","cc2":"","admin1_code":"18","admin2_code":"","admin3_code":"","admin4_code":"","population":"0","elevation":"","dem":"488","timezone":"Asia/Shanghai","modification_date":"2013-05-07"},{"geonameid":"1550486","name":"Jiashi","asciiname":"Jiashi","alternatenames":["Jiashi","Jiashi Zhen","jia shi","jia shi zhen","夹石","夹石镇"],"latitude":"28.33332","longitude":"108.33134","feature_class":"P","feature_code":"PPLA4","country_code":"CN","cc2":"","admin1_code":"18","admin2_code":"","admin3_code":"","admin4_code":"","population":"0","elevation":"","dem":"451","timezone":"Asia/Shanghai","modification_date":"2013-05-07"},{"geonameid":"1550491","name":"Jingjiao","asciiname":"Jingjiao","alternatenames":["Jingjiao","Jingjiao Tujiazu Xiang","jing jiao","jing jiao tu jia zu xiang","荆角","荆角土家族乡"],"latitude":"28.36667","longitude":"108.18333","feature_class":"P","feature_code":"PPLA4","country_code":"CN","cc2":"","admin1_code":"18","admin2_code":"","admin3_code":"","admin4_code":"","population":"0","elevation":"","dem":"478","timezone":"Asia/Shanghai","modification_date":"2013-05-07"},{"geonameid":"1550492","name":"Waxi","asciiname":"Waxi","alternatenames":["Dalu","Waxi","Waxi Xiang","da lu","wa xi","wa xi xiang","大路","瓦溪","瓦溪乡"],"latitude":"28.44297","longitude":"108.67983","feature_class":"P","feature_code":"PPLA4","country_code":"CN","cc2":"","admin1_code":"18","admin2_code":"","admin3_code":"","admin4_code":"","population":"0","elevation":"","dem":"554","timezone":"Asia/Shanghai","modification_date":"2013-05-07"},{"geonameid":"1550493","name":"Zhongjie","asciiname":"Zhongjie","alternatenames":["Zhongjie","Zhongjie Xiang","zhong jie","zhong jie xiang","中界","中界乡"],"latitude":"28.4639","longitude":"108.54468","feature_class":"P","feature_code":"PPLA4","country_code":"CN","cc2":"","admin1_code":"18","admin2_code":"","admin3_code":"","admin4_code":"","population":"0","elevation":"","dem":"519","timezone":"Asia/Shanghai","modification_date":"2013-05-07"},{"geonameid":"1550497","name":"Shichao","asciiname":"Shichao","alternatenames":["Shichao","Shichao Xiang","shi chao","shi chao xiang","石朝","石朝乡"],"latitude":"28.40971","longitude":"108.04015","feature_class":"P","feature_code":"PPLA4","country_code":"CN","cc2":"","admin1_code":"18","admin2_code":"","admin3_code":"","admin4_code":"","population":"0","elevation":"","dem":"1186","timezone":"Asia/Shanghai","modification_date":"2013-05-07"},{"geonameid":"1550506","name":"Qinglong","asciiname":"Qinglong","alternatenames":["Dejiang Xian","Qinglong","de jiang xian","qing long","德江县","青龙"],"latitude":"28.26291","longitude":"108.11234","feature_class":"P","feature_code":"PPLA3","country_code":"CN","cc2":"","admin1_code":"18","admin2_code":"","admin3_code":"","admin4_code":"","population":"0","elevation":"","dem":"519","timezone":"Asia/Shanghai","modification_date":"2013-05-07"},{"geonameid":"1550507","name":"Quanba","asciiname":"Quanba","alternatenames":["Quanba","Quanba Xiang","quan ba","quan ba xiang","泉坝","泉坝乡"],"latitude":"28.52081","longitude":"108.191","feature_class":"P","feature_code":"PPLA4","country_code":"CN","cc2":"","admin1_code":"18","admin2_code":"","admin3_code":"","admin4_code":"","population":"0","elevation":"","dem":"986","timezone":"Asia/Shanghai","modification_date":"2013-05-07"},{"geonameid":"1550513","name":"Zhongzhai","asciiname":"Zhongzhai","alternatenames":["Zhayouwan","Zhongzhai","Zhongzhai Xiang","zha you wan","zhong zhai","zhong zhai xiang","中寨","中寨乡","炸油湾"],"latitude":"28.58116","longitude":"108.16545","feature_class":"P","feature_code":"PPLA4","country_code":"CN","cc2":"","admin1_code":"18","admin2_code":"","admin3_code":"","admin4_code":"","population":"0","elevation":"","dem":"830","timezone":"Asia/Shanghai","modification_date":"2013-05-07"},{"geonameid":"1550518","name":"Heita","asciiname":"Heita","alternatenames":["Heita","Heita Xiang","hei ta","hei ta xiang","黑獭","黑獭乡"],"latitude":"28.63155","longitude":"108.50707","feature_class":"P","feature_code":"PPLA4","country_code":"CN","cc2":"","admin1_code":"18","admin2_code":"","admin3_code":"","admin4_code":"","population":"0","elevation":"","dem":"429","timezone":"Asia/Shanghai","modification_date":"2013-05-07"},{"geonameid":"1550519","name":"Heishui","asciiname":"Heishui","alternatenames":["Heishui","Heishui Xiang","Heishuichang","hei shui","hei shui chang","hei shui xiang","黑水","黑水乡","黑水场"],"latitude":"28.59435","longitude":"108.43975","feature_class":"P","feature_code":"PPLA4","country_code":"CN","cc2":"","admin1_code":"18","admin2_code":"","admin3_code":"","admin4_code":"","population":"0","elevation":"","dem":"620","timezone":"Asia/Shanghai","modification_date":"2013-05-07"},{"geonameid":"1550525","name":"Hongsi","asciiname":"Hongsi","alternatenames":["Hongsi","Hongsi Xiang","hong si","hong si xiang","红丝","红丝乡"],"latitude":"28.72219","longitude":"108.11448","feature_class":"P","feature_code":"PPLA4","country_code":"CN","cc2":"","admin1_code":"18","admin2_code":"","admin3_code":"","admin4_code":"","population":"0","elevation":"","dem":"565","timezone":"Asia/Shanghai","modification_date":"2013-05-07"},{"geonameid":"1550529","name":"Xinjing","asciiname":"Xinjing","alternatenames":["Xinjing","Xinjing Xiang","xin jing","xin jing xiang","新景","新景乡"],"latitude":"28.88694","longitude":"108.29917","feature_class":"P","feature_code":"PPLA4","country_code":"CN","cc2":"","admin1_code":"18","admin2_code":"","admin3_code":"","admin4_code":"","population":"0","elevation":"","dem":"422","timezone":"Asia/Shanghai","modification_date":"2013-05-07"},{"geonameid":"1550533","name":"Maotian","asciiname":"Maotian","alternatenames":["Maotian","Maotian Zhen","mao tian","mao tian zhen","茅天","茅天镇"],"latitude":"28.94526","longitude":"108.08435","feature_class":"P","feature_code":"PPLA4","country_code":"CN","cc2":"","admin1_code":"18","admin2_code":"","admin3_code":"","admin4_code":"","population":"0","elevation":"","dem":"851","timezone":"Asia/Shanghai","modification_date":"2013-05-07"},{"geonameid":"1550536","name":"Gouping","asciiname":"Gouping","alternatenames":["Gouping","Gouping Xiang","gou ping","gou ping xiang","垢坪","垢坪乡"],"latitude":"28.98771","longitude":"108.14294","feature_class":"P","feature_code":"PPLA4","country_code":"CN","cc2":"","admin1_code":"18","admin2_code":"","admin3_code":"","admin4_code":"","population":"0","elevation":"","dem":"825","timezone":"Asia/Shanghai","modification_date":"2013-05-07"},{"geonameid":"1550562","name":"Maoya","asciiname":"Maoya","alternatenames":["Maoya","Maoya Zhen","mao ya","mao ya zhen","茅垭","茅垭镇"],"latitude":"28.09319","longitude":"107.16538","feature_class":"P","feature_code":"PPLA4","country_code":"CN","cc2":"","admin1_code":"18","admin2_code":"","admin3_code":"","admin4_code":"","population":"0","elevation":"","dem":"724","timezone":"Asia/Shanghai","modification_date":"2013-05-07"},{"geonameid":"1550567","name":"Xinjian","asciiname":"Xinjian","alternatenames":["Xinjian","Xinjian Xiang","Zhujiachang","xin jian","xin jian xiang","zhu jia chang","新建","新建乡","朱家场"],"latitude":"28.19048","longitude":"107.67284","feature_class":"P","feature_code":"PPLA4","country_code":"CN","cc2":"","admin1_code":"18","admin2_code":"","admin3_code":"","admin4_code":"","population":"0","elevation":"","dem":"838","timezone":"Asia/Shanghai","modification_date":"2013-05-07"},{"geonameid":"1550569","name":"Xihe","asciiname":"Xihe","alternatenames":["Xihe","Xihe Xiang","xi he","xi he xiang","西河","西河乡"],"latitude":"28.15236","longitude":"107.53144","feature_class":"P","feature_code":"PPLA4","country_code":"CN","cc2":"","admin1_code":"18","admin2_code":"","admin3_code":"","admin4_code":"","population":"0","elevation":"","dem":"953","timezone":"Asia/Shanghai","modification_date":"2013-05-07"},{"geonameid":"1550576","name":"Nangan","asciiname":"Nangan","alternatenames":["Nangan","Nangan Tujiazu Xiang","Xinjie","nan gan","nan gan tu jia zu xiang","xin jie","新街","楠杆","楠杆土家族乡"],"latitude":"28.27693","longitude":"107.88296","feature_class":"P","feature_code":"PPLA4","country_code":"CN","cc2":"","admin1_code":"18","admin2_code":"","admin3_code":"","admin4_code":"","population":"0","elevation":"","dem":"770","timezone":"Asia/Shanghai","modification_date":"2013-05-07"},{"geonameid":"1550579","name":"Shiping","asciiname":"Shiping","alternatenames":["Shiping","Shiping Miaozu Gelaozu Xiang","Yinbao","shi ping","shi ping miao zu ge lao zu xiang","yin bao","市坪","市坪苗族仡佬族乡","银堡"],"latitude":"28.27872","longitude":"107.60225","feature_class":"P","feature_code":"PPLA4","country_code":"CN","cc2":"","admin1_code":"18","admin2_code":"","admin3_code":"","admin4_code":"","population":"0","elevation":"","dem":"1047","timezone":"Asia/Shanghai","modification_date":"2013-05-07"},{"geonameid":"1550582","name":"Pingle","asciiname":"Pingle","alternatenames":["Dingjiabao","Pingle","Pingle Xiang","ding jia bao","ping le","ping le xiang","丁家堡","坪乐","坪乐乡"],"latitude":"28.21245","longitude":"107.4618","feature_class":"P","feature_code":"PPLA4","country_code":"CN","cc2":"","admin1_code":"18","admin2_code":"","admin3_code":"","admin4_code":"","population":"0","elevation":"","dem":"969","timezone":"Asia/Shanghai","modification_date":"2013-05-07"},{"geonameid":"1550589","name":"Shaxi","asciiname":"Shaxi","alternatenames":["Shaxi","Shaxi Tujiazu Xiang","Wanba","sha xi","sha xi tu jia zu xiang","wan ba","万坝","沙溪","沙溪土家族乡"],"latitude":"28.31752","longitude":"107.98894","feature_class":"P","feature_code":"PPLA4","country_code":"CN","cc2":"","admin1_code":"18","admin2_code":"","admin3_code":"","admin4_code":"","population":"0","elevation":"","dem":"1103","timezone":"Asia/Shanghai","modification_date":"2013-05-07"},{"geonameid":"1550611","name":"Hexi","asciiname":"Hexi","alternatenames":["Hexi","Hexi Zhen","he xi","he xi zhen","和溪","和溪镇"],"latitude":"28.45667","longitude":"107.43361","feature_class":"P","feature_code":"PPLA4","country_code":"CN","cc2":"","admin1_code":"18","admin2_code":"","admin3_code":"","admin4_code":"","population":"0","elevation":"","dem":"723","timezone":"Asia/Shanghai","modification_date":"2013-05-07"},{"geonameid":"1550621","name":"Banzhu","asciiname":"Banzhu","alternatenames":["Banzhu","Banzhu Xiang","Banzhuyuan","ban zhu","ban zhu xiang","ban zhu yuan","斑竹","斑竹乡","斑竹园"],"latitude":"28.57639","longitude":"107.61194","feature_class":"P","feature_code":"PPLA4","country_code":"CN","cc2":"","admin1_code":"18","admin2_code":"","admin3_code":"","admin4_code":"","population":"0","elevation":"","dem":"968","timezone":"Asia/Shanghai","modification_date":"2013-05-07"},{"geonameid":"1550623","name":"Jianping","asciiname":"Jianping","alternatenames":["Jianping","Jianping Xiang","jian ping","jian ping xiang","俭平","俭平乡"],"latitude":"28.51726","longitude":"107.49062","feature_class":"P","feature_code":"PPLA4","country_code":"CN","cc2":"","admin1_code":"18","admin2_code":"","admin3_code":"","admin4_code":"","population":"0","elevation":"","dem":"751","timezone":"Asia/Shanghai","modification_date":"2013-05-07"},{"geonameid":"1550629","name":"Huanglian","asciiname":"Huanglian","alternatenames":["Huanglian","Huanglian Xiang","Huanglianba","huang lian","huang lian ba","huang lian xiang","黄连","黄连乡","黄连坝"],"latitude":"28.48833","longitude":"107.00806","feature_class":"P","feature_code":"PPLA4","country_code":"CN","cc2":"","admin1_code":"18","admin2_code":"","admin3_code":"","admin4_code":"","population":"0","elevation":"","dem":"1672","timezone":"Asia/Shanghai","modification_date":"2013-05-07"},{"geonameid":"1550643","name":"Nigao","asciiname":"Nigao","alternatenames":["Nigao","Nigao Xiang","ni gao","ni gao xiang","泥高","泥高乡"],"latitude":"28.69175","longitude":"107.80745","feature_class":"P","feature_code":"PPLA4","country_code":"CN","cc2":"","admin1_code":"18","admin2_code":"","admin3_code":"","admin4_code":"","population":"0","elevation":"","dem":"1163","timezone":"Asia/Shanghai","modification_date":"2013-05-07"},{"geonameid":"1550646","name":"Zongping","asciiname":"Zongping","alternatenames":["Zongping","Zongping Xiang","zong ping","zong ping xiang","棕坪","棕平乡"],"latitude":"28.67295","longitude":"107.65374","feature_class":"P","feature_code":"PPLA4","country_code":"CN","cc2":"","admin1_code":"18","admin2_code":"","admin3_code":"","admin4_code":"","population":"0","elevation":"","dem":"754","timezone":"Asia/Shanghai","modification_date":"2013-05-07"},{"geonameid":"1550650","name":"Yangxing","asciiname":"Yangxing","alternatenames":["Yangxing","Yangxing Zhen","yang xing","yang xing zhen","杨兴","杨兴镇"],"latitude":"28.70972","longitude":"107.38643","feature_class":"P","feature_code":"PPLA4","country_code":"CN","cc2":"","admin1_code":"18","admin2_code":"","admin3_code":"","admin4_code":"","population":"0","elevation":"","dem":"641","timezone":"Asia/Shanghai","modification_date":"2013-05-07"},{"geonameid":"1550651","name":"Bifeng","asciiname":"Bifeng","alternatenames":["Bifeng","Bifeng Xiang","Xiabachang","bi feng","bi feng xiang","xia ba chang","下坝场","碧峰","碧峰乡"],"latitude":"28.69795","longitude":"107.33962","feature_class":"P","feature_code":"PPLA4","country_code":"CN","cc2":"","admin1_code":"18","admin2_code":"","admin3_code":"","admin4_code":"","population":"0","elevation":"","dem":"627","timezone":"Asia/Shanghai","modification_date":"2013-05-07"},{"geonameid":"1550671","name":"Pingmu","asciiname":"Pingmu","alternatenames":["Pingmu","Pingmu Zhen","ping mo","ping mo zhen","平模","平模镇"],"latitude":"28.82552","longitude":"107.44299","feature_class":"P","feature_code":"PPLA4","country_code":"CN","cc2":"","admin1_code":"18","admin2_code":"","admin3_code":"","admin4_code":"","population":"0","elevation":"","dem":"620","timezone":"Asia/Shanghai","modification_date":"2013-05-07"},{"geonameid":"1550677","name":"Taoyuan","asciiname":"Taoyuan","alternatenames":["Taoyuan","Taoyuan Xiang","tao yuan","tao yuan xiang","桃源","桃源乡"],"latitude":"28.88353","longitude":"107.75623","feature_class":"P","feature_code":"PPLA4","country_code":"CN","cc2":"","admin1_code":"18","admin2_code":"","admin3_code":"","admin4_code":"","population":"0","elevation":"","dem":"823","timezone":"Asia/Shanghai","modification_date":"2013-05-07"},{"geonameid":"1550699","name":"Yangxi","asciiname":"Yangxi","alternatenames":["Yangxi","Yangxi Zhen","yang xi","yang xi zhen","阳溪","阳溪镇"],"latitude":"29.09","longitude":"107.58194","feature_class":"P","feature_code":"PPLA4","country_code":"CN","cc2":"","admin1_code":"18","admin2_code":"","admin3_code":"","admin4_code":"","population":"0","elevation":"","dem":"1117","timezone":"Asia/Shanghai","modification_date":"2013-05-07"},{"geonameid":"1551265","name":"Supu","asciiname":"Supu","alternatenames":["Supu","Supu Zhen","su pu","su pu zhen","素朴","素朴镇"],"latitude":"26.99167","longitude":"106.34167","feature_class":"P","feature_code":"PPLA4","country_code":"CN","cc2":"","admin1_code":"18","admin2_code":"","admin3_code":"","admin4_code":"","population":"0","elevation":"","dem":"1235","timezone":"Asia/Shanghai","modification_date":"2013-03-05"},{"geonameid":"1551444","name":"Zhuchang","asciiname":"Zhuchang","alternatenames":["Zhuchang","Zhuchang Buyizhu Yizhu Xiang","zhu chang","zhu chang bu yi zu yi zu xiang","猪场","猪场布依族彝族乡"],"latitude":"26.8","longitude":"105.11667","feature_class":"P","feature_code":"PPLA4","country_code":"CN","cc2":"","admin1_code":"18","admin2_code":"","admin3_code":"","admin4_code":"","population":"0","elevation":"","dem":"1816","timezone":"Asia/Shanghai","modification_date":"2013-03-05"},{"geonameid":"1552093","name":"Sanchahe","asciiname":"Sanchahe","alternatenames":["San-ch'a","San-ch’a","Sanchahe"],"latitude":"28.49528","longitude":"106.42833","feature_class":"P","feature_code":"PPL","country_code":"CN","cc2":"CN","admin1_code":"18","admin2_code":"","admin3_code":"","admin4_code":"","population":"1770","elevation":"","dem":"1157","timezone":"Asia/Shanghai","modification_date":"2012-01-16"},{"geonameid":"1552102","name":"Changqi","asciiname":"Changqi","alternatenames":["Changqi","Changqi Zhen","zhang qi","zhang qi zhen","长期","长期镇"],"latitude":"28.61992","longitude":"106.06816","feature_class":"P","feature_code":"PPLA4","country_code":"CN","cc2":"","admin1_code":"18","admin2_code":"","admin3_code":"","admin4_code":"","population":"0","elevation":"","dem":"421","timezone":"Asia/Shanghai","modification_date":"2013-06-04"},{"geonameid":"1552123","name":"Tiantai","asciiname":"Tiantai","alternatenames":["Tiantai","Tiantai Zhen","tian tai","tian tai zhen","天台","天台镇"],"latitude":"28.57833","longitude":"105.74667","feature_class":"P","feature_code":"PPLA4","country_code":"CN","cc2":"","admin1_code":"18","admin2_code":"","admin3_code":"","admin4_code":"","population":"0","elevation":"","dem":"333","timezone":"Asia/Shanghai","modification_date":"2013-06-04"},{"geonameid":"1783621","name":"Zunyi","asciiname":"Zunyi","alternatenames":["Cuenji","Cun-i","Czun'i","Dzuni","Gunji","Tsun-i","Tsun-i-ch'eng","Tsun-i-ch’eng","Tsun-i-hsien","Tsun-i-shih","Tsunyi","Tsunyi-hsien","Tuan Nghia","Tuân Nghĩa","ZYI","Zunyi","jjun-i si","zun yi","zun yi shi","zwnyyy","Ĝunji","Цзуньи","Цуенји","زونیئی","遵义市","遵義","遵義市","쭌이 시"],"latitude":"27.68667","longitude":"106.90722","feature_class":"P","feature_code":"PPL","country_code":"CN","cc2":"","admin1_code":"18","admin2_code":"","admin3_code":"","admin4_code":"","population":"466292","elevation":"","dem":"867","timezone":"Asia/Shanghai","modification_date":"2012-01-18"},{"geonameid":"1783859","name":"Zhuoshui","asciiname":"Zhuoshui","alternatenames":["Cho-shui","Zhuoshui","Zhuoshui Zhen","zhuo shui","zhuo shui zhen","浞水","浞水镇"],"latitude":"28.9179","longitude":"107.89711","feature_class":"P","feature_code":"PPLA4","country_code":"CN","cc2":"","admin1_code":"18","admin2_code":"","admin3_code":"","admin4_code":"","population":"0","elevation":"","dem":"805","timezone":"Asia/Shanghai","modification_date":"2013-05-07"},{"geonameid":"1784267","name":"Zhongxin","asciiname":"Zhongxin","alternatenames":["Chung-hsin","Zhongxin","Zhongxin Zhen","zhong xin","zhong xin zhen","忠信","忠信镇"],"latitude":"28.93361","longitude":"107.71144","feature_class":"P","feature_code":"PPLA4","country_code":"CN","cc2":"","admin1_code":"18","admin2_code":"","admin3_code":"","admin4_code":"","population":"0","elevation":"","dem":"1022","timezone":"Asia/Shanghai","modification_date":"2013-05-07"},{"geonameid":"1784317","name":"Zhongshan","asciiname":"Zhongshan","alternatenames":["Zhongshan","Zhongshan Buyizhu Yizhu Xiang","zhong shan","zhong shan bu yi zu yi zu xiang","钟山","钟山布依族彝族乡"],"latitude":"26.98333","longitude":"106.21667","feature_class":"P","feature_code":"PPLA4","country_code":"CN","cc2":"","admin1_code":"18","admin2_code":"","admin3_code":"","admin4_code":"","population":"0","elevation":"","dem":"1211","timezone":"Asia/Shanghai","modification_date":"2013-03-05"},{"geonameid":"1784405","name":"Zhongguan","asciiname":"Zhongguan","alternatenames":["Zhongguan","Zhongguan Zhen","zhong guan","zhong guan zhen","中观","中观镇"],"latitude":"28.43139","longitude":"107.60103","feature_class":"P","feature_code":"PPLA4","country_code":"CN","cc2":"","admin1_code":"18","admin2_code":"","admin3_code":"","admin4_code":"","population":"0","elevation":"","dem":"884","timezone":"Asia/Shanghai","modification_date":"2013-05-07"},{"geonameid":"1784452","name":"Zhongchao","asciiname":"Zhongchao","alternatenames":["Chung-ch'ao","Chung-ch'ao-so","Chung-ch’ao","Chung-ch’ao-so","Zhongchao"],"latitude":"26.1375","longitude":"109.22","feature_class":"P","feature_code":"PPL","country_code":"CN","cc2":"CN","admin1_code":"18","admin2_code":"","admin3_code":"","admin4_code":"","population":"2262","elevation":"","dem":"461","timezone":"Asia/Shanghai","modification_date":"2012-01-18"},{"geonameid":"1784520","name":"Zhijin","asciiname":"Zhijin","alternatenames":["Chih-chin","Chih-chin-ch'eng","Chih-chin-ch’eng","Chih-chin-hsien","Chihkin","Chihkin-hsien","Chihkiohsien","P'ing-yuan","Pingyuanchow","P’ing-yüan","Zhijin","Zhijin Chengguanzhen","zhi jin","zhi jin cheng guan zhen","织锦","织锦城关镇"],"latitude":"26.6668","longitude":"105.768","feature_class":"P","feature_code":"PPLA3","country_code":"CN","cc2":"","admin1_code":"18","admin2_code":"","admin3_code":"","admin4_code":"","population":"0","elevation":"","dem":"1313","timezone":"Asia/Shanghai","modification_date":"2015-02-06"},{"geonameid":"1784621","name":"Zhennan","asciiname":"Zhennan","alternatenames":["Chen-nan","Zhengnan","Zhennan","Zhennan Zhen","zhen nan","zhen nan zhen","镇南","镇南镇"],"latitude":"28.70154","longitude":"107.87146","feature_class":"P","feature_code":"PPLA4","country_code":"CN","cc2":"","admin1_code":"18","admin2_code":"","admin3_code":"","admin4_code":"","population":"0","elevation":"","dem":"628","timezone":"Asia/Shanghai","modification_date":"2013-05-07"},{"geonameid":"1785405","name":"Zhaiba","asciiname":"Zhaiba","alternatenames":["Chai-pa","Zhaiba","Zhaiba Zhen","Zhaibachang","zhai ba","zhai ba zhen","寨坝","寨坝镇"],"latitude":"28.60278","longitude":"106.55583","feature_class":"P","feature_code":"PPLA4","country_code":"CN","cc2":"","admin1_code":"18","admin2_code":"","admin3_code":"","admin4_code":"","population":"588","elevation":"","dem":"1111","timezone":"Asia/Shanghai","modification_date":"2013-06-04"},{"geonameid":"1785578","name":"Yuxi","asciiname":"Yuxi","alternatenames":["Daozhen","Daozhen Gelaozu Miaozu Zizhixian","T'u-ch'i-ch'ang","Tao-chen","Tao-chen-hsien","Tukichang","T’u-ch’i-ch’ang","Yu-ch'i","Yu-ch'i-chen","Yu-hsi","Yuxi","Yuxi Zhen","Yü-ch’i","Yü-ch’i-chen","Yü-hsi","dao zhen ge lao zu miao zu zi zhi xian","yu xi","yu xi zhen","玉溪","玉溪镇","道真仡佬族苗族自治县"],"latitude":"28.889","longitude":"107.594","feature_class":"P","feature_code":"PPLA3","country_code":"CN","cc2":"","admin1_code":"18","admin2_code":"","admin3_code":"","admin4_code":"","population":"0","elevation":"","dem":"686","timezone":"Asia/Shanghai","modification_date":"2014-02-07"},{"geonameid":"1786089","name":"Yuanhou","asciiname":"Yuanhou","alternatenames":["Yuanhou","Yuanhou Zhen","Yuanhouchang","yuan hou","yuan hou zhen","元厚","元厚镇"],"latitude":"28.34083","longitude":"105.97611","feature_class":"P","feature_code":"PPLA4","country_code":"CN","cc2":"","admin1_code":"18","admin2_code":"","admin3_code":"","admin4_code":"","population":"0","elevation":"","dem":"882","timezone":"Asia/Shanghai","modification_date":"2013-06-04"},{"geonameid":"1786526","name":"Eling","asciiname":"Eling","alternatenames":["Eling","Yin-chiang","Yin-chiang-hsien","Yinjiang","Yinjiang Tujiazu Miaozu Zizhixian","Yinkiang-hsien","e ling","yin jiang tu jia zu miao zu zi zhi xian","印江土家族苗族自治县","峨岭"],"latitude":"28.00045","longitude":"108.40093","feature_class":"P","feature_code":"PPLA3","country_code":"CN","cc2":"","admin1_code":"18","admin2_code":"","admin3_code":"","admin4_code":"","population":"0","elevation":"","dem":"460","timezone":"Asia/Shanghai","modification_date":"2013-05-07"},{"geonameid":"1786813","name":"Yelang","asciiname":"Yelang","alternatenames":["Yeh-lang-pa","Yelang","Yelang Zhen","Yelangba","ye lang","ye lang zhen","夜郎","夜郎镇"],"latitude":"28.40222","longitude":"106.77944","feature_class":"P","feature_code":"PPLA4","country_code":"CN","cc2":"","admin1_code":"18","admin2_code":"","admin3_code":"","admin4_code":"","population":"320","elevation":"","dem":"576","timezone":"Asia/Shanghai","modification_date":"2013-06-04"},{"geonameid":"1787115","name":"Yanshan","asciiname":"Yanshan","alternatenames":["Yanshan","Yanshan Zhen","yan shan","yan shan zhen","砚山","砚山镇"],"latitude":"28.80227","longitude":"107.89514","feature_class":"P","feature_code":"PPLA4","country_code":"CN","cc2":"","admin1_code":"18","admin2_code":"","admin3_code":"","admin4_code":"","population":"0","elevation":"","dem":"987","timezone":"Asia/Shanghai","modification_date":"2013-05-07"},{"geonameid":"1787304","name":"Yangtou","asciiname":"Yangtou","alternatenames":["Yang-t'ou-ssu","Yang-t’ou-ssu","Yangtou"],"latitude":"27.68944","longitude":"109.41389","feature_class":"P","feature_code":"PPL","country_code":"CN","cc2":"CN","admin1_code":"18","admin2_code":"","admin3_code":"","admin4_code":"","population":"1145","elevation":"","dem":"302","timezone":"Asia/Shanghai","modification_date":"2012-01-18"},{"geonameid":"1787639","name":"Yangdeng","asciiname":"Yangdeng","alternatenames":["Yang-teng","Yangdeng","Yangdeng Zhen","yang deng","yang deng zhen","羊磴","羊磴镇"],"latitude":"28.71722","longitude":"106.95972","feature_class":"P","feature_code":"PPLA4","country_code":"CN","cc2":"","admin1_code":"18","admin2_code":"","admin3_code":"","admin4_code":"","population":"474","elevation":"","dem":"539","timezone":"Asia/Shanghai","modification_date":"2013-06-04"},{"geonameid":"1788352","name":"Xishan","asciiname":"Xishan","alternatenames":["Hsi-shan-chieh","Xishan"],"latitude":"25.68528","longitude":"108.96389","feature_class":"P","feature_code":"PPL","country_code":"CN","cc2":"CN","admin1_code":"18","admin2_code":"","admin3_code":"","admin4_code":"","population":"1452","elevation":"","dem":"229","timezone":"Asia/Shanghai","modification_date":"2012-01-18"},{"geonameid":"1788454","name":"Xinzhou","asciiname":"Xinzhou","alternatenames":["Hsin-chou","Sinchow","Xinzhou","Xinzhou Zhen","xin zhou","xin zhou zhen","新州","新州镇"],"latitude":"28.81024","longitude":"107.35259","feature_class":"P","feature_code":"PPLA4","country_code":"CN","cc2":"","admin1_code":"18","admin2_code":"","admin3_code":"","admin4_code":"","population":"0","elevation":"","dem":"652","timezone":"Asia/Shanghai","modification_date":"2013-05-07"},{"geonameid":"1788482","name":"Xinzhan","asciiname":"Xinzhan","alternatenames":["Hsin-chan","Xinzhan"],"latitude":"28.38833","longitude":"106.85667","feature_class":"P","feature_code":"PPL","country_code":"CN","cc2":"CN","admin1_code":"18","admin2_code":"","admin3_code":"","admin4_code":"","population":"2400","elevation":"","dem":"528","timezone":"Asia/Shanghai","modification_date":"2012-01-18"},{"geonameid":"1788961","name":"Tongmin","asciiname":"Tongmin","alternatenames":["Tongmin","Tongmin Zhen","Xingmin","tong min","tong min zhen","同民","同民镇"],"latitude":"28.18528","longitude":"105.99583","feature_class":"P","feature_code":"PPLA4","country_code":"CN","cc2":"","admin1_code":"18","admin2_code":"","admin3_code":"","admin4_code":"","population":"0","elevation":"","dem":"436","timezone":"Asia/Shanghai","modification_date":"2013-06-04"},{"geonameid":"1789591","name":"Xieba","asciiname":"Xieba","alternatenames":["Hsieh-pa","Xieba","Xieba Gelaozu Miaozu Xiang","xie ba","xie ba ge lao zu miao zu xiang","谢坝","谢坝仡佬族苗族乡"],"latitude":"28.21111","longitude":"107.56694","feature_class":"P","feature_code":"PPLA4","country_code":"CN","cc2":"","admin1_code":"18","admin2_code":"","admin3_code":"","admin4_code":"","population":"0","elevation":"","dem":"912","timezone":"Asia/Shanghai","modification_date":"2013-05-07"},{"geonameid":"1789911","name":"Xiaoya","asciiname":"Xiaoya","alternatenames":["Luotongzhai","Xiaoya","Xiaoya Zhen","luo tong zhai","xiao ya","xiao ya zhen","小雅","小雅镇","骆通宅"],"latitude":"28.48947","longitude":"107.21754","feature_class":"P","feature_code":"PPLA4","country_code":"CN","cc2":"","admin1_code":"18","admin2_code":"","admin3_code":"","admin4_code":"","population":"0","elevation":"","dem":"651","timezone":"Asia/Shanghai","modification_date":"2013-05-07"},{"geonameid":"1789945","name":"Xiaoweizhai","asciiname":"Xiaoweizhai","alternatenames":[""],"latitude":"26.19028","longitude":"107.5125","feature_class":"P","feature_code":"PPL","country_code":"CN","cc2":"","admin1_code":"18","admin2_code":"","admin3_code":"","admin4_code":"","population":"58913","elevation":"","dem":"757","timezone":"Asia/Shanghai","modification_date":"2006-01-17"},{"geonameid":"1790127","name":"Xiaojing","asciiname":"Xiaojing","alternatenames":["Xiaojing","Xiaojing Xiang","xiao jing","xiao jing xiang","晓景","晓景乡"],"latitude":"28.43089","longitude":"108.5758","feature_class":"P","feature_code":"PPLA4","country_code":"CN","cc2":"","admin1_code":"18","admin2_code":"","admin3_code":"","admin4_code":"","population":"0","elevation":"","dem":"701","timezone":"Asia/Shanghai","modification_date":"2013-05-07"},{"geonameid":"1790346","name":"Xianyuan","asciiname":"Xianyuan","alternatenames":["Xianyuan","Xianyuan Zhen","xian yuan","xian yuan zhen","仙源","仙源镇"],"latitude":"28.38333","longitude":"106.6","feature_class":"P","feature_code":"PPLA4","country_code":"CN","cc2":"","admin1_code":"18","admin2_code":"","admin3_code":"","admin4_code":"","population":"0","elevation":"","dem":"1386","timezone":"Asia/Shanghai","modification_date":"2013-06-04"},{"geonameid":"1790696","name":"Xiajiang","asciiname":"Xiajiang","alternatenames":["Chiu-hsia-chiang","Hiakiang","Hiakiang-hsien","Hsia-chiang","Hsia-chiang-hsien","Xiajiang"],"latitude":"25.75556","longitude":"108.69194","feature_class":"P","feature_code":"PPL","country_code":"CN","cc2":"CN","admin1_code":"18","admin2_code":"","admin3_code":"","admin4_code":"","population":"1198","elevation":"","dem":"222","timezone":"Asia/Shanghai","modification_date":"2012-01-18"},{"geonameid":"1791082","name":"Wuluo","asciiname":"Wuluo","alternatenames":["Wu-lo","Wuluo","Wuluo Zhen","wu luo","wu luo zhen","乌罗","乌罗镇"],"latitude":"28.09332","longitude":"108.79281","feature_class":"P","feature_code":"PPLA4","country_code":"CN","cc2":"","admin1_code":"18","admin2_code":"","admin3_code":"","admin4_code":"","population":"0","elevation":"","dem":"845","timezone":"Asia/Shanghai","modification_date":"2013-05-07"},{"geonameid":"1791422","name":"Wenshui","asciiname":"Wenshui","alternatenames":["Wenshui","Wenshui Zhen","wen shui","wen shui zhen","温水","温水镇"],"latitude":"28.45056","longitude":"106.52667","feature_class":"P","feature_code":"PPLA4","country_code":"CN","cc2":"","admin1_code":"18","admin2_code":"","admin3_code":"","admin4_code":"","population":"5531","elevation":"","dem":"1039","timezone":"Asia/Shanghai","modification_date":"2013-06-04"},{"geonameid":"1791442","name":"Wenquan","asciiname":"Wenquan","alternatenames":["Wen-ch'uan","Wen-ch’üan","Wenquan","Wenquan Zhen","wen quan","wen quan zhen","温泉","温泉镇"],"latitude":"28.20194","longitude":"107.34528","feature_class":"P","feature_code":"PPLA4","country_code":"CN","cc2":"","admin1_code":"18","admin2_code":"","admin3_code":"","admin4_code":"","population":"0","elevation":"","dem":"751","timezone":"Asia/Shanghai","modification_date":"2013-05-07"},{"geonameid":"1791452","name":"Wenping","asciiname":"Wenping","alternatenames":["Wanping","Wenping","Wenping Zhen","wan ping","wen ping","wen ping zhen","宛坪","稳坪","稳坪镇"],"latitude":"28.31373","longitude":"108.21749","feature_class":"P","feature_code":"PPLA4","country_code":"CN","cc2":"","admin1_code":"18","admin2_code":"","admin3_code":"","admin4_code":"","population":"0","elevation":"","dem":"505","timezone":"Asia/Shanghai","modification_date":"2013-05-07"},{"geonameid":"1791769","name":"Wanshan","asciiname":"Wanshan","alternatenames":["Chang-chia-p'ing","Chang-chia-p’ing","Chiu-sheng-ch'i","Chiu-sheng-ch’i","Chiuhsingchi","Sheng-ch'i","Sheng-ch'i-hsien","Sheng-ch’i","Sheng-ch’i-hsien","Sheng-hsi-ku-ch'ih","Sheng-hsi-ku-ch’ih","Wan-shan-ch'ang","Wan-shan-ch’ang","Wan-shan-t'e-ch'u","Wan-shan-t’e-ch’ü","Wanshan","Wanshan Tequ","Wanshan Zhen","Wanshanssu","Wanshansze","wan shan","wan shan zhen","万山","万山镇"],"latitude":"27.5232","longitude":"109.206","feature_class":"P","feature_code":"PPLA3","country_code":"CN","cc2":"","admin1_code":"18","admin2_code":"","admin3_code":"","admin4_code":"","population":"0","elevation":"","dem":"865","timezone":"Asia/Shanghai","modification_date":"2014-02-08"},{"geonameid":"1792161","name":"Wangcao","asciiname":"Wangcao","alternatenames":["Wang-ts'ao-ch'ang","Wang-ts'ao-pa","Wang-ts’ao-ch’ang","Wang-ts’ao-pa","Wangcao","Wangcao Zhen","Wangcaoba","wang cao","wang cao zhen","旺草","旺草镇"],"latitude":"28.11711","longitude":"107.26672","feature_class":"P","feature_code":"PPLA4","country_code":"CN","cc2":"","admin1_code":"18","admin2_code":"","admin3_code":"","admin4_code":"","population":"0","elevation":"","dem":"695","timezone":"Asia/Shanghai","modification_date":"2013-05-07"},{"geonameid":"1792291","name":"Tuxi","asciiname":"Tuxi","alternatenames":["T'u-hsi","Tuxi","Tuxi Zhen","T’u-hsi","tu xi","tu xi zhen","土溪","土溪镇"],"latitude":"28.29778","longitude":"107.75","feature_class":"P","feature_code":"PPLA4","country_code":"CN","cc2":"","admin1_code":"18","admin2_code":"","admin3_code":"","admin4_code":"","population":"0","elevation":"","dem":"935","timezone":"Asia/Shanghai","modification_date":"2013-05-07"},{"geonameid":"1792318","name":"Tuping","asciiname":"Tuping","alternatenames":["T'u-p'ing-ch'ang","Tuping","Tuping Zhen","T’u-p’ing-ch’ang","tu ping","tu ping zhen","土坪","土坪镇"],"latitude":"28.26502","longitude":"107.36103","feature_class":"P","feature_code":"PPLA4","country_code":"CN","cc2":"","admin1_code":"18","admin2_code":"","admin3_code":"","admin4_code":"","population":"0","elevation":"","dem":"815","timezone":"Asia/Shanghai","modification_date":"2013-05-07"},{"geonameid":"1792426","name":"Tudi’ao","asciiname":"Tudi'ao","alternatenames":["T'u-ti-ao","Tudi'ao","Tudi'ao Zhen","Tudi’ao","Tudi’ao Zhen","T’u-ti-ao","tu de ao","tu de ao zhen","土地坳","土地坳镇"],"latitude":"28.46051","longitude":"108.21308","feature_class":"P","feature_code":"PPLA4","country_code":"CN","cc2":"","admin1_code":"18","admin2_code":"","admin3_code":"","admin4_code":"","population":"0","elevation":"","dem":"970","timezone":"Asia/Shanghai","modification_date":"2013-05-07"},{"geonameid":"1792435","name":"Tucheng","asciiname":"Tucheng","alternatenames":["T'u-ch'eng-ch'ang","Tucheng","Tucheng Zhen","T’u-ch’eng-ch’ang","tu cheng","tu cheng zhen","土城","土城镇"],"latitude":"28.2925","longitude":"105.99389","feature_class":"P","feature_code":"PPLA4","country_code":"CN","cc2":"","admin1_code":"18","admin2_code":"","admin3_code":"","admin4_code":"","population":"0","elevation":"","dem":"665","timezone":"Asia/Shanghai","modification_date":"2013-06-04"},{"geonameid":"1792516","name":"Loushanguan","asciiname":"Loushanguan","alternatenames":["Loushanguan","Loushanguan Zhen","T'ung-tzu","T'ung-tzu-ch'eng","T'ung-tzu-hsien","Tongzi","Tongzi Xian","Tungtze","Tungtze-hsien","T’ung-tzu","T’ung-tzu-ch’eng","T’ung-tzu-hsien","lou shan guan","lou shan guan zhen","tong zi","tong zi xian","娄山关","娄山关镇","桐梓","桐梓县"],"latitude":"28.1368","longitude":"106.822","feature_class":"P","feature_code":"PPLA3","country_code":"CN","cc2":"","admin1_code":"18","admin2_code":"","admin3_code":"","admin4_code":"","population":"80344","elevation":"","dem":"935","timezone":"Asia/Shanghai","modification_date":"2015-02-06"},{"geonameid":"1792592","name":"Tongren","asciiname":"Tongren","alternatenames":["Kiangkowhsien","T'ung-jen","T'ung-jen-hsien","T'ung-yen","TEN","Tongren","Tongren Shi","T’ung-jen","T’ung-jen-hsien","T’ung-yen"],"latitude":"27.71722","longitude":"109.18528","feature_class":"P","feature_code":"PPL","country_code":"CN","cc2":"","admin1_code":"18","admin2_code":"","admin3_code":"","admin4_code":"","population":"90593","elevation":"","dem":"263","timezone":"Asia/Shanghai","modification_date":"2012-01-18"},{"geonameid":"1792639","name":"Tongjing","asciiname":"Tongjing","alternatenames":["Tongjing","Tongjing Tujiazu Xiang","tong jing","tong jing tu jia zu xiang","桶井","桶井土家族乡"],"latitude":"28.33528","longitude":"108.26556","feature_class":"P","feature_code":"PPLA4","country_code":"CN","cc2":"","admin1_code":"18","admin2_code":"","admin3_code":"","admin4_code":"","population":"0","elevation":"","dem":"646","timezone":"Asia/Shanghai","modification_date":"2013-05-07"},{"geonameid":"1792681","name":"Tonggu","asciiname":"Tonggu","alternatenames":["Lao-chin-p'ing","Lao-chin-p’ing","Tonggu"],"latitude":"26.57222","longitude":"109.30944","feature_class":"P","feature_code":"PPL","country_code":"CN","cc2":"CN","admin1_code":"18","admin2_code":"","admin3_code":"","admin4_code":"","population":"1158","elevation":"","dem":"436","timezone":"Asia/Shanghai","modification_date":"2012-01-18"},{"geonameid":"1792752","name":"Tingdong","asciiname":"Tingdong","alternatenames":["T'ing-tung","Tingdong","T’ing-tung"],"latitude":"25.82444","longitude":"108.6125","feature_class":"P","feature_code":"PPL","country_code":"CN","cc2":"CN","admin1_code":"18","admin2_code":"","admin3_code":"","admin4_code":"","population":"1577","elevation":"","dem":"322","timezone":"Asia/Shanghai","modification_date":"2012-01-18"},{"geonameid":"1793464","name":"Tangba","asciiname":"Tangba","alternatenames":["Tangba","Tangba Xiang","tang ba","tang ba xiang","塘坝","塘坝乡"],"latitude":"29.00538","longitude":"108.23299","feature_class":"P","feature_code":"PPLA4","country_code":"CN","cc2":"","admin1_code":"18","admin2_code":"","admin3_code":"","admin4_code":"","population":"0","elevation":"","dem":"577","timezone":"Asia/Shanghai","modification_date":"2013-05-07"},{"geonameid":"1793719","name":"Taibai","asciiname":"Taibai","alternatenames":["T'ai-pai","Taibai","Taipai Zhen","T’ai-pai","tai bai","tai bai zhen","太白","太白镇"],"latitude":"28.40857","longitude":"107.08716","feature_class":"P","feature_code":"PPLA4","country_code":"CN","cc2":"","admin1_code":"18","admin2_code":"","admin3_code":"","admin4_code":"","population":"0","elevation":"","dem":"1028","timezone":"Asia/Shanghai","modification_date":"2013-05-07"},{"geonameid":"1793883","name":"Suiyang","asciiname":"Suiyang","alternatenames":["Suiyang","Suiyang Zhen","Suiyangchang","sui yang","sui yang zhen","绥阳","绥阳镇"],"latitude":"28.11789","longitude":"107.74458","feature_class":"P","feature_code":"PPLA4","country_code":"CN","cc2":"","admin1_code":"18","admin2_code":"","admin3_code":"","admin4_code":"","population":"0","elevation":"","dem":"854","timezone":"Asia/Shanghai","modification_date":"2013-05-07"},{"geonameid":"1794019","name":"Songkan","asciiname":"Songkan","alternatenames":["Songkan","Songkan Zhen","Sung-k'an","Sung-k’an","song kan","song kan zhen","松坎","松坎镇"],"latitude":"28.54972","longitude":"106.85972","feature_class":"P","feature_code":"PPLA4","country_code":"CN","cc2":"","admin1_code":"18","admin2_code":"","admin3_code":"","admin4_code":"","population":"4400","elevation":"","dem":"425","timezone":"Asia/Shanghai","modification_date":"2013-06-04"},{"geonameid":"1794102","name":"Siyang","asciiname":"Siyang","alternatenames":["Cengong","Ch'enkung","Ch'ien-kung","Ch’enkung","Ch’ien-kung","Ling-kung","Siyang","Siyang Zhen","Ssu","Ssu-yang","Ssu-yang-chen","Ssuchou","Szechow","Ts'en-kung","Ts'en-kung-hsien","Ts’en-kung","Ts’en-kung-hsien","si yang","si yang zhen","思旸","思旸镇"],"latitude":"27.2116","longitude":"108.745","feature_class":"P","feature_code":"PPLA3","country_code":"CN","cc2":"","admin1_code":"18","admin2_code":"","admin3_code":"","admin4_code":"","population":"0","elevation":"","dem":"405","timezone":"Asia/Shanghai","modification_date":"2014-02-08"},{"geonameid":"1794160","name":"Siqu","asciiname":"Siqu","alternatenames":["Siqu","Siqu Zhen","Ssu-ch'u","Ssu-ch’ü","si qu","si qu zhen","思渠","思渠镇"],"latitude":"28.67335","longitude":"108.33776","feature_class":"P","feature_code":"PPLA4","country_code":"CN","cc2":"","admin1_code":"18","admin2_code":"","admin3_code":"","admin4_code":"","population":"0","elevation":"","dem":"289","timezone":"Asia/Shanghai","modification_date":"2013-05-07"},{"geonameid":"1794528","name":"Shuibatang","asciiname":"Shuibatang","alternatenames":["Shixi","Shui-pa-t'ang","Shui-pa-t’ang","Shuibatang","Shuibatang Zhen","shui ba tang","shui ba tang zhen","水坝塘","水坝塘镇"],"latitude":"28.73671","longitude":"107.07466","feature_class":"P","feature_code":"PPLA4","country_code":"CN","cc2":"","admin1_code":"18","admin2_code":"","admin3_code":"","admin4_code":"","population":"0","elevation":"","dem":"459","timezone":"Asia/Shanghai","modification_date":"2013-05-07"},{"geonameid":"1794929","name":"Shixi","asciiname":"Shixi","alternatenames":["Shixi","Shixi Zhen","Shixikou","shi xi","shi xi kou","shi xi zhen","狮溪","狮溪口","狮溪镇"],"latitude":"28.83914","longitude":"107.11754","feature_class":"P","feature_code":"PPLA4","country_code":"CN","cc2":"","admin1_code":"18","admin2_code":"","admin3_code":"","admin4_code":"","population":"0","elevation":"","dem":"661","timezone":"Asia/Shanghai","modification_date":"2013-05-07"},{"geonameid":"1795058","name":"Shiqian","asciiname":"Shiqian","alternatenames":["Shih-ch'ien","Shih-ch'ien-hsien","Shih-ch’ien","Shih-ch’ien-hsien","Shihtsien","Shihtsien-hsien","Shiqian"],"latitude":"27.5225","longitude":"108.22806","feature_class":"P","feature_code":"PPL","country_code":"CN","cc2":"CN","admin1_code":"18","admin2_code":"","admin3_code":"","admin4_code":"","population":"9571","elevation":"","dem":"477","timezone":"Asia/Shanghai","modification_date":"2012-01-18"},{"geonameid":"1795725","name":"Shazipo","asciiname":"Shazipo","alternatenames":["Sha-tzu-p'o","Sha-tzu-p’o","Shazipo","Shazipo Zhen","sha zi po","sha zi po zhen","沙子坡","沙子坡镇"],"latitude":"28.22361","longitude":"108.47556","feature_class":"P","feature_code":"PPLA4","country_code":"CN","cc2":"","admin1_code":"18","admin2_code":"","admin3_code":"","admin4_code":"","population":"0","elevation":"","dem":"795","timezone":"Asia/Shanghai","modification_date":"2013-05-07"},{"geonameid":"1795729","name":"Shazi","asciiname":"Shazi","alternatenames":["Shazi","Shazi Zhen","Shazichang","sha zi","sha zi zhen","沙子","沙子镇"],"latitude":"28.54937","longitude":"108.53925","feature_class":"P","feature_code":"PPLA4","country_code":"CN","cc2":"","admin1_code":"18","admin2_code":"","admin3_code":"","admin4_code":"","population":"0","elevation":"","dem":"470","timezone":"Asia/Shanghai","modification_date":"2013-05-07"},{"geonameid":"1796323","name":"Shangba","asciiname":"Shangba","alternatenames":["Shang-pa","Shangba","Shangba Tujiazu Xiang","shang ba","shang ba tu jia zu xiang","上坝","上坝土家族乡"],"latitude":"28.83154","longitude":"107.58042","feature_class":"P","feature_code":"PPLA4","country_code":"CN","cc2":"","admin1_code":"18","admin2_code":"","admin3_code":"","admin4_code":"","population":"0","elevation":"","dem":"710","timezone":"Asia/Shanghai","modification_date":"2013-05-07"},{"geonameid":"1796650","name":"Sanqiao","asciiname":"Sanqiao","alternatenames":["Sanqiao","Sanqiao Zhen","san qiao","san qiao zhen","三桥","三桥镇"],"latitude":"29.05783","longitude":"107.50317","feature_class":"P","feature_code":"PPLA4","country_code":"CN","cc2":"","admin1_code":"18","admin2_code":"","admin3_code":"","admin4_code":"","population":"0","elevation":"","dem":"581","timezone":"Asia/Shanghai","modification_date":"2013-05-07"},{"geonameid":"1796772","name":"Sanjiang","asciiname":"Sanjiang","alternatenames":["San-chiang","Sanjiang","Sanjiang Zhen","san jiang","san jiang zhen","三江","三江镇"],"latitude":"28.67876","longitude":"107.4812","feature_class":"P","feature_code":"PPLA4","country_code":"CN","cc2":"","admin1_code":"18","admin2_code":"","admin3_code":"","admin4_code":"","population":"0","elevation":"","dem":"543","timezone":"Asia/Shanghai","modification_date":"2013-05-07"},{"geonameid":"1796829","name":"Sanhe","asciiname":"Sanhe","alternatenames":["San-ho","San-ho-t'u","San-ho-t’u","Sanhe","Sanhe Zhen","Sanhetu","san he","san he zhen","三合","三合镇"],"latitude":"28.06909","longitude":"106.34801","feature_class":"P","feature_code":"PPLA4","country_code":"CN","cc2":"","admin1_code":"18","admin2_code":"","admin3_code":"","admin4_code":"","population":"974","elevation":"","dem":"999","timezone":"Asia/Shanghai","modification_date":"2013-06-04"},{"geonameid":"1796876","name":"Sangmu","asciiname":"Sangmu","alternatenames":["Sang-mu-ch'ang","Sang-mu-ch’ang","Sangmu","Sangmu Zhen","sang mu","sang mu zhen","桑木","桑木镇"],"latitude":"28.21528","longitude":"106.26889","feature_class":"P","feature_code":"PPLA4","country_code":"CN","cc2":"","admin1_code":"18","admin2_code":"","admin3_code":"","admin4_code":"","population":"1110","elevation":"","dem":"1179","timezone":"Asia/Shanghai","modification_date":"2013-06-04"},{"geonameid":"1797375","name":"Quankou","asciiname":"Quankou","alternatenames":["Quankou","Quankou Tujiazu Xiang","quan kou","quan kou tu jia zu xiang","泉口","泉口土家族乡"],"latitude":"28.55073","longitude":"108.13638","feature_class":"P","feature_code":"PPLA4","country_code":"CN","cc2":"","admin1_code":"18","admin2_code":"","admin3_code":"","admin4_code":"","population":"0","elevation":"","dem":"775","timezone":"Asia/Shanghai","modification_date":"2013-05-07"},{"geonameid":"1797491","name":"Qitan","asciiname":"Qitan","alternatenames":["Ch'i-t'an","Ch’i-t’an","Qitan","Qitan Zhen","qi tan","qi tan zhen","淇滩","淇滩镇"],"latitude":"28.48046","longitude":"108.45572","feature_class":"P","feature_code":"PPLA4","country_code":"CN","cc2":"","admin1_code":"18","admin2_code":"","admin3_code":"","admin4_code":"","population":"0","elevation":"","dem":"389","timezone":"Asia/Shanghai","modification_date":"2013-05-07"},{"geonameid":"1797676","name":"Qinglang","asciiname":"Qinglang","alternatenames":["Ch'ing-hsi","Chiu-ch'ing-ch'i","Chiu-ch’ing-ch’i","Ch’ing-hsi","Qinglang","Qingxi"],"latitude":"27.12472","longitude":"108.73278","feature_class":"P","feature_code":"PPL","country_code":"CN","cc2":"CN","admin1_code":"18","admin2_code":"","admin3_code":"","admin4_code":"","population":"2895","elevation":"","dem":"398","timezone":"Asia/Shanghai","modification_date":"2012-01-18"},{"geonameid":"1797971","name":"Qimeng","asciiname":"Qimeng","alternatenames":["Ch'i-meng","Ch’i-meng","Qimeng"],"latitude":"26.48472","longitude":"108.99944","feature_class":"P","feature_code":"PPL","country_code":"CN","cc2":"CN","admin1_code":"18","admin2_code":"","admin3_code":"","admin4_code":"","population":"1362","elevation":"","dem":"507","timezone":"Asia/Shanghai","modification_date":"2012-01-18"},{"geonameid":"1798174","name":"Qiaojia","asciiname":"Qiaojia","alternatenames":["Ch'iao-chia-p'u","Ch’iao-chia-p’u","Qiaojia","Qiaojia Zhen","Qiaojiapu","qiao jia","qiao jia pu","qiao jia zhen","谯家","谯家铺","谯家镇"],"latitude":"28.3029","longitude":"108.44675","feature_class":"P","feature_code":"PPLA4","country_code":"CN","cc2":"","admin1_code":"18","admin2_code":"","admin3_code":"","admin4_code":"","population":"0","elevation":"","dem":"999","timezone":"Asia/Shanghai","modification_date":"2013-05-07"},{"geonameid":"1798589","name":"Podu","asciiname":"Podu","alternatenames":["Podu","Podu Zhen","po du","po du zhen","坡渡","坡渡镇"],"latitude":"28.75417","longitude":"106.82611","feature_class":"P","feature_code":"PPLA4","country_code":"CN","cc2":"","admin1_code":"18","admin2_code":"","admin3_code":"","admin4_code":"","population":"0","elevation":"","dem":"425","timezone":"Asia/Shanghai","modification_date":"2013-06-04"},{"geonameid":"1798626","name":"Pingyuan","asciiname":"Pingyuan","alternatenames":["Pingyuan","Pingyuan Tujiazu Xiang","Shanyuan","ping yuan","ping yuan tu jia zu xiang","shan yuan","平原","平原土家族乡","杉园"],"latitude":"28.1541","longitude":"107.84881","feature_class":"P","feature_code":"PPLA4","country_code":"CN","cc2":"","admin1_code":"18","admin2_code":"","admin3_code":"","admin4_code":"","population":"0","elevation":"","dem":"780","timezone":"Asia/Shanghai","modification_date":"2013-05-07"},{"geonameid":"1798784","name":"Pingjiang","asciiname":"Pingjiang","alternatenames":["P'ing-chiang","Pingjiang","P’ing-chiang"],"latitude":"25.97056","longitude":"108.39528","feature_class":"P","feature_code":"PPL","country_code":"CN","cc2":"CN","admin1_code":"18","admin2_code":"","admin3_code":"","admin4_code":"","population":"1076","elevation":"","dem":"329","timezone":"Asia/Shanghai","modification_date":"2012-01-18"},{"geonameid":"1799004","name":"Panxin","asciiname":"Panxin","alternatenames":["Panxin","Panxin Zhen","pan xin","pan xin zhen","盘信","盘信镇"],"latitude":"28.02243","longitude":"109.2362","feature_class":"P","feature_code":"PPLA4","country_code":"CN","cc2":"","admin1_code":"18","admin2_code":"","admin3_code":"","admin4_code":"","population":"0","elevation":"","dem":"675","timezone":"Asia/Shanghai","modification_date":"2013-05-07"},{"geonameid":"1800307","name":"Muhuang","asciiname":"Muhuang","alternatenames":["Muhuang","Muhuang Zhen","mu huang","mu huang zhen","木黄","木黄镇"],"latitude":"28.08761","longitude":"108.68965","feature_class":"P","feature_code":"PPLA4","country_code":"CN","cc2":"","admin1_code":"18","admin2_code":"","admin3_code":"","admin4_code":"","population":"0","elevation":"","dem":"729","timezone":"Asia/Shanghai","modification_date":"2013-05-07"},{"geonameid":"1800572","name":"Miaotang","asciiname":"Miaotang","alternatenames":["Jiaoliang","Miaotang","Miaotang Zhen","jiao liang","miao tang","miao tang zhen","庙塘","庙塘镇","教良"],"latitude":"28.55844","longitude":"107.1682","feature_class":"P","feature_code":"PPLA4","country_code":"CN","cc2":"","admin1_code":"18","admin2_code":"","admin3_code":"","admin4_code":"","population":"0","elevation":"","dem":"759","timezone":"Asia/Shanghai","modification_date":"2013-05-07"},{"geonameid":"1800687","name":"Mengxi","asciiname":"Mengxi","alternatenames":["Mengxi","Mengxi Zhen","meng xi","meng xi zhen","孟溪","孟溪镇"],"latitude":"28.08081","longitude":"108.97641","feature_class":"P","feature_code":"PPLA4","country_code":"CN","cc2":"","admin1_code":"18","admin2_code":"","admin3_code":"","admin4_code":"","population":"0","elevation":"","dem":"446","timezone":"Asia/Shanghai","modification_date":"2013-05-07"},{"geonameid":"1801172","name":"Maoping","asciiname":"Maoping","alternatenames":["Fang-p'ing","Fang-p’ing","Maoping","Maoping Zhen"],"latitude":"26.73694","longitude":"109.22111","feature_class":"P","feature_code":"PPL","country_code":"CN","cc2":"CN","admin1_code":"18","admin2_code":"","admin3_code":"","admin4_code":"","population":"1123","elevation":"","dem":"351","timezone":"Asia/Shanghai","modification_date":"2012-01-18"},{"geonameid":"1801884","name":"Luolong","asciiname":"Luolong","alternatenames":["Lo-lung","Luolong","Luolong Zhen","luo long","luo long zhen","洛龙","洛龙镇"],"latitude":"29.0725","longitude":"107.70028","feature_class":"P","feature_code":"PPLA4","country_code":"CN","cc2":"","admin1_code":"18","admin2_code":"","admin3_code":"","admin4_code":"","population":"0","elevation":"","dem":"1029","timezone":"Asia/Shanghai","modification_date":"2013-05-07"},{"geonameid":"1802297","name":"Longxing","asciiname":"Longxing","alternatenames":["Longxing","Longxing Zhen","Lung-hsing","long xing","long xing zhen","隆兴","隆兴镇"],"latitude":"28.67446","longitude":"107.54556","feature_class":"P","feature_code":"PPLA4","country_code":"CN","cc2":"","admin1_code":"18","admin2_code":"","admin3_code":"","admin4_code":"","population":"0","elevation":"","dem":"1013","timezone":"Asia/Shanghai","modification_date":"2013-05-07"},{"geonameid":"1802545","name":"Longlisuo","asciiname":"Longlisuo","alternatenames":["Longli","Longlisuo","Lung-li-so"],"latitude":"26.41417","longitude":"109.10222","feature_class":"P","feature_code":"PPL","country_code":"CN","cc2":"CN","admin1_code":"18","admin2_code":"","admin3_code":"","admin4_code":"","population":"2450","elevation":"","dem":"456","timezone":"Asia/Shanghai","modification_date":"2012-01-18"},{"geonameid":"1803165","name":"Liudu","asciiname":"Liudu","alternatenames":["Liu-tu","Liudu","Liudu Zhen","liu du","liu du zhen","流渡","流渡镇"],"latitude":"28.3111","longitude":"107.50492","feature_class":"P","feature_code":"PPLA4","country_code":"CN","cc2":"","admin1_code":"18","admin2_code":"","admin3_code":"","admin4_code":"","population":"0","elevation":"","dem":"725","timezone":"Asia/Shanghai","modification_date":"2013-05-07"},{"geonameid":"1803829","name":"Liaogao","asciiname":"Liaogao","alternatenames":["Liaogao","Liaogao Zhen","Songtao","Songtao Miaozu Zizhixian","Sung-t'ao","Sung-t'ao-hsien","Sung-t'ao-miao-tsu-tzu-chih-hsien","Sung-t’ao","Sung-t’ao-hsien","Sung-t’ao-miao-tsu-tzu-chih-hsien","liao gao","liao gao zhen","song tao miao zu zi zhi xian","松桃苗族自治县","蓼皋","蓼皋镇"],"latitude":"28.17","longitude":"109.195","feature_class":"P","feature_code":"PPLA3","country_code":"CN","cc2":"","admin1_code":"18","admin2_code":"","admin3_code":"","admin4_code":"","population":"0","elevation":"","dem":"384","timezone":"Asia/Shanghai","modification_date":"2014-02-08"},{"geonameid":"1804088","name":"Liangcunchang","asciiname":"Liangcunchang","alternatenames":["Liang-ts'un","Liang-ts’un","Liangcun","Liangcunchang"],"latitude":"28.40667","longitude":"106.42444","feature_class":"P","feature_code":"PPL","country_code":"CN","cc2":"CN","admin1_code":"18","admin2_code":"","admin3_code":"","admin4_code":"","population":"1671","elevation":"","dem":"1070","timezone":"Asia/Shanghai","modification_date":"2012-01-18"},{"geonameid":"1804201","name":"Lejian","asciiname":"Lejian","alternatenames":["Lejian","Lejian Xiang","le jian","le jian xiang","乐俭","乐俭乡"],"latitude":"28.40512","longitude":"107.35694","feature_class":"P","feature_code":"PPLA4","country_code":"CN","cc2":"","admin1_code":"18","admin2_code":"","admin3_code":"","admin4_code":"","population":"0","elevation":"","dem":"1079","timezone":"Asia/Shanghai","modification_date":"2013-05-07"},{"geonameid":"1804452","name":"Lantian","asciiname":"Lantian","alternatenames":["Lan-t'ien","Lan-t'ien-ch'ang","Lan-t'ien-fang","Lan-t’ien","Lan-t’ien-ch’ang","Lan-t’ien-fang","Lantian"],"latitude":"27.025","longitude":"109.29472","feature_class":"P","feature_code":"PPL","country_code":"CN","cc2":"CN","admin1_code":"18","admin2_code":"","admin3_code":"","admin4_code":"","population":"1292","elevation":"","dem":"354","timezone":"Asia/Shanghai","modification_date":"2012-01-18"},{"geonameid":"1804501","name":"Langxi","asciiname":"Langxi","alternatenames":["Langxi","Langxi Zhen","lang xi","lang xi zhen","郎溪","郎溪镇"],"latitude":"28.0116","longitude":"108.47877","feature_class":"P","feature_code":"PPLA4","country_code":"CN","cc2":"","admin1_code":"18","admin2_code":"","admin3_code":"","admin4_code":"","population":"0","elevation":"","dem":"510","timezone":"Asia/Shanghai","modification_date":"2013-05-07"},{"geonameid":"1804748","name":"Ketian","asciiname":"Ketian","alternatenames":["Ketian","Ketian Zhen","ke tian","ke tian zhen","客田","客田镇"],"latitude":"28.89085","longitude":"108.25077","feature_class":"P","feature_code":"PPLA4","country_code":"CN","cc2":"","admin1_code":"18","admin2_code":"","admin3_code":"","admin4_code":"","population":"0","elevation":"","dem":"531","timezone":"Asia/Shanghai","modification_date":"2013-05-07"},{"geonameid":"1805239","name":"Jiucheng","asciiname":"Jiucheng","alternatenames":["Chiu-ch'eng","Chiu-ch’eng","Jiucheng","Jiucheng Zhen","jiu cheng","jiu cheng zhen","旧城","旧城镇"],"latitude":"28.74138","longitude":"107.68037","feature_class":"P","feature_code":"PPLA4","country_code":"CN","cc2":"","admin1_code":"18","admin2_code":"","admin3_code":"","admin4_code":"","population":"0","elevation":"","dem":"467","timezone":"Asia/Shanghai","modification_date":"2013-05-07"},{"geonameid":"1806105","name":"Jiaoba","asciiname":"Jiaoba","alternatenames":["Jiaoba","Jiaoba Xiang","jiao ba","jiao ba xiang","蕉坝","蕉坝乡"],"latitude":"28.80711","longitude":"108.09099","feature_class":"P","feature_code":"PPLA4","country_code":"CN","cc2":"","admin1_code":"18","admin2_code":"","admin3_code":"","admin4_code":"","population":"0","elevation":"","dem":"723","timezone":"Asia/Shanghai","modification_date":"2013-05-07"},{"geonameid":"1806436","name":"Jiancha","asciiname":"Jiancha","alternatenames":["Chien-ch'a'-hsi","Chien-ch’a’-hsi","Jiancha","Jiancha Zhen","Jianchaxi","jian cha","jian cha xi","jian cha zhen","煎茶","煎茶溪","煎茶镇"],"latitude":"28.1493","longitude":"107.97231","feature_class":"P","feature_code":"PPLA4","country_code":"CN","cc2":"","admin1_code":"18","admin2_code":"","admin3_code":"","admin4_code":"","population":"0","elevation":"","dem":"800","timezone":"Asia/Shanghai","modification_date":"2013-05-07"},{"geonameid":"1806443","name":"Jianba","asciiname":"Jianba","alternatenames":["Chien-pa","Jianba","Jianba Zhen","jian ba","jian ba zhen","枧坝","枧坝镇"],"latitude":"28.07937","longitude":"107.04086","feature_class":"P","feature_code":"PPLA4","country_code":"CN","cc2":"","admin1_code":"18","admin2_code":"","admin3_code":"","admin4_code":"","population":"0","elevation":"","dem":"844","timezone":"Asia/Shanghai","modification_date":"2013-05-07"},{"geonameid":"1807043","name":"Huaqiu","asciiname":"Huaqiu","alternatenames":["Hua-ch'iu","Hua-ch'iu-pa","Hua-ch’iu","Hua-ch’iu-pa","Huaqiu","Huaqiu Zhen","Huaqiuba","hua qiu","hua qiu zhen","花秋","花秋镇"],"latitude":"28.11665","longitude":"106.60225","feature_class":"P","feature_code":"PPLA4","country_code":"CN","cc2":"","admin1_code":"18","admin2_code":"","admin3_code":"","admin4_code":"","population":"1212","elevation":"","dem":"1050","timezone":"Asia/Shanghai","modification_date":"2013-06-04"},{"geonameid":"1807072","name":"Huaping","asciiname":"Huaping","alternatenames":["Huaping","Huaping Zhen","hua ping","hua ping zhen","花坪","花坪镇"],"latitude":"28.03923","longitude":"107.79277","feature_class":"P","feature_code":"PPLA4","country_code":"CN","cc2":"","admin1_code":"18","admin2_code":"","admin3_code":"","admin4_code":"","population":"0","elevation":"","dem":"720","timezone":"Asia/Shanghai","modification_date":"2013-05-07"},{"geonameid":"1807187","name":"Huangtu","asciiname":"Huangtu","alternatenames":["Huangtu","Huangtu Xiang","Huangtupo","huang tu","huang tu po","huang tu xiang","黄土","黄土乡","黄土坡"],"latitude":"28.70394","longitude":"108.26396","feature_class":"P","feature_code":"PPLA4","country_code":"CN","cc2":"","admin1_code":"18","admin2_code":"","admin3_code":"","admin4_code":"","population":"0","elevation":"","dem":"695","timezone":"Asia/Shanghai","modification_date":"2013-05-07"},{"geonameid":"1807531","name":"Huangdu","asciiname":"Huangdu","alternatenames":["Huangdu","Huangdu Zhen","huang dou","huang dou zhen","黄都","黄都镇"],"latitude":"28.40319","longitude":"107.74432","feature_class":"P","feature_code":"PPLA4","country_code":"CN","cc2":"","admin1_code":"18","admin2_code":"","admin3_code":"","admin4_code":"","population":"0","elevation":"","dem":"864","timezone":"Asia/Shanghai","modification_date":"2013-05-07"},{"geonameid":"1807584","name":"Huangban","asciiname":"Huangban","alternatenames":["Huang-pan","Huangban","Huangban Xiang","huang ban","huang ban xiang","黄板","黄板乡"],"latitude":"28.25382","longitude":"109.15997","feature_class":"P","feature_code":"PPLA4","country_code":"CN","cc2":"","admin1_code":"18","admin2_code":"","admin3_code":"","admin4_code":"","population":"0","elevation":"","dem":"552","timezone":"Asia/Shanghai","modification_date":"2013-05-07"},{"geonameid":"1807916","name":"Hongzhou","asciiname":"Hongzhou","alternatenames":["Hongzhou","Hung-chou"],"latitude":"26.12583","longitude":"109.40889","feature_class":"P","feature_code":"PPL","country_code":"CN","cc2":"CN","admin1_code":"18","admin2_code":"","admin3_code":"","admin4_code":"","population":"1127","elevation":"","dem":"378","timezone":"Asia/Shanghai","modification_date":"2012-01-18"},{"geonameid":"1808152","name":"Hongdu","asciiname":"Hongdu","alternatenames":["Hongdu","Hongdu Zhen","hong du","hong du zhen","洪渡","洪渡镇"],"latitude":"28.96259","longitude":"108.31325","feature_class":"P","feature_code":"PPLA4","country_code":"CN","cc2":"","admin1_code":"18","admin2_code":"","admin3_code":"","admin4_code":"","population":"0","elevation":"","dem":"277","timezone":"Asia/Shanghai","modification_date":"2013-05-07"},{"geonameid":"1808195","name":"Hezhang","asciiname":"Hezhang","alternatenames":["Hei-chang","Hezhang","Hezhang Xian Chengguanzhen","Ho-chang","Ho-chang-hsien","he zhang","he zhang xian cheng guan zhen","赫章","赫章县城关镇"],"latitude":"27.12222","longitude":"104.72389","feature_class":"P","feature_code":"PPLA3","country_code":"CN","cc2":"","admin1_code":"18","admin2_code":"","admin3_code":"","admin4_code":"","population":"0","elevation":"","dem":"1531","timezone":"Asia/Shanghai","modification_date":"2014-04-06"},{"geonameid":"1808284","name":"Heshui","asciiname":"Heshui","alternatenames":["Heshui","Heshui Zhen","Ho-shui","he shui","he shui zhen","合水","合水镇"],"latitude":"28.05086","longitude":"108.54983","feature_class":"P","feature_code":"PPLA4","country_code":"CN","cc2":"","admin1_code":"18","admin2_code":"","admin3_code":"","admin4_code":"","population":"0","elevation":"","dem":"578","timezone":"Asia/Shanghai","modification_date":"2013-05-07"},{"geonameid":"1808346","name":"Heping","asciiname":"Heping","alternatenames":["Heping","Heping Zhen","Yanhe","Yanhe Tujiazu Zizhixian","Yen-ho","Yen-ho-hsien","Yenhosze","he ping","he ping zhen","yan he tu jia zu zi zhi xian","和平","和平镇","沿河土家族自治县"],"latitude":"28.5579","longitude":"108.49","feature_class":"P","feature_code":"PPLA3","country_code":"CN","cc2":"","admin1_code":"18","admin2_code":"","admin3_code":"","admin4_code":"","population":"0","elevation":"","dem":"292","timezone":"Asia/Shanghai","modification_date":"2014-02-08"},{"geonameid":"1808530","name":"Hema","asciiname":"Hema","alternatenames":["Hema","Hema Zhen","he ma","he ma zhen","合马","合马镇"],"latitude":"28.03861","longitude":"106.32806","feature_class":"P","feature_code":"PPLA4","country_code":"CN","cc2":"","admin1_code":"18","admin2_code":"","admin3_code":"","admin4_code":"","population":"0","elevation":"","dem":"460","timezone":"Asia/Shanghai","modification_date":"2013-06-04"},{"geonameid":"1809461","name":"Guiyang","asciiname":"Guiyang","alternatenames":["Guejang","Guejjan","Guijangas","Guijango","Guiyang","Guiyang Shi","Gujjan","Gŭijango","KWE","Kuei-chu","Kuei-yang","Kuei-yang-shih","Kuej-jang","Kui-iong-chhi","Kweichu","Kweiyang","Kweiyangfu","Kùi-iông-chhī","Quy Duong","Quý Dương","ghwyyangh","gu'iyanga","gu-iyang si","gui yang","gui yang shi","gwyyang","kuy hyang","Гуейян","Гуејанг","Гуйян","غوييانغ","گوئیانگ","گۇيياڭ شەھىرى","गुइयांग","ਗੁਈਯਾਂਗ","กุ้ยหยาง","ကွေ့ယန်မြို့","貴陽","貴陽市","贵阳","贵阳市","구이양 시"],"latitude":"26.58333","longitude":"106.71667","feature_class":"P","feature_code":"PPLA","country_code":"CN","cc2":"","admin1_code":"18","admin2_code":"","admin3_code":"","admin4_code":"","population":"1171633","elevation":"","dem":"1087","timezone":"Asia/Shanghai","modification_date":"2012-01-18"},{"geonameid":"1809665","name":"Guanzhou","asciiname":"Guanzhou","alternatenames":["Guanzhou","Guanzhou Zhen","Guanzhouchang","Kuan-chou","guan zhou","guan zhou chang","guan zhou zhen","官舟","官舟场","官舟镇"],"latitude":"28.555","longitude":"108.34228","feature_class":"P","feature_code":"PPLA4","country_code":"CN","cc2":"","admin1_code":"18","admin2_code":"","admin3_code":"","admin4_code":"","population":"0","elevation":"","dem":"749","timezone":"Asia/Shanghai","modification_date":"2013-05-07"},{"geonameid":"1809964","name":"Guandu","asciiname":"Guandu","alternatenames":["Chiu-hsi-shui","Guandu","Guandu Zhen","Hsi-shui","Hsi-shui-hsien","Kuan-tu","Kuan-tu-ch'ang","Kuan-tu-ch’ang","Sishui","Sishui-hsien","guan du","guan du zhen","官渡","官渡镇"],"latitude":"28.56833","longitude":"106.10255","feature_class":"P","feature_code":"PPLA4","country_code":"CN","cc2":"","admin1_code":"18","admin2_code":"","admin3_code":"","admin4_code":"","population":"2064","elevation":"","dem":"660","timezone":"Asia/Shanghai","modification_date":"2013-06-04"},{"geonameid":"1809980","name":"Guandian","asciiname":"Guandian","alternatenames":["Guandian","Guandian Zhen","Kuan-tien","guan dian","guan dian zhen","官店","官店镇"],"latitude":"28.29389","longitude":"106.61083","feature_class":"P","feature_code":"PPLA4","country_code":"CN","cc2":"","admin1_code":"18","admin2_code":"","admin3_code":"","admin4_code":"","population":"548","elevation":"","dem":"596","timezone":"Asia/Shanghai","modification_date":"2013-06-04"},{"geonameid":"1810009","name":"Guancang","asciiname":"Guancang","alternatenames":["Guancang","Guancang Zhen","guan cang","guan cang zhen","官仓","官仓镇"],"latitude":"28.03611","longitude":"106.71417","feature_class":"P","feature_code":"PPLA4","country_code":"CN","cc2":"","admin1_code":"18","admin2_code":"","admin3_code":"","admin4_code":"","population":"0","elevation":"","dem":"916","timezone":"Asia/Shanghai","modification_date":"2013-06-04"},{"geonameid":"1810132","name":"Gonghe","asciiname":"Gonghe","alternatenames":["Gonghe","Gonghe Tujiazu Xiang","gong he","gong he tu jia zu xiang","共和","共和土家族乡"],"latitude":"28.19995","longitude":"108.21496","feature_class":"P","feature_code":"PPLA4","country_code":"CN","cc2":"","admin1_code":"18","admin2_code":"","admin3_code":"","admin4_code":"","population":"0","elevation":"","dem":"543","timezone":"Asia/Shanghai","modification_date":"2013-05-07"},{"geonameid":"1810231","name":"Gelin","asciiname":"Gelin","alternatenames":["Gelin","Gelin Zhen","Ko-lin","ge lin","ge lin zhen","格林","格林镇"],"latitude":"28.54964","longitude":"107.51809","feature_class":"P","feature_code":"PPLA4","country_code":"CN","cc2":"","admin1_code":"18","admin2_code":"","admin3_code":"","admin4_code":"","population":"0","elevation":"","dem":"643","timezone":"Asia/Shanghai","modification_date":"2013-05-07"},{"geonameid":"1810301","name":"Gaozeng","asciiname":"Gaozeng","alternatenames":["Gaozeng","Kao-tseng"],"latitude":"25.80167","longitude":"108.9375","feature_class":"P","feature_code":"PPL","country_code":"CN","cc2":"CN","admin1_code":"18","admin2_code":"","admin3_code":"","admin4_code":"","population":"1650","elevation":"","dem":"254","timezone":"Asia/Shanghai","modification_date":"2012-01-18"},{"geonameid":"1810387","name":"Gaoshan","asciiname":"Gaoshan","alternatenames":["Gaoshan","Gaoshan Tujiazu Xiang","gao shan","gao shan tu jia zu xiang","高山","高山土家族乡"],"latitude":"28.5","longitude":"108.16667","feature_class":"P","feature_code":"PPLA4","country_code":"CN","cc2":"","admin1_code":"18","admin2_code":"","admin3_code":"","admin4_code":"","population":"0","elevation":"","dem":"1137","timezone":"Asia/Shanghai","modification_date":"2013-05-07"},{"geonameid":"1810447","name":"Gaoniang","asciiname":"Gaoniang","alternatenames":["Gaoniang","Kao-niang","Kao-niang-chen"],"latitude":"26.8425","longitude":"109.17889","feature_class":"P","feature_code":"PPL","country_code":"CN","cc2":"CN","admin1_code":"18","admin2_code":"","admin3_code":"","admin4_code":"","population":"2500","elevation":"","dem":"607","timezone":"Asia/Shanghai","modification_date":"2012-01-18"},{"geonameid":"1810656","name":"Ganxi","asciiname":"Ganxi","alternatenames":["Ganxi","Ganxi Xiang","Ganxichang","Kan-hsi","gan xi","gan xi chang","gan xi xiang","甘溪","甘溪乡","甘溪场"],"latitude":"28.39002","longitude":"108.42078","feature_class":"P","feature_code":"PPLA4","country_code":"CN","cc2":"","admin1_code":"18","admin2_code":"","admin3_code":"","admin4_code":"","population":"0","elevation":"","dem":"458","timezone":"Asia/Shanghai","modification_date":"2013-05-07"},{"geonameid":"1810691","name":"Ganlong","asciiname":"Ganlong","alternatenames":["Ganlong","Ganlong Zhen","gan long","gan long zhen","甘龙","甘龙镇"],"latitude":"28.32931","longitude":"108.70303","feature_class":"P","feature_code":"PPLA4","country_code":"CN","cc2":"","admin1_code":"18","admin2_code":"","admin3_code":"","admin4_code":"","population":"0","elevation":"","dem":"614","timezone":"Asia/Shanghai","modification_date":"2013-05-07"},{"geonameid":"1810847","name":"Fuyang","asciiname":"Fuyang","alternatenames":["Fuyang","Fuyang Zhen","fu yang","fu yang zhen","涪洋","涪洋镇"],"latitude":"28.53258","longitude":"107.74252","feature_class":"P","feature_code":"PPLA4","country_code":"CN","cc2":"","admin1_code":"18","admin2_code":"","admin3_code":"","admin4_code":"","population":"0","elevation":"","dem":"645","timezone":"Asia/Shanghai","modification_date":"2013-05-07"},{"geonameid":"1810859","name":"Fuxing","asciiname":"Fuxing","alternatenames":["Fuxing","Fuxing Zhen","Fuxingchang","fu xing","fu xing zhen","复兴","复兴镇"],"latitude":"27.99634","longitude":"107.61109","feature_class":"P","feature_code":"PPLA4","country_code":"CN","cc2":"","admin1_code":"18","admin2_code":"","admin3_code":"","admin4_code":"","population":"0","elevation":"","dem":"827","timezone":"Asia/Shanghai","modification_date":"2013-05-07"},{"geonameid":"1811183","name":"Fengyi","asciiname":"Fengyi","alternatenames":["Cheng-an","Cheng-an Chou","Cheng-an-hsien","Chenganchow","Feng-i","Fengyi","Fengyi Zhen","Zheng'an","Zheng'an Xian","Zheng’an","Zheng’an Xian","feng yi","feng yi zhen","zheng an xian","凤仪","凤仪镇","正安县"],"latitude":"28.5537","longitude":"107.439","feature_class":"P","feature_code":"PPLA3","country_code":"CN","cc2":"","admin1_code":"18","admin2_code":"","admin3_code":"","admin4_code":"","population":"0","elevation":"","dem":"675","timezone":"Asia/Shanghai","modification_date":"2014-02-08"},{"geonameid":"1811301","name":"Fengle","asciiname":"Fengle","alternatenames":["Fengle","Fengle Zhen","feng le","feng le zhen","丰乐","丰乐镇"],"latitude":"28.34972","longitude":"107.85333","feature_class":"P","feature_code":"PPLA4","country_code":"CN","cc2":"","admin1_code":"18","admin2_code":"","admin3_code":"","admin4_code":"","population":"0","elevation":"","dem":"700","timezone":"Asia/Shanghai","modification_date":"2013-05-07"},{"geonameid":"1811764","name":"Duyun","asciiname":"Duyun","alternatenames":["Dujun","Duyun","Pingchowhsien","Tu-yun","Tu-yun-ch'eng","Tu-yun-hsien","Tu-yun-shih","Tu-yün","Tu-yün-ch’eng","Tu-yün-hsien","Tu-yün-shih","Дуюн"],"latitude":"26.26667","longitude":"107.51667","feature_class":"P","feature_code":"PPL","country_code":"CN","cc2":"","admin1_code":"18","admin2_code":"","admin3_code":"","admin4_code":"","population":"91136","elevation":"","dem":"815","timezone":"Asia/Shanghai","modification_date":"2012-01-18"},{"geonameid":"1811797","name":"Duru","asciiname":"Duru","alternatenames":["Duru","Duru Zhen","Tu-ju","Wu-ch'uan-hsien","Wu-ch’uan-hsien","Wuchuan","Wuchuan Gelaozu Miaozu Zizhixian","Wuchwan","Wuchwan-hsien","dou ru","dou ru zhen","wu chuan ge lao zu miao zu zi zhi xian","务川仡佬族苗族自治县","都濡","都濡镇"],"latitude":"28.5255","longitude":"107.887","feature_class":"P","feature_code":"PPLA3","country_code":"CN","cc2":"","admin1_code":"18","admin2_code":"","admin3_code":"","admin4_code":"","population":"0","elevation":"","dem":"649","timezone":"Asia/Shanghai","modification_date":"2014-02-08"},{"geonameid":"1812486","name":"Donghuang","asciiname":"Donghuang","alternatenames":["Donghuang","Hsi-shui","Tung-huang-ch'ang","Tung-huang-chen","Tung-huang-ch’ang","Tung-huang-tien","Xishui","Xishui Xian","dong huang","xi shui xian","东皇","习水县"],"latitude":"28.33297","longitude":"106.21557","feature_class":"P","feature_code":"PPLA3","country_code":"CN","cc2":"","admin1_code":"18","admin2_code":"","admin3_code":"","admin4_code":"","population":"0","elevation":"","dem":"1208","timezone":"Asia/Shanghai","modification_date":"2013-06-04"},{"geonameid":"1813456","name":"Datong","asciiname":"Datong","alternatenames":["Datong","Datong Zhen","da tong","da tong zhen","大同","大同镇"],"latitude":"28.50139","longitude":"105.67694","feature_class":"P","feature_code":"PPLA4","country_code":"CN","cc2":"","admin1_code":"18","admin2_code":"","admin3_code":"","admin4_code":"","population":"0","elevation":"","dem":"251","timezone":"Asia/Shanghai","modification_date":"2013-06-04"},{"geonameid":"1813614","name":"Darong","asciiname":"Darong","alternatenames":["Darong","Ta-jung-tung","da rong","大融"],"latitude":"25.785","longitude":"108.864","feature_class":"P","feature_code":"PPL","country_code":"CN","cc2":"","admin1_code":"18","admin2_code":"","admin3_code":"","admin4_code":"","population":"1171","elevation":"","dem":"215","timezone":"Asia/Shanghai","modification_date":"2015-02-06"},{"geonameid":"1813678","name":"Daqian","asciiname":"Daqian","alternatenames":["Daqian","Daqian Zhen","da qian","da qian zhen","大阡","大阡镇"],"latitude":"28.976","longitude":"107.4473","feature_class":"P","feature_code":"PPLA4","country_code":"CN","cc2":"","admin1_code":"18","admin2_code":"","admin3_code":"","admin4_code":"","population":"0","elevation":"","dem":"1001","timezone":"Asia/Shanghai","modification_date":"2013-05-08"},{"geonameid":"1813703","name":"Taipingying","asciiname":"Taipingying","alternatenames":["Dapingying","Ta-p'ing-ying","Ta-p’ing-ying","Taipingying","Taipingying Xiang","tai ping ying","tai ping ying xiang","太平营","太平营乡"],"latitude":"28.09821","longitude":"109.16369","feature_class":"P","feature_code":"PPLA4","country_code":"CN","cc2":"","admin1_code":"18","admin2_code":"","admin3_code":"","admin4_code":"","population":"0","elevation":"","dem":"397","timezone":"Asia/Shanghai","modification_date":"2013-05-08"},{"geonameid":"1813714","name":"Daping","asciiname":"Daping","alternatenames":["Daping","Daping Zhen","da ping","da ping zhen","大坪","大坪镇"],"latitude":"28.58297","longitude":"107.9342","feature_class":"P","feature_code":"PPLA4","country_code":"CN","cc2":"","admin1_code":"18","admin2_code":"","admin3_code":"","admin4_code":"","population":"0","elevation":"","dem":"611","timezone":"Asia/Shanghai","modification_date":"2013-05-08"},{"geonameid":"1813715","name":"Dapingchang","asciiname":"Dapingchang","alternatenames":["Daping","Dapingchang","Dapingchang Zhen","da ping chang","da ping chang zhen","大坪场","大坪场镇"],"latitude":"28.10992","longitude":"109.10719","feature_class":"P","feature_code":"PPLA4","country_code":"CN","cc2":"","admin1_code":"18","admin2_code":"","admin3_code":"","admin4_code":"","population":"0","elevation":"","dem":"441","timezone":"Asia/Shanghai","modification_date":"2013-05-08"},{"geonameid":"1813993","name":"Dalucao","asciiname":"Dalucao","alternatenames":["Dalucao","Dalucao Xiang","da lu cao","da lu cao xiang","大路槽","大路槽乡"],"latitude":"28.01667","longitude":"107.3","feature_class":"P","feature_code":"PPLA4","country_code":"CN","cc2":"","admin1_code":"18","admin2_code":"","admin3_code":"","admin4_code":"","population":"0","elevation":"","dem":"789","timezone":"Asia/Shanghai","modification_date":"2013-05-08"},{"geonameid":"1814337","name":"Dahe","asciiname":"Dahe","alternatenames":["Dahe","Dahe Zhen","Daheba","Ta-ho-pa","da he","da he zhen","大河","大河镇"],"latitude":"28.32389","longitude":"106.83639","feature_class":"P","feature_code":"PPLA4","country_code":"CN","cc2":"","admin1_code":"18","admin2_code":"","admin3_code":"","admin4_code":"","population":"0","elevation":"","dem":"909","timezone":"Asia/Shanghai","modification_date":"2013-06-04"},{"geonameid":"1814621","name":"Dabachang","asciiname":"Dabachang","alternatenames":["Dabachang","Ta-pa-ch'ang","Ta-pa-ch’ang"],"latitude":"27.7425","longitude":"108.34333","feature_class":"P","feature_code":"PPL","country_code":"CN","cc2":"CN","admin1_code":"18","admin2_code":"","admin3_code":"","admin4_code":"","population":"1086","elevation":"","dem":"571","timezone":"Asia/Shanghai","modification_date":"2012-01-18"},{"geonameid":"1814627","name":"Daba","asciiname":"Daba","alternatenames":["Daba","Daba Zhen","Ta-pa","Ta-sha-pa","da ba","da ba zhen","大坝","大坝镇"],"latitude":"28.01605","longitude":"106.42788","feature_class":"P","feature_code":"PPLA4","country_code":"CN","cc2":"","admin1_code":"18","admin2_code":"","admin3_code":"","admin4_code":"","population":"624","elevation":"","dem":"933","timezone":"Asia/Shanghai","modification_date":"2013-06-04"},{"geonameid":"1814789","name":"Chumi","asciiname":"Chumi","alternatenames":["Ch'u-mi-p'u","Chumi","Chumi Zhen","Ch’u-mi-p’u","chu mi","chu mi zhen","楚米","楚米镇"],"latitude":"28.23361","longitude":"106.83278","feature_class":"P","feature_code":"PPLA4","country_code":"CN","cc2":"","admin1_code":"18","admin2_code":"","admin3_code":"","admin4_code":"","population":"3500","elevation":"","dem":"980","timezone":"Asia/Shanghai","modification_date":"2013-06-04"},{"geonameid":"1815431","name":"Chaodi","asciiname":"Chaodi","alternatenames":["Ch'ao-ti","Chaodi","Chaodi Zhen","Ch’ao-ti","Qinglongzui","chao di","chao di zhen","qing long ju","潮砥","潮砥镇","青龙咀"],"latitude":"28.10192","longitude":"108.23242","feature_class":"P","feature_code":"PPLA4","country_code":"CN","cc2":"","admin1_code":"18","admin2_code":"","admin3_code":"","admin4_code":"","population":"0","elevation":"","dem":"474","timezone":"Asia/Shanghai","modification_date":"2013-05-08"},{"geonameid":"1815502","name":"Changxingbao","asciiname":"Changxingbao","alternatenames":["Changxing","Changxingbao","Changxingbao Zhen","zhang xing bao","zhang xing bao zhen","长兴堡","长兴堡镇"],"latitude":"28.31741","longitude":"109.19239","feature_class":"P","feature_code":"PPLA4","country_code":"CN","cc2":"","admin1_code":"18","admin2_code":"","admin3_code":"","admin4_code":"","population":"0","elevation":"","dem":"654","timezone":"Asia/Shanghai","modification_date":"2013-05-08"},{"geonameid":"1815576","name":"Changsha","asciiname":"Changsha","alternatenames":["Ch'ang-sha-ch'ang","Changsha","Changsha Zhen","Chansha","Ch’ang-sha-ch’ang","zhang sha","zhang sha zhen","Чанша","长沙","长沙镇"],"latitude":"28.68778","longitude":"105.98972","feature_class":"P","feature_code":"PPLA4","country_code":"CN","cc2":"","admin1_code":"18","admin2_code":"","admin3_code":"","admin4_code":"","population":"1653","elevation":"","dem":"241","timezone":"Asia/Shanghai","modification_date":"2013-06-04"},{"geonameid":"1815750","name":"Changfeng","asciiname":"Changfeng","alternatenames":["Changfeng","Changfeng Tujiazu Xiang","zhang feng","zhang feng tu jia zu xiang","长丰","长丰土家族乡"],"latitude":"28.42164","longitude":"108.08328","feature_class":"P","feature_code":"PPLA4","country_code":"CN","cc2":"","admin1_code":"18","admin2_code":"","admin3_code":"","admin4_code":"","population":"0","elevation":"","dem":"653","timezone":"Asia/Shanghai","modification_date":"2013-05-08"},{"geonameid":"1815879","name":"Chadian","asciiname":"Chadian","alternatenames":["Ch'a-tien-ch'ang","Chadian","Ch’a-tien-ch’ang"],"latitude":"27.58194","longitude":"109.13278","feature_class":"P","feature_code":"PPL","country_code":"CN","cc2":"CN","admin1_code":"18","admin2_code":"","admin3_code":"","admin4_code":"","population":"1089","elevation":"","dem":"698","timezone":"Asia/Shanghai","modification_date":"2012-01-18"},{"geonameid":"1816028","name":"Weining","asciiname":"Weining","alternatenames":["Caohai","Vehjnin","Wei-ning-hsien","Wei-ning-hsien-i-tsu-hui-tsu-miao-tsu- tzu-chih-ch'u","Wei-ning-hsien-i-tsu-hui-tsu-miao-tsu- tzu-chih-ch’ü","Wei-ning-i-tsu-hui-ysu-miao-tsu-tzu-chih-hsien","Weining","Вэйнин"],"latitude":"26.85","longitude":"104.23333","feature_class":"P","feature_code":"PPL","country_code":"CN","cc2":"","admin1_code":"18","admin2_code":"","admin3_code":"","admin4_code":"","population":"56744","elevation":"","dem":"2169","timezone":"Asia/Shanghai","modification_date":"2012-01-18"},{"geonameid":"1816373","name":"Bijie","asciiname":"Bijie","alternatenames":["BFJ","Bicze","Bijie","Bìjíe","Prefecture de Bijie","Préfecture de Bijie","Tat Tiet","Tất Tiết","bi jie","bi jie shi","bije si","Бицзе","毕节","毕节市","畢節","畢節市","비제 시"],"latitude":"27.30193","longitude":"105.28627","feature_class":"P","feature_code":"PPL","country_code":"CN","cc2":"","admin1_code":"18","admin2_code":"","admin3_code":"","admin4_code":"","population":"77645","elevation":"","dem":"1471","timezone":"Asia/Shanghai","modification_date":"2013-06-15"},{"geonameid":"1816442","name":"Benchu","asciiname":"Benchu","alternatenames":["Benchu","Benchu Zhen","P'en-ch'u","P’en-ch’u"],"latitude":"26.77111","longitude":"109.29056","feature_class":"P","feature_code":"PPL","country_code":"CN","cc2":"CN","admin1_code":"18","admin2_code":"","admin3_code":"","admin4_code":"","population":"1431","elevation":"","dem":"284","timezone":"Asia/Shanghai","modification_date":"2012-01-18"},{"geonameid":"1817003","name":"Banxi","asciiname":"Banxi","alternatenames":["Banxi","Banxi Zhen","Pan-hsi","ban xi","ban xi zhen","板溪","板溪镇"],"latitude":"28.07268","longitude":"108.46899","feature_class":"P","feature_code":"PPLA4","country_code":"CN","cc2":"","admin1_code":"18","admin2_code":"","admin3_code":"","admin4_code":"","population":"0","elevation":"","dem":"587","timezone":"Asia/Shanghai","modification_date":"2013-05-08"},{"geonameid":"1817097","name":"Bangdong","asciiname":"Bangdong","alternatenames":["Bangdong","Pang-tung-chen"],"latitude":"26.97556","longitude":"109.18583","feature_class":"P","feature_code":"PPL","country_code":"CN","cc2":"CN","admin1_code":"18","admin2_code":"","admin3_code":"","admin4_code":"","population":"1460","elevation":"","dem":"398","timezone":"Asia/Shanghai","modification_date":"2012-01-18"},{"geonameid":"1817117","name":"Banchang","asciiname":"Banchang","alternatenames":["Banchang","Banchang Xiang","Banchangba","ban chang","ban chang ba","ban chang xiang","板场","板场乡","板场坝"],"latitude":"28.43103","longitude":"108.36902","feature_class":"P","feature_code":"PPLA4","country_code":"CN","cc2":"","admin1_code":"18","admin2_code":"","admin3_code":"","admin4_code":"","population":"0","elevation":"","dem":"482","timezone":"Asia/Shanghai","modification_date":"2013-05-08"},{"geonameid":"1817180","name":"Bajiao","asciiname":"Bajiao","alternatenames":["Bajiao","Bajiao Xiang","Bajiaoba","Pa-chiao-pa","ba jiao","ba jiao xiang","芭蕉","芭蕉乡"],"latitude":"28.73295","longitude":"107.19541","feature_class":"P","feature_code":"PPLA4","country_code":"CN","cc2":"","admin1_code":"18","admin2_code":"","admin3_code":"","admin4_code":"","population":"0","elevation":"","dem":"892","timezone":"Asia/Shanghai","modification_date":"2013-05-08"},{"geonameid":"1817398","name":"Baishi","asciiname":"Baishi","alternatenames":["Baishi","Pai-yen-t'ang","Pai-yen-t’ang"],"latitude":"26.97361","longitude":"109.44333","feature_class":"P","feature_code":"PPL","country_code":"CN","cc2":"CN","admin1_code":"18","admin2_code":"","admin3_code":"","admin4_code":"","population":"1965","elevation":"","dem":"284","timezone":"Asia/Shanghai","modification_date":"2012-01-18"},{"geonameid":"1817760","name":"Baicun","asciiname":"Baicun","alternatenames":["Baicun","Baicun Zhen","bai cun","bai cun zhen","柏村","柏村镇"],"latitude":"28.68803","longitude":"107.9319","feature_class":"P","feature_code":"PPLA4","country_code":"CN","cc2":"","admin1_code":"18","admin2_code":"","admin3_code":"","admin4_code":"","population":"0","elevation":"","dem":"634","timezone":"Asia/Shanghai","modification_date":"2013-05-08"},{"geonameid":"1817794","name":"Bahuang","asciiname":"Bahuang","alternatenames":["Bahuang","Bahuangchang","Pa-huang-ch'ang","Pa-huang-ch’ang","Pa-wang"],"latitude":"27.71806","longitude":"109.01889","feature_class":"P","feature_code":"PPL","country_code":"CN","cc2":"CN","admin1_code":"18","admin2_code":"","admin3_code":"","admin4_code":"","population":"1021","elevation":"","dem":"308","timezone":"Asia/Shanghai","modification_date":"2012-01-18"},{"geonameid":"1817891","name":"Aoshi","asciiname":"Aoshi","alternatenames":["Ao-shih","Ao-yu-tsui","Ao-yü-tsui","Aoshi","Aoshi Zhen"],"latitude":"26.40167","longitude":"109.07111","feature_class":"P","feature_code":"PPL","country_code":"CN","cc2":"CN","admin1_code":"18","admin2_code":"","admin3_code":"","admin4_code":"","population":"1911","elevation":"","dem":"453","timezone":"Asia/Shanghai","modification_date":"2012-01-18"},{"geonameid":"1817968","name":"Anshun","asciiname":"Anshun","alternatenames":["AVA","An Thuan","An Thuận","An'shun'","An-shun-hsien","An-shun-hsien-ch'eng","An-shun-hsien-ch’eng","An-shun-shih","An-sun","An-šun","Anshun","Anshunfu","Ansunas","Anšunas","P'u-ting","P’u-ting","an shun","an shun shi","anshwn","ansun si","Аншун","Аньшунь","انشون","安順","安順市","安顺市","안순 시"],"latitude":"26.25","longitude":"105.93333","feature_class":"P","feature_code":"PPL","country_code":"CN","cc2":"","admin1_code":"18","admin2_code":"","admin3_code":"","admin4_code":"","population":"351936","elevation":"","dem":"1374","timezone":"Asia/Shanghai","modification_date":"2013-03-25"},{"geonameid":"1818114","name":"Anchang","asciiname":"Anchang","alternatenames":["An-ch'ang-chen","An-ch’ang-chen","Anchang","Anchang Zhen","an chang","an chang zhen","安场","安场镇","安常"],"latitude":"28.65023","longitude":"107.42573","feature_class":"P","feature_code":"PPLA4","country_code":"CN","cc2":"","admin1_code":"18","admin2_code":"","admin3_code":"","admin4_code":"","population":"0","elevation":"","dem":"623","timezone":"Asia/Shanghai","modification_date":"2013-05-08"},{"geonameid":"1905806","name":"Runsong","asciiname":"Runsong","alternatenames":["Jun-song","Runsong","Runsonglaozhai","run song","润松"],"latitude":"26.87","longitude":"109.097","feature_class":"P","feature_code":"PPL","country_code":"CN","cc2":"","admin1_code":"18","admin2_code":"","admin3_code":"","admin4_code":"","population":"1114","elevation":"","dem":"438","timezone":"Asia/Shanghai","modification_date":"2015-02-07"},{"geonameid":"1906090","name":"Dundong","asciiname":"Dundong","alternatenames":["Dundong","Tun-tung","dun dong","顿洞"],"latitude":"26.0119","longitude":"109.141","feature_class":"P","feature_code":"PPL","country_code":"CN","cc2":"","admin1_code":"18","admin2_code":"","admin3_code":"","admin4_code":"","population":"1722","elevation":"","dem":"499","timezone":"Asia/Shanghai","modification_date":"2015-02-07"},{"geonameid":"1906137","name":"Gaowu","asciiname":"Gaowu","alternatenames":["Gaowu","Kao-wu","gao wu","高武"],"latitude":"25.5625","longitude":"108.908","feature_class":"P","feature_code":"PPL","country_code":"CN","cc2":"","admin1_code":"18","admin2_code":"","admin3_code":"","admin4_code":"","population":"1246","elevation":"","dem":"787","timezone":"Asia/Shanghai","modification_date":"2015-02-07"},{"geonameid":"1906692","name":"Tiantang","asciiname":"Tiantang","alternatenames":["Tiantang","Tiantang Zhen","tian tang","tian tang zhen","天堂","天堂镇"],"latitude":"28.1525","longitude":"108.5599","feature_class":"P","feature_code":"PPLA4","country_code":"CN","cc2":"","admin1_code":"18","admin2_code":"","admin3_code":"","admin4_code":"","population":"0","elevation":"","dem":"626","timezone":"Asia/Shanghai","modification_date":"2013-05-09"},{"geonameid":"1906694","name":"Mashan","asciiname":"Mashan","alternatenames":["Mashan","Mashan Zhen","ma shan","ma shan zhen","马山","马山镇"],"latitude":"28.05249","longitude":"107.57943","feature_class":"P","feature_code":"PPLA4","country_code":"CN","cc2":"","admin1_code":"18","admin2_code":"","admin3_code":"","admin4_code":"","population":"0","elevation":"","dem":"929","timezone":"Asia/Shanghai","modification_date":"2013-05-09"},{"geonameid":"1906695","name":"Huangyang","asciiname":"Huangyang","alternatenames":["Huangcunba","Huangyang","Huangyang Zhen","Kuankuo","huang cun ba","huang yang","huang yang zhen","黄村坝","黄杨","黄杨镇"],"latitude":"28.29669","longitude":"107.07474","feature_class":"P","feature_code":"PPLA4","country_code":"CN","cc2":"","admin1_code":"18","admin2_code":"","admin3_code":"","admin4_code":"","population":"0","elevation":"","dem":"681","timezone":"Asia/Shanghai","modification_date":"2013-05-09"},{"geonameid":"1950020","name":"Ouyang","asciiname":"Ouyang","alternatenames":["Hsin-hua-so","Ouyang","ou yang","欧阳"],"latitude":"26.4191","longitude":"109.216","feature_class":"P","feature_code":"PPL","country_code":"CN","cc2":"","admin1_code":"18","admin2_code":"","admin3_code":"","admin4_code":"","population":"1164","elevation":"","dem":"395","timezone":"Asia/Shanghai","modification_date":"2015-02-07"},{"geonameid":"8528475","name":"Ruixi","asciiname":"Ruixi","alternatenames":["Ruixi","Ruixi Zhen","Shuicheba","rui xi","rui xi zhen","shui che ba","水车把","瑞溪","瑞溪镇"],"latitude":"28.57107","longitude":"107.35193","feature_class":"P","feature_code":"PPLA4","country_code":"CN","cc2":"","admin1_code":"18","admin2_code":"","admin3_code":"","admin4_code":"","population":"0","elevation":"","dem":"627","timezone":"Asia/Shanghai","modification_date":"2013-05-10"},{"geonameid":"8529080","name":"Fenshui","asciiname":"Fenshui","alternatenames":["Fenshui","Fenshui Xiang","fen shui","fen shui xiang","分水","分水乡"],"latitude":"28.88201","longitude":"107.95459","feature_class":"P","feature_code":"PPLA4","country_code":"CN","cc2":"","admin1_code":"18","admin2_code":"","admin3_code":"","admin4_code":"","population":"0","elevation":"","dem":"1080","timezone":"Asia/Shanghai","modification_date":"2013-05-10"},{"geonameid":"8529132","name":"Longquan","asciiname":"Longquan","alternatenames":["Longquan","Longquan Tujiazu Xiang","long quan","long quan tu jia zu xiang","龙泉","龙泉土家族乡"],"latitude":"28.25569","longitude":"108.03809","feature_class":"P","feature_code":"PPLA4","country_code":"CN","cc2":"","admin1_code":"18","admin2_code":"","admin3_code":"","admin4_code":"","population":"0","elevation":"","dem":"557","timezone":"Asia/Shanghai","modification_date":"2013-05-10"},{"geonameid":"8529150","name":"Fengxiangxi","asciiname":"Fengxiangxi","alternatenames":["Fengxiangxi","Fengxiangxi Zhen","feng xiang xi","feng xiang xi zhen","枫香溪","枫香溪镇"],"latitude":"28.12767","longitude":"108.3241","feature_class":"P","feature_code":"PPLA4","country_code":"CN","cc2":"","admin1_code":"18","admin2_code":"","admin3_code":"","admin4_code":"","population":"0","elevation":"","dem":"755","timezone":"Asia/Shanghai","modification_date":"2013-05-10"},{"geonameid":"8529248","name":"Zhongba","asciiname":"Zhongba","alternatenames":["Zhongba","Zhongba Xiang","zhong ba","zhong ba xiang","中坝","中坝乡"],"latitude":"28.02573","longitude":"108.33462","feature_class":"P","feature_code":"PPLA4","country_code":"CN","cc2":"","admin1_code":"18","admin2_code":"","admin3_code":"","admin4_code":"","population":"0","elevation":"","dem":"455","timezone":"Asia/Shanghai","modification_date":"2013-05-10"},{"geonameid":"8529249","name":"Dalu","asciiname":"Dalu","alternatenames":["Dalu","Dalu Xiang","da lu","da lu xiang","大路","大路乡"],"latitude":"28.14269","longitude":"108.95422","feature_class":"P","feature_code":"PPLA4","country_code":"CN","cc2":"","admin1_code":"18","admin2_code":"","admin3_code":"","admin4_code":"","population":"0","elevation":"","dem":"448","timezone":"Asia/Shanghai","modification_date":"2013-05-10"},