{"region_data":{"countryId":"1605651","adminCode1":"28","countryName":"Thailand","fclName":"country, state, region,...","countryCode":"TH","lng":"102.99332","fcodeName":"first-order administrative division","toponymName":"Changwat Buriram","fcl":"A","numberOfChildren":23,"name":"Changwat Buriram","fcode":"ADM1","geonameId":1611452,"lat":"14.84823","adminName1":"Buriram","population":1493359},"country_data":{"ISO":"TH","ISO3":"THA","ISO_Numeric":"764","fips":"TH","country":"Thailand","capital":"Bangkok","area":"514000","Population":"67089500","Continent":"AS","tld":".th","CurrencyCode":"THB","CurrencyName":"Baht","Phone":"66","Postal_Code_Format":"#####","Postal_Code_Regex":"^(\\d{5})$","Languages":"th,en","geonameid":"1605651","neighbours":"LA,MM,KH,MY","EquivalentFipsCode":""},"cities":[{"geonameid":"1599410","name":"Non Suwan","asciiname":"Non Suwan","alternatenames":["Amphoe Non Suwan","Ban Non Suwan","King Amphoe Non Suwan","Non Suwan","non suwrrn","โนนสุวรรณ"],"latitude":"14.58044","longitude":"102.59689","feature_class":"P","feature_code":"PPLA2","country_code":"TH","cc2":"","admin1_code":"28","admin2_code":"","admin3_code":"","admin4_code":"","population":"0","elevation":"","dem":"223","timezone":"Asia/Bangkok","modification_date":"2012-01-16"},{"geonameid":"1603291","name":"Huai Rat","asciiname":"Huai Rat","alternatenames":["Amphoe Huai Rat","Ban Huai Rat","Huai Rat","King Amphoe Huai Rat","hwy rach","ห้วยราช"],"latitude":"14.96039","longitude":"103.18911","feature_class":"P","feature_code":"PPLA2","country_code":"TH","cc2":"","admin1_code":"28","admin2_code":"","admin3_code":"","admin4_code":"","population":"0","elevation":"","dem":"162","timezone":"Asia/Bangkok","modification_date":"2012-01-16"},{"geonameid":"1604060","name":"Ban Dan","asciiname":"Ban Dan","alternatenames":["Amphoe Ban Dan","Ban Dan","King Amphoe Ban Dan","bandan","บ้านด่าน"],"latitude":"15.10839","longitude":"103.17551","feature_class":"P","feature_code":"PPLA2","country_code":"TH","cc2":"","admin1_code":"28","admin2_code":"","admin3_code":"","admin4_code":"","population":"0","elevation":"","dem":"147","timezone":"Asia/Bangkok","modification_date":"2012-01-16"},{"geonameid":"1604632","name":"Prakhon Chai","asciiname":"Prakhon Chai","alternatenames":["Prakhon Chai","prakhon chay","ประโคนชัย"],"latitude":"14.61073","longitude":"103.07923","feature_class":"P","feature_code":"PPLA2","country_code":"TH","cc2":"","admin1_code":"28","admin2_code":"","admin3_code":"","admin4_code":"","population":"0","elevation":"","dem":"165","timezone":"Asia/Bangkok","modification_date":"2012-01-16"},{"geonameid":"1606378","name":"Satuek","asciiname":"Satuek","alternatenames":["Amphoe Satuek","Amphoe Satuk","King Amphoe Satuek","Satuek","Satuk","So Tuk","stuk","สตึก"],"latitude":"15.29703","longitude":"103.29192","feature_class":"P","feature_code":"PPLA2","country_code":"TH","cc2":"","admin1_code":"28","admin2_code":"","admin3_code":"","admin4_code":"","population":"11481","elevation":"","dem":"135","timezone":"Asia/Bangkok","modification_date":"2013-12-12"},{"geonameid":"1607258","name":"Pakham","asciiname":"Pakham","alternatenames":["Amphoe Pakham","Ban Prakham","King Amphoe Pakham","Pakham","Prakham","pa kha","ปะคำ"],"latitude":"14.43817","longitude":"102.72558","feature_class":"P","feature_code":"PPLA2","country_code":"TH","cc2":"","admin1_code":"28","admin2_code":"","admin3_code":"","admin4_code":"","population":"0","elevation":"","dem":"208","timezone":"Asia/Bangkok","modification_date":"2012-01-16"},{"geonameid":"1607421","name":"Phutthaisong","asciiname":"Phutthaisong","alternatenames":["Amphoe Phutthaisong","Phutthaisong","phuththisng","พุทไธสง"],"latitude":"15.54783","longitude":"103.02467","feature_class":"P","feature_code":"PPLA2","country_code":"TH","cc2":"","admin1_code":"28","admin2_code":"","admin3_code":"","admin4_code":"","population":"0","elevation":"","dem":"142","timezone":"Asia/Bangkok","modification_date":"2012-01-16"},{"geonameid":"1608222","name":"Nong Ki","asciiname":"Nong Ki","alternatenames":["Amphoe Nong Ki","King Amphoe Nong Ki","Nong Ki","hnxngki","หนองกี่"],"latitude":"14.68679","longitude":"102.538","feature_class":"P","feature_code":"PPLA2","country_code":"TH","cc2":"","admin1_code":"28","admin2_code":"","admin3_code":"","admin4_code":"","population":"13592","elevation":"","dem":"219","timezone":"Asia/Bangkok","modification_date":"2012-01-16"},{"geonameid":"1608247","name":"Nong Hong","asciiname":"Nong Hong","alternatenames":["Amphoe Nong Hong","King Amphoe Nong Hong","Nong Hong","hnxng hngs","หนองหงส์"],"latitude":"14.84782","longitude":"102.68401","feature_class":"P","feature_code":"PPLA2","country_code":"TH","cc2":"","admin1_code":"28","admin2_code":"","admin3_code":"","admin4_code":"","population":"0","elevation":"","dem":"189","timezone":"Asia/Bangkok","modification_date":"2012-01-16"},{"geonameid":"1608415","name":"Na Pho","asciiname":"Na Pho","alternatenames":["Amphoe Na Pho","King Amphoe Na Pho","Na Pho","na phothi","นาโพธิ์"],"latitude":"15.64113","longitude":"102.95462","feature_class":"P","feature_code":"PPLA2","country_code":"TH","cc2":"","admin1_code":"28","admin2_code":"","admin3_code":"","admin4_code":"","population":"0","elevation":"","dem":"158","timezone":"Asia/Bangkok","modification_date":"2012-01-16"},{"geonameid":"1608424","name":"Nang Rong","asciiname":"Nang Rong","alternatenames":["Amphoe Nang Rong","Ban Nang Rong","Mong Nang Rawng","Mueang Nang Rong","Muong Nang Rong","Möng Nang Rawng","Nang Raung","Nang Rong","nangrxng","นางรอง"],"latitude":"14.6377","longitude":"102.79138","feature_class":"P","feature_code":"PPLA2","country_code":"TH","cc2":"","admin1_code":"28","admin2_code":"","admin3_code":"","admin4_code":"","population":"21961","elevation":"","dem":"192","timezone":"Asia/Bangkok","modification_date":"2012-01-16"},{"geonameid":"1609204","name":"Lam Plai Mat","asciiname":"Lam Plai Mat","alternatenames":["Amphoe Lam Plai Mat","Ban Lam Plai Mat","King Amphoe Lam Plai Mat","Lam Plai Mat","la playmas","ลำปลายมาศ"],"latitude":"15.0252","longitude":"102.83894","feature_class":"P","feature_code":"PPLA2","country_code":"TH","cc2":"","admin1_code":"28","admin2_code":"","admin3_code":"","admin4_code":"","population":"0","elevation":"","dem":"169","timezone":"Asia/Bangkok","modification_date":"2012-01-16"},{"geonameid":"1609258","name":"Lahan Sai","asciiname":"Lahan Sai","alternatenames":["Amphoe Lahan Sai","Ban Lahan Sai","Ban Laharn Sai","King Amphoe Lahan Sai","Lahan Sai","lahanthray","ละหานทราย"],"latitude":"14.41142","longitude":"102.85936","feature_class":"P","feature_code":"PPLA2","country_code":"TH","cc2":"","admin1_code":"28","admin2_code":"","admin3_code":"","admin4_code":"","population":"0","elevation":"","dem":"216","timezone":"Asia/Bangkok","modification_date":"2014-08-05"},{"geonameid":"1609421","name":"Krasang","asciiname":"Krasang","alternatenames":["Amphoe Krasang","King Amphoe Krasang","Krasang","krasang","กระสัง"],"latitude":"14.92375","longitude":"103.30369","feature_class":"P","feature_code":"PPLA2","country_code":"TH","cc2":"","admin1_code":"28","admin2_code":"","admin3_code":"","admin4_code":"","population":"0","elevation":"","dem":"155","timezone":"Asia/Bangkok","modification_date":"2012-01-16"},{"geonameid":"1609699","name":"Khu Mueang","asciiname":"Khu Mueang","alternatenames":["Amphoe Khu Mueang","Khu Muang","Khu Mueang","King Amphoe Khu Mueang","khumeuxng","คูเมือง"],"latitude":"15.2716","longitude":"103.00167","feature_class":"P","feature_code":"PPLA2","country_code":"TH","cc2":"","admin1_code":"28","admin2_code":"7510784","admin3_code":"","admin4_code":"","population":"0","elevation":"","dem":"182","timezone":"Asia/Bangkok","modification_date":"2013-12-14"},{"geonameid":"1611453","name":"Buriram","asciiname":"Buriram","alternatenames":["Amphoe Muang Buriram","Amphoe Mueang Buriram","Buriram","Changwat Buriram","Muang Buriram","Muang Pae","Mueang Buri Ram","buriramy","Бурирам","บุรีรัมย์"],"latitude":"14.99433","longitude":"103.10392","feature_class":"P","feature_code":"PPLA","country_code":"TH","cc2":"","admin1_code":"28","admin2_code":"","admin3_code":"","admin4_code":"","population":"28283","elevation":"","dem":"158","timezone":"Asia/Bangkok","modification_date":"2013-08-06"},{"geonameid":"1617331","name":"Ban Kruat","asciiname":"Ban Kruat","alternatenames":["Ban Kruat","King Amphoe Ban Kruat","ba nkrwwd","บ้านกรววด"],"latitude":"14.42313","longitude":"103.09974","feature_class":"P","feature_code":"PPLA2","country_code":"TH","cc2":"","admin1_code":"28","admin2_code":"","admin3_code":"","admin4_code":"","population":"0","elevation":"","dem":"195","timezone":"Asia/Bangkok","modification_date":"2012-01-16"},{"geonameid":"1620279","name":"Chamni","asciiname":"Chamni","alternatenames":["Amphoe Chamni","Ban Cham Nit","Ban Chamni","Chamni","King Amphoe Chamni","chani","ชำนิ"],"latitude":"14.78629","longitude":"102.82277","feature_class":"P","feature_code":"PPLA2","country_code":"TH","cc2":"","admin1_code":"28","admin2_code":"","admin3_code":"","admin4_code":"","population":"0","elevation":"","dem":"176","timezone":"Asia/Bangkok","modification_date":"2012-01-16"},{"geonameid":"7510956","name":"Non Din Daeng","asciiname":"Non Din Daeng","alternatenames":["Amphoe Non Din Daeng","King Amphoe Non Din Daeng","Non Din Daeng","โนนดินแดง"],"latitude":"14.31353","longitude":"102.74814","feature_class":"P","feature_code":"PPLA2","country_code":"TH","cc2":"","admin1_code":"28","admin2_code":"","admin3_code":"","admin4_code":"","population":"0","elevation":"","dem":"245","timezone":"Asia/Bangkok","modification_date":"2012-01-21"},{"geonameid":"7510957","name":"Pa Kham","asciiname":"Pa Kham","alternatenames":["Pa Kham","pa kha","ปะคำ"],"latitude":"14.43817","longitude":"102.72558","feature_class":"P","feature_code":"PPLA2","country_code":"TH","cc2":"","admin1_code":"28","admin2_code":"","admin3_code":"","admin4_code":"","population":"0","elevation":"","dem":"208","timezone":"Asia/Bangkok","modification_date":"2010-08-14"},{"geonameid":"7510958","name":"Chaloem Phra Kiat","asciiname":"Chaloem Phra Kiat","alternatenames":["Chaloem Phra Kiat","chelimphrakeiyrti","เฉลิมพระเกียรติ"],"latitude":"14.55839","longitude":"102.92475","feature_class":"P","feature_code":"PPLA2","country_code":"TH","cc2":"","admin1_code":"28","admin2_code":"","admin3_code":"","admin4_code":"","population":"0","elevation":"","dem":"203","timezone":"Asia/Bangkok","modification_date":"2012-01-21"},{"geonameid":"7510963","name":"Ban Mai Chaiyaphot","asciiname":"Ban Mai Chaiyaphot","alternatenames":["Amphoe Ban Mai Chaiyaphot","Ban Mai Chaiyaphot","King Amphoe Ban Mai Chaiyaphot","บ้านใหม่ไชยพจน์"],"latitude":"15.57361","longitude":"102.83331","feature_class":"P","feature_code":"PPLA2","country_code":"TH","cc2":"","admin1_code":"28","admin2_code":"","admin3_code":"","admin4_code":"","population":"0","elevation":"","dem":"167","timezone":"Asia/Bangkok","modification_date":"2012-01-21"},{"geonameid":"7510970","name":"Phlapphla Chai","asciiname":"Phlapphla Chai","alternatenames":["Amphoe Phlapphla Chai","King Amphoe Phlapphla Chai","Phlapphla Chai","phlabphla chay","พลับพลาชัย"],"latitude":"14.73011","longitude":"103.16728","feature_class":"P","feature_code":"PPLA2","country_code":"TH","cc2":"","admin1_code":"28","admin2_code":"","admin3_code":"","admin4_code":"","population":"0","elevation":"","dem":"161","timezone":"Asia/Bangkok","modification_date":"2012-01-21"},{"geonameid":"7511028","name":"Khaen Dong","asciiname":"Khaen Dong","alternatenames":["Amphoe Khaen Dong","Khaen Dong","King Amphoe Khaen Dong","แคนดง"],"latitude":"15.32476","longitude":"103.13343","feature_class":"P","feature_code":"PPLA2","country_code":"TH","cc2":"","admin1_code":"28","admin2_code":"","admin3_code":"","admin4_code":"","population":"0","elevation":"","dem":"141","timezone":"Asia/Bangkok","modification_date":"2012-01-21"}]}