{"region_data":{"countryId":"2510769","adminCode1":"51","countryName":"Spain","fclName":"country, state, region,...","countryCode":"ES","lng":"-4.5","fcodeName":"first-order administrative division","toponymName":"Andalucía","fcl":"A","numberOfChildren":9,"name":"Andalusia","fcode":"ADM1","geonameId":2593109,"lat":"37.6","adminName1":"Andalusia","population":8302923},"country_data":{"ISO":"ES","ISO3":"ESP","ISO_Numeric":"724","fips":"SP","country":"Spain","capital":"Madrid","area":"504782","Population":"46505963","Continent":"EU","tld":".es","CurrencyCode":"EUR","CurrencyName":"Euro","Phone":"34","Postal_Code_Format":"#####","Postal_Code_Regex":"^(\\d{5})$","Languages":"es-ES,ca,gl,eu,oc","geonameid":"2510769","neighbours":"AD,PT,GI,FR,MA","EquivalentFipsCode":""},"cities":[{"geonameid":"2509293","name":"Zurgena","asciiname":"Zurgena","alternatenames":[""],"latitude":"37.34218","longitude":"-2.03985","feature_class":"P","feature_code":"PPLA3","country_code":"ES","cc2":"","admin1_code":"51","admin2_code":"AL","admin3_code":"04103","admin4_code":"","population":"2317","elevation":"","dem":"244","timezone":"Europe/Madrid","modification_date":"2012-03-04"},{"geonameid":"2509300","name":"Zújar","asciiname":"Zujar","alternatenames":["Zujar","Zújar"],"latitude":"37.54285","longitude":"-2.84197","feature_class":"P","feature_code":"PPL","country_code":"ES","cc2":"","admin1_code":"51","admin2_code":"GR","admin3_code":"18023","admin4_code":"","population":"2699","elevation":"","dem":"780","timezone":"Europe/Madrid","modification_date":"2012-01-19"},{"geonameid":"2509302","name":"Zuheros","asciiname":"Zuheros","alternatenames":["Zuheres","Zuhéres"],"latitude":"37.54332","longitude":"-4.31531","feature_class":"P","feature_code":"PPLA3","country_code":"ES","cc2":"","admin1_code":"51","admin2_code":"CO","admin3_code":"14075","admin4_code":"","population":"827","elevation":"","dem":"665","timezone":"Europe/Madrid","modification_date":"2012-03-04"},{"geonameid":"2509304","name":"Zufre","asciiname":"Zufre","alternatenames":["Zufre"],"latitude":"37.83333","longitude":"-6.33333","feature_class":"P","feature_code":"PPLA3","country_code":"ES","cc2":"","admin1_code":"51","admin2_code":"H","admin3_code":"21079","admin4_code":"","population":"0","elevation":"","dem":"361","timezone":"Europe/Madrid","modification_date":"2012-03-04"},{"geonameid":"2509305","name":"Zubia","asciiname":"Zubia","alternatenames":["La Zubia","Zubia"],"latitude":"37.11906","longitude":"-3.584","feature_class":"P","feature_code":"PPL","country_code":"ES","cc2":"","admin1_code":"51","admin2_code":"GR","admin3_code":"18084","admin4_code":"","population":"17803","elevation":"","dem":"755","timezone":"Europe/Madrid","modification_date":"2012-01-19"},{"geonameid":"2509364","name":"Zalamea la Real","asciiname":"Zalamea la Real","alternatenames":["Zalamea","Zalamea la Real"],"latitude":"37.68012","longitude":"-6.65977","feature_class":"P","feature_code":"PPLA3","country_code":"ES","cc2":"","admin1_code":"51","admin2_code":"H","admin3_code":"21078","admin4_code":"","population":"3506","elevation":"","dem":"411","timezone":"Europe/Madrid","modification_date":"2012-03-04"},{"geonameid":"2509369","name":"Zahara de los Atunes","asciiname":"Zahara de los Atunes","alternatenames":["Saara-de-los-Atunes","Zahara","Zahara de los Atunes","Саара-де-лос-Атунес"],"latitude":"36.1369","longitude":"-5.84591","feature_class":"P","feature_code":"PPL","country_code":"ES","cc2":"","admin1_code":"51","admin2_code":"CA","admin3_code":"11007","admin4_code":"","population":"1307","elevation":"","dem":"4","timezone":"Europe/Madrid","modification_date":"2014-03-11"},{"geonameid":"2509371","name":"Zahara","asciiname":"Zahara","alternatenames":[""],"latitude":"36.84055","longitude":"-5.39128","feature_class":"P","feature_code":"PPLA3","country_code":"ES","cc2":"","admin1_code":"51","admin2_code":"CA","admin3_code":"11042","admin4_code":"","population":"1571","elevation":"","dem":"491","timezone":"Europe/Madrid","modification_date":"2012-03-04"},{"geonameid":"2509374","name":"Zagra","asciiname":"Zagra","alternatenames":[""],"latitude":"37.25561","longitude":"-4.16905","feature_class":"P","feature_code":"PPLA3","country_code":"ES","cc2":"","admin1_code":"51","admin2_code":"GR","admin3_code":"18913","admin4_code":"","population":"1092","elevation":"","dem":"677","timezone":"Europe/Madrid","modification_date":"2012-03-04"},{"geonameid":"2509379","name":"Zafarraya","asciiname":"Zafarraya","alternatenames":[""],"latitude":"36.97554","longitude":"-4.14442","feature_class":"P","feature_code":"PPLA3","country_code":"ES","cc2":"","admin1_code":"51","admin2_code":"GR","admin3_code":"18192","admin4_code":"","population":"2181","elevation":"","dem":"893","timezone":"Europe/Madrid","modification_date":"2012-03-04"},{"geonameid":"2509382","name":"Yunquera","asciiname":"Yunquera","alternatenames":["Yunquera"],"latitude":"36.73252","longitude":"-4.92122","feature_class":"P","feature_code":"PPLA3","country_code":"ES","cc2":"","admin1_code":"51","admin2_code":"MA","admin3_code":"29100","admin4_code":"","population":"3298","elevation":"","dem":"682","timezone":"Europe/Madrid","modification_date":"2012-03-04"},{"geonameid":"2509414","name":"Víznar","asciiname":"Viznar","alternatenames":[""],"latitude":"37.23149","longitude":"-3.55382","feature_class":"P","feature_code":"PPLA3","country_code":"ES","cc2":"","admin1_code":"51","admin2_code":"GR","admin3_code":"18189","admin4_code":"","population":"776","elevation":"","dem":"1083","timezone":"Europe/Madrid","modification_date":"2012-03-04"},{"geonameid":"2509451","name":"Viñuela","asciiname":"Vinuela","alternatenames":[""],"latitude":"36.86307","longitude":"-4.14124","feature_class":"P","feature_code":"PPLA3","country_code":"ES","cc2":"","admin1_code":"51","admin2_code":"MA","admin3_code":"29099","admin4_code":"","population":"1591","elevation":"","dem":"166","timezone":"Europe/Madrid","modification_date":"2012-03-04"},{"geonameid":"2509466","name":"Villaviciosa de Córdoba","asciiname":"Villaviciosa de Cordoba","alternatenames":["Villaviciosa","Villaviciosa de Cordoba","Villaviciosa de Córdoba"],"latitude":"38.08333","longitude":"-5.01667","feature_class":"P","feature_code":"PPL","country_code":"ES","cc2":"","admin1_code":"51","admin2_code":"CO","admin3_code":"14026","admin4_code":"","population":"3647","elevation":"","dem":"692","timezone":"Europe/Madrid","modification_date":"2012-01-19"},{"geonameid":"2509468","name":"Villaverde del Río","asciiname":"Villaverde del Rio","alternatenames":["Villaverde del Rio","Villaverde del Río"],"latitude":"37.58919","longitude":"-5.87443","feature_class":"P","feature_code":"PPLA3","country_code":"ES","cc2":"","admin1_code":"51","admin2_code":"SE","admin3_code":"41101","admin4_code":"","population":"6703","elevation":"","dem":"19","timezone":"Europe/Madrid","modification_date":"2012-03-04"},{"geonameid":"2509488","name":"Villarrubia","asciiname":"Villarrubia","alternatenames":["Villariba","Villarrubia","Виллариба"],"latitude":"37.85","longitude":"-4.9","feature_class":"P","feature_code":"PPL","country_code":"ES","cc2":"","admin1_code":"51","admin2_code":"CO","admin3_code":"14021","admin4_code":"","population":"2893","elevation":"","dem":"93","timezone":"Europe/Madrid","modification_date":"2012-01-19"},{"geonameid":"2509494","name":"Villarrasa","asciiname":"Villarrasa","alternatenames":["Villarrasa"],"latitude":"37.38849","longitude":"-6.60641","feature_class":"P","feature_code":"PPLA3","country_code":"ES","cc2":"","admin1_code":"51","admin2_code":"H","admin3_code":"21077","admin4_code":"","population":"2142","elevation":"","dem":"68","timezone":"Europe/Madrid","modification_date":"2012-12-15"},{"geonameid":"2509510","name":"Villardompardo","asciiname":"Villardompardo","alternatenames":["Villardompardo"],"latitude":"37.83735","longitude":"-4.00051","feature_class":"P","feature_code":"PPLA3","country_code":"ES","cc2":"","admin1_code":"51","admin2_code":"J","admin3_code":"23098","admin4_code":"","population":"1157","elevation":"","dem":"436","timezone":"Europe/Madrid","modification_date":"2012-03-04"},{"geonameid":"2509528","name":"Villaralto","asciiname":"Villaralto","alternatenames":["Villaralto"],"latitude":"38.45","longitude":"-4.98333","feature_class":"P","feature_code":"PPLA3","country_code":"ES","cc2":"","admin1_code":"51","admin2_code":"CO","admin3_code":"14072","admin4_code":"","population":"1398","elevation":"","dem":"577","timezone":"Europe/Madrid","modification_date":"2012-03-04"},{"geonameid":"2509538","name":"Villanueva de Tapia","asciiname":"Villanueva de Tapia","alternatenames":["Villanueva de Tapia"],"latitude":"37.18276","longitude":"-4.33383","feature_class":"P","feature_code":"PPLA3","country_code":"ES","cc2":"","admin1_code":"51","admin2_code":"MA","admin3_code":"29098","admin4_code":"","population":"1695","elevation":"","dem":"649","timezone":"Europe/Madrid","modification_date":"2012-03-04"},{"geonameid":"2509539","name":"Villanueva de San Juan","asciiname":"Villanueva de San Juan","alternatenames":["Villanueva de San Juan"],"latitude":"37.04955","longitude":"-5.1754","feature_class":"P","feature_code":"PPLA3","country_code":"ES","cc2":"","admin1_code":"51","admin2_code":"SE","admin3_code":"41100","admin4_code":"","population":"1450","elevation":"","dem":"468","timezone":"Europe/Madrid","modification_date":"2012-03-04"},{"geonameid":"2509542","name":"Villanueva de Mesía","asciiname":"Villanueva de Mesia","alternatenames":["Villanueva de Mesias","Villanueva de Mesías"],"latitude":"37.21454","longitude":"-4.01404","feature_class":"P","feature_code":"PPLA3","country_code":"ES","cc2":"ES","admin1_code":"51","admin2_code":"GR","admin3_code":"18188","admin4_code":"","population":"0","elevation":"","dem":"498","timezone":"Europe/Madrid","modification_date":"2012-07-15"},{"geonameid":"2509543","name":"Villanueva del Trabuco","asciiname":"Villanueva del Trabuco","alternatenames":[""],"latitude":"37.02832","longitude":"-4.33891","feature_class":"P","feature_code":"PPLA3","country_code":"ES","cc2":"","admin1_code":"51","admin2_code":"MA","admin3_code":"29097","admin4_code":"","population":"5067","elevation":"","dem":"686","timezone":"Europe/Madrid","modification_date":"2012-03-04"},{"geonameid":"2509544","name":"Villanueva del Rosario","asciiname":"Villanueva del Rosario","alternatenames":[""],"latitude":"36.99679","longitude":"-4.36535","feature_class":"P","feature_code":"PPLA3","country_code":"ES","cc2":"","admin1_code":"51","admin2_code":"MA","admin3_code":"29096","admin4_code":"","population":"3356","elevation":"","dem":"693","timezone":"Europe/Madrid","modification_date":"2012-03-04"},{"geonameid":"2509545","name":"Villanueva del Río y Minas","asciiname":"Villanueva del Rio y Minas","alternatenames":["Minas de la Reunion","Villanueva de las Minas","Villanueva del Rio y Minas","Villanueva del Río y Minas"],"latitude":"37.65502","longitude":"-5.71369","feature_class":"P","feature_code":"PPLA3","country_code":"ES","cc2":"","admin1_code":"51","admin2_code":"SE","admin3_code":"41099","admin4_code":"","population":"5213","elevation":"","dem":"67","timezone":"Europe/Madrid","modification_date":"2012-03-04"},{"geonameid":"2509549","name":"Villanueva de los Castillejos","asciiname":"Villanueva de los Castillejos","alternatenames":["Villanueva de los Castillejos"],"latitude":"37.4994","longitude":"-7.29118","feature_class":"P","feature_code":"PPLA3","country_code":"ES","cc2":"","admin1_code":"51","admin2_code":"H","admin3_code":"21076","admin4_code":"","population":"827","elevation":"","dem":"210","timezone":"Europe/Madrid","modification_date":"2012-03-04"},{"geonameid":"2509551","name":"Villanueva del Duque","asciiname":"Villanueva del Duque","alternatenames":["Villanueva del Duque"],"latitude":"38.38333","longitude":"-5","feature_class":"P","feature_code":"PPLA3","country_code":"ES","cc2":"","admin1_code":"51","admin2_code":"CO","admin3_code":"14070","admin4_code":"","population":"1669","elevation":"","dem":"588","timezone":"Europe/Madrid","modification_date":"2012-03-04"},{"geonameid":"2509552","name":"Villanueva de las Torres","asciiname":"Villanueva de las Torres","alternatenames":["Villanueva de las Torres"],"latitude":"37.55719","longitude":"-3.08868","feature_class":"P","feature_code":"PPLA3","country_code":"ES","cc2":"","admin1_code":"51","admin2_code":"GR","admin3_code":"18187","admin4_code":"","population":"752","elevation":"","dem":"637","timezone":"Europe/Madrid","modification_date":"2012-03-04"},{"geonameid":"2509554","name":"Villanueva de las Cruces","asciiname":"Villanueva de las Cruces","alternatenames":["Villanueva de las Cruces"],"latitude":"37.62783","longitude":"-7.02359","feature_class":"P","feature_code":"PPLA3","country_code":"ES","cc2":"","admin1_code":"51","admin2_code":"H","admin3_code":"21075","admin4_code":"","population":"417","elevation":"","dem":"122","timezone":"Europe/Madrid","modification_date":"2012-03-04"},{"geonameid":"2509555","name":"Villanueva del Arzobispo","asciiname":"Villanueva del Arzobispo","alternatenames":["Villanueva del Arzobispo"],"latitude":"38.16842","longitude":"-3.00742","feature_class":"P","feature_code":"PPLA3","country_code":"ES","cc2":"","admin1_code":"51","admin2_code":"J","admin3_code":"23097","admin4_code":"","population":"8716","elevation":"","dem":"683","timezone":"Europe/Madrid","modification_date":"2012-03-04"},{"geonameid":"2509556","name":"Villanueva del Ariscal","asciiname":"Villanueva del Ariscal","alternatenames":["Villanueva del Ariscal"],"latitude":"37.39623","longitude":"-6.14077","feature_class":"P","feature_code":"PPLA3","country_code":"ES","cc2":"","admin1_code":"51","admin2_code":"SE","admin3_code":"41098","admin4_code":"","population":"5471","elevation":"","dem":"153","timezone":"Europe/Madrid","modification_date":"2012-03-04"},{"geonameid":"2509557","name":"Villanueva de la Reina","asciiname":"Villanueva de la Reina","alternatenames":["Villanueva de la Reina"],"latitude":"38.00432","longitude":"-3.91603","feature_class":"P","feature_code":"PPL","country_code":"ES","cc2":"","admin1_code":"51","admin2_code":"J","admin3_code":"23027","admin4_code":"","population":"3373","elevation":"","dem":"223","timezone":"Europe/Madrid","modification_date":"2012-01-19"},{"geonameid":"2509562","name":"Villanueva de Córdoba","asciiname":"Villanueva de Cordoba","alternatenames":["Villanueva de Cordoba","Villanueva de Cordova","Villanueva de Córdoba","Villanueva de Córdova"],"latitude":"38.32277","longitude":"-4.62873","feature_class":"P","feature_code":"PPLA3","country_code":"ES","cc2":"","admin1_code":"51","admin2_code":"CO","admin3_code":"14069","admin4_code":"","population":"10057","elevation":"","dem":"729","timezone":"Europe/Madrid","modification_date":"2012-03-04"},{"geonameid":"2509566","name":"Villanueva de Algaidas","asciiname":"Villanueva de Algaidas","alternatenames":[""],"latitude":"37.1835","longitude":"-4.45032","feature_class":"P","feature_code":"PPLA3","country_code":"ES","cc2":"","admin1_code":"51","admin2_code":"MA","admin3_code":"29095","admin4_code":"","population":"4421","elevation":"","dem":"551","timezone":"Europe/Madrid","modification_date":"2012-03-04"},{"geonameid":"2509575","name":"Villamartín","asciiname":"Villamartin","alternatenames":["Villamartin","Villamartín"],"latitude":"36.85979","longitude":"-5.64485","feature_class":"P","feature_code":"PPLA3","country_code":"ES","cc2":"","admin1_code":"51","admin2_code":"CA","admin3_code":"11041","admin4_code":"","population":"12526","elevation":"","dem":"149","timezone":"Europe/Madrid","modification_date":"2012-03-04"},{"geonameid":"2509577","name":"Villamanrique de la Condesa","asciiname":"Villamanrique de la Condesa","alternatenames":["Villamanrique","Villamanrique de la Condesa"],"latitude":"37.24481","longitude":"-6.30665","feature_class":"P","feature_code":"PPLA3","country_code":"ES","cc2":"","admin1_code":"51","admin2_code":"SE","admin3_code":"41097","admin4_code":"","population":"3779","elevation":"","dem":"32","timezone":"Europe/Madrid","modification_date":"2012-03-04"},{"geonameid":"2509581","name":"Villaluenga del Rosario","asciiname":"Villaluenga del Rosario","alternatenames":["Villaluenga del Rosario"],"latitude":"36.69644","longitude":"-5.38601","feature_class":"P","feature_code":"PPLA3","country_code":"ES","cc2":"","admin1_code":"51","admin2_code":"CA","admin3_code":"11040","admin4_code":"","population":"495","elevation":"","dem":"870","timezone":"Europe/Madrid","modification_date":"2012-03-04"},{"geonameid":"2509587","name":"Villalba del Alcor","asciiname":"Villalba del Alcor","alternatenames":["Villalba del Alcor"],"latitude":"37.39731","longitude":"-6.47461","feature_class":"P","feature_code":"PPLA3","country_code":"ES","cc2":"","admin1_code":"51","admin2_code":"H","admin3_code":"21074","admin4_code":"","population":"3406","elevation":"","dem":"161","timezone":"Europe/Madrid","modification_date":"2012-03-04"},{"geonameid":"2509590","name":"Villaharta","asciiname":"Villaharta","alternatenames":["Villaharta"],"latitude":"38.13333","longitude":"-4.9","feature_class":"P","feature_code":"PPLA3","country_code":"ES","cc2":"","admin1_code":"51","admin2_code":"CO","admin3_code":"14068","admin4_code":"","population":"606","elevation":"","dem":"536","timezone":"Europe/Madrid","modification_date":"2012-03-04"},{"geonameid":"2509599","name":"Villafranca de Córdoba","asciiname":"Villafranca de Cordoba","alternatenames":["Villafranca de Cordoba","Villafranca de Córdoba"],"latitude":"37.96257","longitude":"-4.54547","feature_class":"P","feature_code":"PPLA3","country_code":"ES","cc2":"","admin1_code":"51","admin2_code":"CO","admin3_code":"14067","admin4_code":"","population":"3799","elevation":"","dem":"143","timezone":"Europe/Madrid","modification_date":"2012-03-04"},{"geonameid":"2509603","name":"Villa del Río","asciiname":"Villa del Rio","alternatenames":["Villa del Rio","Villa del Río"],"latitude":"37.98108","longitude":"-4.29003","feature_class":"P","feature_code":"PPLA3","country_code":"ES","cc2":"","admin1_code":"51","admin2_code":"CO","admin3_code":"14066","admin4_code":"","population":"7407","elevation":"","dem":"168","timezone":"Europe/Madrid","modification_date":"2012-03-04"},{"geonameid":"2509606","name":"Villacarrillo","asciiname":"Villacarrillo","alternatenames":["Vil'jakarril'jo","Vil'jakarril'o","Villacarillo","Villacarrillo","bi li ya ka li e","byyakaryyw","fyakaryw","Вильякаррильо","Вільякаррільйо","بییاکارییو","فياكاريو","比利亚卡里略"],"latitude":"38.1156","longitude":"-3.0848","feature_class":"P","feature_code":"PPLA3","country_code":"ES","cc2":"","admin1_code":"51","admin2_code":"J","admin3_code":"23095","admin4_code":"","population":"11294","elevation":"","dem":"799","timezone":"Europe/Madrid","modification_date":"2012-03-04"},{"geonameid":"2509609","name":"Villablanca","asciiname":"Villablanca","alternatenames":["Villablanca"],"latitude":"37.30239","longitude":"-7.34413","feature_class":"P","feature_code":"PPLA3","country_code":"ES","cc2":"","admin1_code":"51","admin2_code":"H","admin3_code":"21073","admin4_code":"","population":"2286","elevation":"","dem":"87","timezone":"Europe/Madrid","modification_date":"2012-03-04"},{"geonameid":"2509615","name":"Vilches","asciiname":"Vilches","alternatenames":["Vilches"],"latitude":"38.20695","longitude":"-3.51025","feature_class":"P","feature_code":"PPLA3","country_code":"ES","cc2":"","admin1_code":"51","admin2_code":"J","admin3_code":"23094","admin4_code":"","population":"4929","elevation":"","dem":"525","timezone":"Europe/Madrid","modification_date":"2012-03-04"},{"geonameid":"2509650","name":"Vícar","asciiname":"Vicar","alternatenames":["Vikar","bi ka er","bykar","Викар","Вікар","بيكار","بیکار","比卡尔"],"latitude":"36.83155","longitude":"-2.64273","feature_class":"P","feature_code":"PPLA3","country_code":"ES","cc2":"","admin1_code":"51","admin2_code":"AL","admin3_code":"04102","admin4_code":"","population":"22853","elevation":"","dem":"278","timezone":"Europe/Madrid","modification_date":"2012-03-04"},{"geonameid":"2509660","name":"Viator","asciiname":"Viator","alternatenames":[""],"latitude":"36.89006","longitude":"-2.42695","feature_class":"P","feature_code":"PPLA3","country_code":"ES","cc2":"","admin1_code":"51","admin2_code":"AL","admin3_code":"04101","admin4_code":"","population":"3945","elevation":"","dem":"75","timezone":"Europe/Madrid","modification_date":"2012-03-04"},{"geonameid":"2509693","name":"Vera","asciiname":"Vera","alternatenames":[""],"latitude":"37.24345","longitude":"-1.85905","feature_class":"P","feature_code":"PPLA3","country_code":"ES","cc2":"","admin1_code":"51","admin2_code":"AL","admin3_code":"04100","admin4_code":"","population":"13985","elevation":"","dem":"75","timezone":"Europe/Madrid","modification_date":"2012-03-04"},{"geonameid":"2509710","name":"Ventas de Huelma","asciiname":"Ventas de Huelma","alternatenames":["Ventas de Huelma"],"latitude":"37.0684","longitude":"-3.81983","feature_class":"P","feature_code":"PPLA3","country_code":"ES","cc2":"","admin1_code":"51","admin2_code":"GR","admin3_code":"18185","admin4_code":"","population":"659","elevation":"","dem":"858","timezone":"Europe/Madrid","modification_date":"2012-03-04"},{"geonameid":"2509768","name":"Velez Rubio","asciiname":"Velez Rubio","alternatenames":["Velez Rubio","Velez-Rubio","Vélez Rubio","Vélez-Rubio"],"latitude":"37.64844","longitude":"-2.07686","feature_class":"P","feature_code":"PPL","country_code":"ES","cc2":"","admin1_code":"51","admin2_code":"AL","admin3_code":"04098","admin4_code":"","population":"7045","elevation":"","dem":"828","timezone":"Europe/Madrid","modification_date":"2012-08-13"},{"geonameid":"2509769","name":"Vélez-Málaga","asciiname":"Velez-Malaga","alternatenames":["Veles-Malaga","Velez-Malaga","Vélez-Màlaga","Vélez-Málaga","bei lai si-ma la jia","beresu=maraga","fylyth-malqt","Вeлес-Мaлага","Велез-Малага","Велес-Малага","فيليث-مالقة","ベレス＝マラガ","贝莱斯-马拉加"],"latitude":"36.77262","longitude":"-4.10045","feature_class":"P","feature_code":"PPLA3","country_code":"ES","cc2":"","admin1_code":"51","admin2_code":"MA","admin3_code":"29094","admin4_code":"","population":"74190","elevation":"","dem":"39","timezone":"Europe/Madrid","modification_date":"2012-03-04"},{"geonameid":"2509771","name":"Vélez de Benaudalla","asciiname":"Velez de Benaudalla","alternatenames":["Velez Benahudalla","Velez Benandalla","Velez de Benaudalla","Velez de Benaudilla","Vélez Benandalla","Vélez de Benaudalla"],"latitude":"36.83244","longitude":"-3.51539","feature_class":"P","feature_code":"PPLA3","country_code":"ES","cc2":"","admin1_code":"51","admin2_code":"GR","admin3_code":"18184","admin4_code":"","population":"2618","elevation":"","dem":"181","timezone":"Europe/Madrid","modification_date":"2012-03-04"},{"geonameid":"2509772","name":"Vélez-Blanco","asciiname":"Velez-Blanco","alternatenames":["Velez-Blanco","Vélez-Blanco"],"latitude":"37.69178","longitude":"-2.09587","feature_class":"P","feature_code":"PPL","country_code":"ES","cc2":"","admin1_code":"51","admin2_code":"AL","admin3_code":"04098","admin4_code":"","population":"2044","elevation":"","dem":"1073","timezone":"Europe/Madrid","modification_date":"2015-01-21"},{"geonameid":"2509779","name":"Velefique","asciiname":"Velefique","alternatenames":["Velefique"],"latitude":"37.19407","longitude":"-2.40155","feature_class":"P","feature_code":"PPLA3","country_code":"ES","cc2":"","admin1_code":"51","admin2_code":"AL","admin3_code":"04097","admin4_code":"","population":"246","elevation":"","dem":"916","timezone":"Europe/Madrid","modification_date":"2012-03-04"},{"geonameid":"2509783","name":"Vejer de la Frontera","asciiname":"Vejer de la Frontera","alternatenames":["Vejer de la Frontera","Vekher-de-la-Frontera","bei he er de la fu long te la","fykhyr dy la frwntyra","Вехер-де-ла-Фронтера","فيخير دي لا فرونتيرا","ベヘール・デ・ラ・フロンテーラ","贝赫尔德拉夫龙特拉"],"latitude":"36.24456","longitude":"-5.96953","feature_class":"P","feature_code":"PPLA3","country_code":"ES","cc2":"","admin1_code":"51","admin2_code":"CA","admin3_code":"11039","admin4_code":"","population":"12973","elevation":"","dem":"164","timezone":"Europe/Madrid","modification_date":"2012-03-04"},{"geonameid":"2509835","name":"Valverde del Camino","asciiname":"Valverde del Camino","alternatenames":["Valverde del Camino"],"latitude":"37.57511","longitude":"-6.75432","feature_class":"P","feature_code":"PPLA3","country_code":"ES","cc2":"","admin1_code":"51","admin2_code":"H","admin3_code":"21072","admin4_code":"","population":"12780","elevation":"","dem":"286","timezone":"Europe/Madrid","modification_date":"2012-03-04"},{"geonameid":"2509853","name":"Válor","asciiname":"Valor","alternatenames":[""],"latitude":"36.99618","longitude":"-3.08287","feature_class":"P","feature_code":"PPLA3","country_code":"ES","cc2":"","admin1_code":"51","admin2_code":"GR","admin3_code":"18183","admin4_code":"","population":"743","elevation":"","dem":"896","timezone":"Europe/Madrid","modification_date":"2012-03-04"},{"geonameid":"2509944","name":"Valenzuela","asciiname":"Valenzuela","alternatenames":[""],"latitude":"37.7756","longitude":"-4.22038","feature_class":"P","feature_code":"PPLA3","country_code":"ES","cc2":"","admin1_code":"51","admin2_code":"CO","admin3_code":"14063","admin4_code":"","population":"1387","elevation":"","dem":"327","timezone":"Europe/Madrid","modification_date":"2011-07-31"},{"geonameid":"2509946","name":"Valencina de la Concepción","asciiname":"Valencina de la Concepcion","alternatenames":["Valencina","Valencina de la Concepcion","Valencina de la Concepción","Valencina del Alcor"],"latitude":"37.41618","longitude":"-6.07422","feature_class":"P","feature_code":"PPLA3","country_code":"ES","cc2":"","admin1_code":"51","admin2_code":"SE","admin3_code":"41096","admin4_code":"","population":"7343","elevation":"","dem":"151","timezone":"Europe/Madrid","modification_date":"2012-03-04"},{"geonameid":"2509974","name":"Valdés","asciiname":"Valdes","alternatenames":[""],"latitude":"36.75835","longitude":"-4.24235","feature_class":"P","feature_code":"PPL","country_code":"ES","cc2":"","admin1_code":"51","admin2_code":"MA","admin3_code":"29094","admin4_code":"","population":"13529","elevation":"","dem":"293","timezone":"Europe/Madrid","modification_date":"2010-04-22"},{"geonameid":"2509980","name":"Valdepeñas de Jaén","asciiname":"Valdepenas de Jaen","alternatenames":["Valdepenas","Valdepenas de Jaen","Valdepeñas","Valdepeñas de Jaén"],"latitude":"37.58903","longitude":"-3.8145","feature_class":"P","feature_code":"PPLA3","country_code":"ES","cc2":"","admin1_code":"51","admin2_code":"J","admin3_code":"23093","admin4_code":"","population":"4331","elevation":"","dem":"963","timezone":"Europe/Madrid","modification_date":"2012-03-04"},{"geonameid":"2510000","name":"Valdelarco","asciiname":"Valdelarco","alternatenames":["Valdelarco"],"latitude":"37.94877","longitude":"-6.68202","feature_class":"P","feature_code":"PPLA3","country_code":"ES","cc2":"","admin1_code":"51","admin2_code":"H","admin3_code":"21071","admin4_code":"","population":"0","elevation":"","dem":"624","timezone":"Europe/Madrid","modification_date":"2012-03-04"},{"geonameid":"2510073","name":"Utrera","asciiname":"Utrera","alternatenames":["Utrera","Утрера"],"latitude":"37.18516","longitude":"-5.78093","feature_class":"P","feature_code":"PPLA3","country_code":"ES","cc2":"","admin1_code":"51","admin2_code":"SE","admin3_code":"41095","admin4_code":"","population":"50665","elevation":"","dem":"52","timezone":"Europe/Madrid","modification_date":"2012-03-04"},{"geonameid":"2510081","name":"Urrácal","asciiname":"Urracal","alternatenames":["Urracal"],"latitude":"37.3974","longitude":"-2.36485","feature_class":"P","feature_code":"PPLA3","country_code":"ES","cc2":"","admin1_code":"51","admin2_code":"AL","admin3_code":"04096","admin4_code":"","population":"365","elevation":"","dem":"749","timezone":"Europe/Madrid","modification_date":"2012-03-04"},{"geonameid":"2510098","name":"Umbrete","asciiname":"Umbrete","alternatenames":["Umbrete","wen fu lei te","Умбрете","温夫雷特"],"latitude":"37.36881","longitude":"-6.15847","feature_class":"P","feature_code":"PPLA3","country_code":"ES","cc2":"","admin1_code":"51","admin2_code":"SE","admin3_code":"41094","admin4_code":"","population":"5527","elevation":"","dem":"122","timezone":"Europe/Madrid","modification_date":"2012-03-04"},{"geonameid":"2510100","name":"Uleila del Campo","asciiname":"Uleila del Campo","alternatenames":["Uleila","Uleila de Campo","Uleila del Campo"],"latitude":"37.1846","longitude":"-2.20491","feature_class":"P","feature_code":"PPLA3","country_code":"ES","cc2":"","admin1_code":"51","admin2_code":"AL","admin3_code":"04095","admin4_code":"","population":"953","elevation":"","dem":"618","timezone":"Europe/Madrid","modification_date":"2012-03-04"},{"geonameid":"2510103","name":"Ugíjar","asciiname":"Ugijar","alternatenames":[""],"latitude":"36.96087","longitude":"-3.05523","feature_class":"P","feature_code":"PPLA3","country_code":"ES","cc2":"","admin1_code":"51","admin2_code":"GR","admin3_code":"18182","admin4_code":"","population":"2546","elevation":"","dem":"548","timezone":"Europe/Madrid","modification_date":"2012-03-04"},{"geonameid":"2510112","name":"Ubrique","asciiname":"Ubrique","alternatenames":["Ubrique"],"latitude":"36.67777","longitude":"-5.446","feature_class":"P","feature_code":"PPLA3","country_code":"ES","cc2":"","admin1_code":"51","admin2_code":"CA","admin3_code":"11038","admin4_code":"","population":"16979","elevation":"","dem":"325","timezone":"Europe/Madrid","modification_date":"2012-03-04"},{"geonameid":"2510116","name":"Úbeda","asciiname":"Ubeda","alternatenames":["Ubeda","abdt","awbda","ubeda","wu wei da","Úbeda","Убеда","أبدة","اوبدا","უბედა","ウベダ","乌韦达","우베다"],"latitude":"38.01328","longitude":"-3.3705","feature_class":"P","feature_code":"PPLA3","country_code":"ES","cc2":"","admin1_code":"51","admin2_code":"J","admin3_code":"23092","admin4_code":"","population":"35649","elevation":"","dem":"766","timezone":"Europe/Madrid","modification_date":"2012-03-04"},{"geonameid":"2510123","name":"Turrillas","asciiname":"Turrillas","alternatenames":["Turrillas"],"latitude":"37.02948","longitude":"-2.26607","feature_class":"P","feature_code":"PPLA3","country_code":"ES","cc2":"","admin1_code":"51","admin2_code":"AL","admin3_code":"04094","admin4_code":"","population":"247","elevation":"","dem":"845","timezone":"Europe/Madrid","modification_date":"2012-03-04"},{"geonameid":"2510124","name":"Turre","asciiname":"Turre","alternatenames":["Ture","Turre","tu lei","twrh","twrry","Туре","Турре","تورري","توره","图雷"],"latitude":"37.15224","longitude":"-1.89497","feature_class":"P","feature_code":"PPLA3","country_code":"ES","cc2":"","admin1_code":"51","admin2_code":"AL","admin3_code":"04093","admin4_code":"","population":"2746","elevation":"","dem":"50","timezone":"Europe/Madrid","modification_date":"2012-03-04"},{"geonameid":"2510165","name":"Trigueros","asciiname":"Trigueros","alternatenames":["Trigueros"],"latitude":"37.38606","longitude":"-6.8268","feature_class":"P","feature_code":"PPLA3","country_code":"ES","cc2":"","admin1_code":"51","admin2_code":"H","admin3_code":"21070","admin4_code":"","population":"7221","elevation":"","dem":"75","timezone":"Europe/Madrid","modification_date":"2012-03-04"},{"geonameid":"2510175","name":"Trevélez","asciiname":"Trevelez","alternatenames":["Trevelez","Trevélez"],"latitude":"37.00037","longitude":"-3.26545","feature_class":"P","feature_code":"PPLA3","country_code":"ES","cc2":"","admin1_code":"51","admin2_code":"GR","admin3_code":"18180","admin4_code":"","population":"839","elevation":"","dem":"1468","timezone":"Europe/Madrid","modification_date":"2012-03-04"},{"geonameid":"2510186","name":"Trebujena","asciiname":"Trebujena","alternatenames":["Trebujena"],"latitude":"36.87075","longitude":"-6.17586","feature_class":"P","feature_code":"PPLA3","country_code":"ES","cc2":"","admin1_code":"51","admin2_code":"CA","admin3_code":"11037","admin4_code":"","population":"6806","elevation":"","dem":"73","timezone":"Europe/Madrid","modification_date":"2012-03-04"},{"geonameid":"2510245","name":"Torrox","asciiname":"Torrox","alternatenames":["Torroks","trsh","tuo luo si","Торрокс","طرش","托罗斯"],"latitude":"36.75793","longitude":"-3.95233","feature_class":"P","feature_code":"PPLA3","country_code":"ES","cc2":"","admin1_code":"51","admin2_code":"MA","admin3_code":"29091","admin4_code":"","population":"16890","elevation":"","dem":"147","timezone":"Europe/Madrid","modification_date":"2012-03-04"},{"geonameid":"2510266","name":"Torres","asciiname":"Torres","alternatenames":[""],"latitude":"37.78537","longitude":"-3.50902","feature_class":"P","feature_code":"PPLA3","country_code":"ES","cc2":"","admin1_code":"51","admin2_code":"J","admin3_code":"23090","admin4_code":"","population":"1749","elevation":"","dem":"885","timezone":"Europe/Madrid","modification_date":"2012-03-04"},{"geonameid":"2510270","name":"Torreperogil","asciiname":"Torreperogil","alternatenames":["Torreperogil"],"latitude":"38.0354","longitude":"-3.28998","feature_class":"P","feature_code":"PPLA3","country_code":"ES","cc2":"","admin1_code":"51","admin2_code":"J","admin3_code":"23088","admin4_code":"","population":"6786","elevation":"","dem":"756","timezone":"Europe/Madrid","modification_date":"2012-03-04"},{"geonameid":"2510281","name":"Torremolinos","asciiname":"Torremolinos","alternatenames":["Toremolinos","Toremolinos-Malaga","Toremolinos-Málaga","Torremolinos","Torremolinos-Malaga","Torremolinos-Málaga","UTL","tuo lei mo li nuo si","twrymwlynws","Τορρεμολίνος","Торемолинос","Торремолинос","Торремолінос","توريمولينوس","托雷莫利诺斯"],"latitude":"36.62035","longitude":"-4.49976","feature_class":"P","feature_code":"PPLA3","country_code":"ES","cc2":"","admin1_code":"51","admin2_code":"MA","admin3_code":"29901","admin4_code":"","population":"65448","elevation":"","dem":"47","timezone":"Europe/Madrid","modification_date":"2012-03-04"},{"geonameid":"2510301","name":"Torredonjimeno","asciiname":"Torredonjimeno","alternatenames":["Torredongimeno","Torredonjimeno","Torredonkhimeno","trdnkhymnw","tuo lei dong xi mei nuo","twrydwnkhymynw","Торредонхимено","Торредонхімено","تردنخیمنو","توريدونخيمينو","托雷东希梅诺"],"latitude":"37.76748","longitude":"-3.95776","feature_class":"P","feature_code":"PPLA3","country_code":"ES","cc2":"","admin1_code":"51","admin2_code":"J","admin3_code":"23087","admin4_code":"","population":"14181","elevation":"","dem":"596","timezone":"Europe/Madrid","modification_date":"2012-03-04"},{"geonameid":"2510310","name":"Torre del Campo","asciiname":"Torre del Campo","alternatenames":["Torre del Compo"],"latitude":"37.77051","longitude":"-3.89731","feature_class":"P","feature_code":"PPLA3","country_code":"ES","cc2":"","admin1_code":"51","admin2_code":"J","admin3_code":"23086","admin4_code":"","population":"14627","elevation":"","dem":"645","timezone":"Europe/Madrid","modification_date":"2012-03-04"},{"geonameid":"2510328","name":"Torre-Cardela","asciiname":"Torre-Cardela","alternatenames":[""],"latitude":"37.50456","longitude":"-3.35609","feature_class":"P","feature_code":"PPLA3","country_code":"ES","cc2":"","admin1_code":"51","admin2_code":"GR","admin3_code":"18178","admin4_code":"","population":"1107","elevation":"","dem":"1218","timezone":"Europe/Madrid","modification_date":"2012-03-04"},{"geonameid":"2510329","name":"Torrecampo","asciiname":"Torrecampo","alternatenames":["Torrecampo"],"latitude":"38.46667","longitude":"-4.66667","feature_class":"P","feature_code":"PPLA3","country_code":"ES","cc2":"","admin1_code":"51","admin2_code":"CO","admin3_code":"14062","admin4_code":"","population":"1384","elevation":"","dem":"601","timezone":"Europe/Madrid","modification_date":"2011-07-31"},{"geonameid":"2510330","name":"Torreblascopedro","asciiname":"Torreblascopedro","alternatenames":["Torreblascopedro"],"latitude":"37.9975","longitude":"-3.6378","feature_class":"P","feature_code":"PPLA3","country_code":"ES","cc2":"","admin1_code":"51","admin2_code":"J","admin3_code":"23085","admin4_code":"","population":"2713","elevation":"","dem":"333","timezone":"Europe/Madrid","modification_date":"2012-03-04"},{"geonameid":"2510336","name":"Torre Alháquime","asciiname":"Torre Alhaquime","alternatenames":["Torre Alhaquime","Torre Alháquime"],"latitude":"36.91588","longitude":"-5.23381","feature_class":"P","feature_code":"PPLA3","country_code":"ES","cc2":"","admin1_code":"51","admin2_code":"CA","admin3_code":"11036","admin4_code":"","population":"875","elevation":"","dem":"469","timezone":"Europe/Madrid","modification_date":"2012-03-04"},{"geonameid":"2510394","name":"Tomares","asciiname":"Tomares","alternatenames":["Tomares"],"latitude":"37.37281","longitude":"-6.04589","feature_class":"P","feature_code":"PPLA3","country_code":"ES","cc2":"","admin1_code":"51","admin2_code":"SE","admin3_code":"41093","admin4_code":"","population":"22772","elevation":"","dem":"76","timezone":"Europe/Madrid","modification_date":"2012-03-04"},{"geonameid":"2510398","name":"Tolox","asciiname":"Tolox","alternatenames":["Tolox"],"latitude":"36.68721","longitude":"-4.90511","feature_class":"P","feature_code":"PPLA3","country_code":"ES","cc2":"","admin1_code":"51","admin2_code":"MA","admin3_code":"29090","admin4_code":"","population":"2261","elevation":"","dem":"313","timezone":"Europe/Madrid","modification_date":"2012-03-04"},{"geonameid":"2510419","name":"Tocina","asciiname":"Tocina","alternatenames":["Tocina"],"latitude":"37.60904","longitude":"-5.73403","feature_class":"P","feature_code":"PPLA3","country_code":"ES","cc2":"","admin1_code":"51","admin2_code":"SE","admin3_code":"41092","admin4_code":"","population":"9067","elevation":"","dem":"29","timezone":"Europe/Madrid","modification_date":"2012-03-04"},{"geonameid":"2510463","name":"Tíjola","asciiname":"Tijola","alternatenames":["Tijola","Tikhola","Tíjola","di huo la","tykhwla","Тихола","Тијола","Тіхола","تيخولا","تیخولا","蒂霍拉"],"latitude":"37.34606","longitude":"-2.43326","feature_class":"P","feature_code":"PPL","country_code":"ES","cc2":"","admin1_code":"51","admin2_code":"AL","admin3_code":"04018","admin4_code":"","population":"3724","elevation":"","dem":"689","timezone":"Europe/Madrid","modification_date":"2012-01-19"},{"geonameid":"2510507","name":"Terque","asciiname":"Terque","alternatenames":["Terque"],"latitude":"36.98393","longitude":"-2.59679","feature_class":"P","feature_code":"PPLA3","country_code":"ES","cc2":"","admin1_code":"51","admin2_code":"AL","admin3_code":"04091","admin4_code":"","population":"447","elevation":"","dem":"293","timezone":"Europe/Madrid","modification_date":"2012-03-04"},{"geonameid":"2510580","name":"Teba","asciiname":"Teba","alternatenames":["Teba","te wa","tyba  malqt","Теба","تيبا، مالقة","特瓦"],"latitude":"36.98358","longitude":"-4.91913","feature_class":"P","feature_code":"PPLA3","country_code":"ES","cc2":"","admin1_code":"51","admin2_code":"MA","admin3_code":"29089","admin4_code":"","population":"4304","elevation":"","dem":"547","timezone":"Europe/Madrid","modification_date":"2012-03-04"},{"geonameid":"2510599","name":"Tarifa","asciiname":"Tarifa","alternatenames":["Gorad Taryfa","Tarifa","ta li fa","talipa","tarifa","tryfa","Горад Тарыфа","Тарифа","Таріфа","طريفا","タリファ","塔里法","타리파"],"latitude":"36.01393","longitude":"-5.60695","feature_class":"P","feature_code":"PPLA3","country_code":"ES","cc2":"","admin1_code":"51","admin2_code":"CA","admin3_code":"11035","admin4_code":"","population":"17793","elevation":"","dem":"22","timezone":"Europe/Madrid","modification_date":"2012-03-04"},{"geonameid":"2510716","name":"Tahal","asciiname":"Tahal","alternatenames":["Tahal"],"latitude":"37.22797","longitude":"-2.2847","feature_class":"P","feature_code":"PPLA3","country_code":"ES","cc2":"","admin1_code":"51","admin2_code":"AL","admin3_code":"04090","admin4_code":"","population":"393","elevation":"","dem":"1010","timezone":"Europe/Madrid","modification_date":"2012-03-04"},{"geonameid":"2510746","name":"Tabernas","asciiname":"Tabernas","alternatenames":["Tabernas"],"latitude":"37.04992","longitude":"-2.39084","feature_class":"P","feature_code":"PPLA3","country_code":"ES","cc2":"","admin1_code":"51","admin2_code":"AL","admin3_code":"04088","admin4_code":"","population":"3241","elevation":"","dem":"404","timezone":"Europe/Madrid","modification_date":"2012-03-04"},{"geonameid":"2510762","name":"Suflí","asciiname":"Sufli","alternatenames":["Sufli","Suflí"],"latitude":"37.33866","longitude":"-2.38817","feature_class":"P","feature_code":"PPLA3","country_code":"ES","cc2":"","admin1_code":"51","admin2_code":"AL","admin3_code":"04087","admin4_code":"","population":"228","elevation":"","dem":"640","timezone":"Europe/Madrid","modification_date":"2012-03-04"},{"geonameid":"2510785","name":"Sorvilán","asciiname":"Sorvilan","alternatenames":["Sorvilan","Sorvilán"],"latitude":"36.79505","longitude":"-3.26769","feature_class":"P","feature_code":"PPLA3","country_code":"ES","cc2":"","admin1_code":"51","admin2_code":"GR","admin3_code":"18177","admin4_code":"","population":"746","elevation":"","dem":"790","timezone":"Europe/Madrid","modification_date":"2012-03-04"},{"geonameid":"2510787","name":"Sorihuela del Guadalimar","asciiname":"Sorihuela del Guadalimar","alternatenames":["Sorihuela del Guadalimar"],"latitude":"38.24062","longitude":"-3.0536","feature_class":"P","feature_code":"PPLA3","country_code":"ES","cc2":"","admin1_code":"51","admin2_code":"J","admin3_code":"23084","admin4_code":"","population":"1232","elevation":"","dem":"650","timezone":"Europe/Madrid","modification_date":"2012-03-04"},{"geonameid":"2510793","name":"Sorbas","asciiname":"Sorbas","alternatenames":["Sorbas"],"latitude":"37.09761","longitude":"-2.12349","feature_class":"P","feature_code":"PPLA3","country_code":"ES","cc2":"","admin1_code":"51","admin2_code":"AL","admin3_code":"04086","admin4_code":"","population":"2679","elevation":"","dem":"399","timezone":"Europe/Madrid","modification_date":"2012-03-04"},{"geonameid":"2510794","name":"Soportújar","asciiname":"Soportujar","alternatenames":[""],"latitude":"36.92863","longitude":"-3.40542","feature_class":"P","feature_code":"PPLA3","country_code":"ES","cc2":"","admin1_code":"51","admin2_code":"GR","admin3_code":"18176","admin4_code":"","population":"273","elevation":"","dem":"950","timezone":"Europe/Madrid","modification_date":"2012-03-04"},{"geonameid":"2510815","name":"Somontín","asciiname":"Somontin","alternatenames":["Somolin","Somolín","Somontin","Somontín"],"latitude":"37.39176","longitude":"-2.38828","feature_class":"P","feature_code":"PPLA3","country_code":"ES","cc2":"","admin1_code":"51","admin2_code":"AL","admin3_code":"04085","admin4_code":"","population":"552","elevation":"","dem":"821","timezone":"Europe/Madrid","modification_date":"2012-03-04"},{"geonameid":"2510883","name":"Siles","asciiname":"Siles","alternatenames":["Siles"],"latitude":"38.38983","longitude":"-2.5819","feature_class":"P","feature_code":"PPLA3","country_code":"ES","cc2":"","admin1_code":"51","admin2_code":"J","admin3_code":"23082","admin4_code":"","population":"0","elevation":"","dem":"840","timezone":"Europe/Madrid","modification_date":"2012-03-04"},{"geonameid":"2510891","name":"Sierro","asciiname":"Sierro","alternatenames":["Sierro"],"latitude":"37.32237","longitude":"-2.39844","feature_class":"P","feature_code":"PPLA3","country_code":"ES","cc2":"","admin1_code":"51","admin2_code":"AL","admin3_code":"04084","admin4_code":"","population":"452","elevation":"","dem":"726","timezone":"Europe/Madrid","modification_date":"2012-03-04"},{"geonameid":"2510895","name":"Sierra de Yeguas","asciiname":"Sierra de Yeguas","alternatenames":["Sierra de Yeguas"],"latitude":"37.1242","longitude":"-4.86773","feature_class":"P","feature_code":"PPLA3","country_code":"ES","cc2":"","admin1_code":"51","admin2_code":"MA","admin3_code":"29088","admin4_code":"","population":"3311","elevation":"","dem":"454","timezone":"Europe/Madrid","modification_date":"2012-03-04"},{"geonameid":"2510911","name":"Sevilla","asciiname":"Sevilla","alternatenames":["Gorad Sevil'ja","Hispalis","Lungsod ng Sevilla","SVQ","Sebilla","Sebille","Sevidzheh","Sevil'ja","Sevila","Sevileje","Sevilha","Sevilia","Sevilija","Sevilja","Sevilla","Seville","Sevilo","Sevilya","Sevilėjė","Seviya","Seweliye","Sewilla","Sibilia","Siviglia","Sivilja","Séville","Séwéliye","ashbylyt","ceviya","isabili'a","sai wei li ya","sai wei ya","sbylyh","sebi ya","sebiria","sebirya","sebiya","sevilia","swya","sybyya","Σεβίλλη","Горад Севілья","Севиджэ","Севилья","Севиля","Севилја","Севиља","Севілья","Սևիլյա","סביליה","סעווילא","إشبيلية","اشبیلیہ","سویا","سيبييا","سێڤیلیا","सेबिया","ਇਸ਼ਬੀਲੀਆ","செவீயா","เซบียา","სევილია","セビリア","セビリャ","塞維亞","塞维利亚","세비야"],"latitude":"37.38283","longitude":"-5.97317","feature_class":"P","feature_code":"PPLA","country_code":"ES","cc2":"","admin1_code":"51","admin2_code":"SE","admin3_code":"41091","admin4_code":"","population":"703206","elevation":"","dem":"16","timezone":"Europe/Madrid","modification_date":"2014-02-09"},{"geonameid":"2510915","name":"Setenil de las Bodegas","asciiname":"Setenil de las Bodegas","alternatenames":["Setenil"],"latitude":"36.86397","longitude":"-5.18177","feature_class":"P","feature_code":"PPL","country_code":"ES","cc2":"","admin1_code":"51","admin2_code":"MA","admin3_code":"29084","admin4_code":"","population":"3016","elevation":"","dem":"555","timezone":"Europe/Madrid","modification_date":"2008-11-29"},{"geonameid":"2510944","name":"Serón","asciiname":"Seron","alternatenames":["Seron","Serón"],"latitude":"37.34485","longitude":"-2.50913","feature_class":"P","feature_code":"PPLA3","country_code":"ES","cc2":"","admin1_code":"51","admin2_code":"AL","admin3_code":"04083","admin4_code":"","population":"2432","elevation":"","dem":"793","timezone":"Europe/Madrid","modification_date":"2012-03-04"},{"geonameid":"2510968","name":"Segura de la Sierra","asciiname":"Segura de la Sierra","alternatenames":["Segura de la Sierra","Segura-de-la-S'erra","sai gu la de la xie la","sgwra d la syra","syghwra dy la syyra","Сегура-де-ла-Сьерра","Сегура-де-ла-Сьєрра","سيغورا دي لا سييرا","سگورا د لا سیرا","塞古拉德拉谢拉"],"latitude":"38.29777","longitude":"-2.65229","feature_class":"P","feature_code":"PPL","country_code":"ES","cc2":"","admin1_code":"51","admin2_code":"J","admin3_code":"23065","admin4_code":"","population":"1773","elevation":"","dem":"1071","timezone":"Europe/Madrid","modification_date":"2012-01-19"},{"geonameid":"2511009","name":"Sayalonga","asciiname":"Sayalonga","alternatenames":["Sayalonga"],"latitude":"36.79819","longitude":"-4.01325","feature_class":"P","feature_code":"PPLA3","country_code":"ES","cc2":"","admin1_code":"51","admin2_code":"MA","admin3_code":"29086","admin4_code":"","population":"1366","elevation":"","dem":"347","timezone":"Europe/Madrid","modification_date":"2012-03-04"},{"geonameid":"2511038","name":"Santo Tomé","asciiname":"Santo Tome","alternatenames":["Santo Tome","Santo Tomé"],"latitude":"38.02861","longitude":"-3.10092","feature_class":"P","feature_code":"PPLA3","country_code":"ES","cc2":"","admin1_code":"51","admin2_code":"J","admin3_code":"23080","admin4_code":"","population":"2273","elevation":"","dem":"454","timezone":"Europe/Madrid","modification_date":"2012-03-04"},{"geonameid":"2511063","name":"Santisteban del Puerto","asciiname":"Santisteban del Puerto","alternatenames":["Santisteban del Puerto"],"latitude":"38.24829","longitude":"-3.20762","feature_class":"P","feature_code":"PPLA3","country_code":"ES","cc2":"","admin1_code":"51","admin2_code":"J","admin3_code":"23079","admin4_code":"","population":"4756","elevation":"","dem":"707","timezone":"Europe/Madrid","modification_date":"2012-03-04"},{"geonameid":"2511064","name":"Santiponce","asciiname":"Santiponce","alternatenames":["Santiponce"],"latitude":"37.43553","longitude":"-6.04106","feature_class":"P","feature_code":"PPLA3","country_code":"ES","cc2":"","admin1_code":"51","admin2_code":"SE","admin3_code":"41089","admin4_code":"","population":"7561","elevation":"","dem":"12","timezone":"Europe/Madrid","modification_date":"2012-03-04"},{"geonameid":"2511075","name":"Santiago de Calatrava","asciiname":"Santiago de Calatrava","alternatenames":["Santiago de Calatrava"],"latitude":"37.75382","longitude":"-4.17093","feature_class":"P","feature_code":"PPLA3","country_code":"ES","cc2":"","admin1_code":"51","admin2_code":"J","admin3_code":"23077","admin4_code":"","population":"876","elevation":"","dem":"397","timezone":"Europe/Madrid","modification_date":"2012-03-04"},{"geonameid":"2511103","name":"Santa Olalla del Cala","asciiname":"Santa Olalla del Cala","alternatenames":["Santa Olalla","Santa Olalla de Cala","Santa Olalla del Cala","Santa Ololla del Cala"],"latitude":"37.9","longitude":"-6.21667","feature_class":"P","feature_code":"PPLA3","country_code":"ES","cc2":"ES","admin1_code":"51","admin2_code":"H","admin3_code":"21069","admin4_code":"","population":"0","elevation":"","dem":"493","timezone":"Europe/Madrid","modification_date":"2012-03-04"},{"geonameid":"2511158","name":"Santa Fe de Mondújar","asciiname":"Santa Fe de Mondujar","alternatenames":["Santa Fe","Santa Fe de Mondujar","Santa Fe de Mondújar"],"latitude":"36.97479","longitude":"-2.53126","feature_class":"P","feature_code":"PPLA3","country_code":"ES","cc2":"","admin1_code":"51","admin2_code":"AL","admin3_code":"04081","admin4_code":"","population":"429","elevation":"","dem":"235","timezone":"Europe/Madrid","modification_date":"2012-03-04"},{"geonameid":"2511167","name":"Santa Eufemia","asciiname":"Santa Eufemia","alternatenames":["Santa Eufemia"],"latitude":"38.6","longitude":"-4.9","feature_class":"P","feature_code":"PPLA3","country_code":"ES","cc2":"","admin1_code":"51","admin2_code":"CO","admin3_code":"14061","admin4_code":"","population":"1015","elevation":"","dem":"562","timezone":"Europe/Madrid","modification_date":"2011-07-31"},{"geonameid":"2511170","name":"Santaella","asciiname":"Santaella","alternatenames":["Santaella"],"latitude":"37.56294","longitude":"-4.84362","feature_class":"P","feature_code":"PPLA3","country_code":"ES","cc2":"","admin1_code":"51","admin2_code":"CO","admin3_code":"14060","admin4_code":"","population":"5933","elevation":"","dem":"260","timezone":"Europe/Madrid","modification_date":"2012-03-04"},{"geonameid":"2511171","name":"Santa Elena","asciiname":"Santa Elena","alternatenames":["Santa Elena"],"latitude":"38.34162","longitude":"-3.53953","feature_class":"P","feature_code":"PPLA3","country_code":"ES","cc2":"","admin1_code":"51","admin2_code":"J","admin3_code":"23076","admin4_code":"","population":"996","elevation":"","dem":"759","timezone":"Europe/Madrid","modification_date":"2012-03-04"},{"geonameid":"2511203","name":"Santa Bárbara de Casa","asciiname":"Santa Barbara de Casa","alternatenames":["Santa Barbara","Santa Barbara de Casa","Santa Barbara de Casas","Santa Bárbara","Santa Bárbara de Casa","Santa Bárbara de Casas"],"latitude":"37.79665","longitude":"-7.18735","feature_class":"P","feature_code":"PPLA3","country_code":"ES","cc2":"","admin1_code":"51","admin2_code":"H","admin3_code":"21068","admin4_code":"","population":"0","elevation":"","dem":"311","timezone":"Europe/Madrid","modification_date":"2012-03-04"},{"geonameid":"2511209","name":"Santa Ana la Real","asciiname":"Santa Ana la Real","alternatenames":["Santa Ana la Real"],"latitude":"37.86245","longitude":"-6.72385","feature_class":"P","feature_code":"PPLA3","country_code":"ES","cc2":"","admin1_code":"51","admin2_code":"H","admin3_code":"21067","admin4_code":"","population":"0","elevation":"","dem":"641","timezone":"Europe/Madrid","modification_date":"2012-03-04"},{"geonameid":"2511227","name":"San Silvestre de Guzmán","asciiname":"San Silvestre de Guzman","alternatenames":["San Silvestre de Guzman","San Silvestre de Guzmán"],"latitude":"37.3877","longitude":"-7.34908","feature_class":"P","feature_code":"PPLA3","country_code":"ES","cc2":"","admin1_code":"51","admin2_code":"H","admin3_code":"21066","admin4_code":"","population":"624","elevation":"","dem":"152","timezone":"Europe/Madrid","modification_date":"2012-03-04"},{"geonameid":"2511229","name":"San Sebastián de los Ballesteros","asciiname":"San Sebastian de los Ballesteros","alternatenames":["San Sebastian de los Ballesteros","San Sebastián de los Ballesteros"],"latitude":"37.65376","longitude":"-4.82409","feature_class":"P","feature_code":"PPLA3","country_code":"ES","cc2":"","admin1_code":"51","admin2_code":"CO","admin3_code":"14059","admin4_code":"","population":"869","elevation":"","dem":"310","timezone":"Europe/Madrid","modification_date":"2012-03-04"},{"geonameid":"2511239","name":"San Roque","asciiname":"San Roque","alternatenames":["San Roque"],"latitude":"36.21067","longitude":"-5.38415","feature_class":"P","feature_code":"PPLA3","country_code":"ES","cc2":"","admin1_code":"51","admin2_code":"CA","admin3_code":"11033","admin4_code":"","population":"29249","elevation":"","dem":"105","timezone":"Europe/Madrid","modification_date":"2012-03-04"},{"geonameid":"2511274","name":"San Nicolás del Puerto","asciiname":"San Nicolas del Puerto","alternatenames":["San Nicolas del Puerto","San Nicolás del Puerto"],"latitude":"38","longitude":"-5.65","feature_class":"P","feature_code":"PPLA3","country_code":"ES","cc2":"","admin1_code":"51","admin2_code":"SE","admin3_code":"41088","admin4_code":"","population":"0","elevation":"","dem":"596","timezone":"Europe/Madrid","modification_date":"2012-03-04"},{"geonameid":"2511304","name":"Sanlúcar la Mayor","asciiname":"Sanlucar la Mayor","alternatenames":["Sanlucar la Mayor","Sanlúcar la Mayor"],"latitude":"37.38758","longitude":"-6.20346","feature_class":"P","feature_code":"PPLA3","country_code":"ES","cc2":"","admin1_code":"51","admin2_code":"SE","admin3_code":"41087","admin4_code":"","population":"12749","elevation":"","dem":"141","timezone":"Europe/Madrid","modification_date":"2014-08-19"},{"geonameid":"2511305","name":"Sanlúcar de Guadiana","asciiname":"Sanlucar de Guadiana","alternatenames":["Salucar de Guadiana","Sanlucar de Guadiana","Sanlúcar de Guadiana"],"latitude":"37.47268","longitude":"-7.46546","feature_class":"P","feature_code":"PPLA3","country_code":"ES","cc2":"","admin1_code":"51","admin2_code":"H","admin3_code":"21065","admin4_code":"","population":"363","elevation":"","dem":"20","timezone":"Europe/Lisbon","modification_date":"2012-03-04"},{"geonameid":"2511306","name":"Sanlúcar de Barrameda","asciiname":"Sanlucar de Barrameda","alternatenames":["San Lucar de Barrameda","Sanlucar de Barrameda","Sanlukar de Barameda","Sanlukar-de-Barrameda","Sanlúcar de Barrameda","Sunlucar de Barrameda","san luk arde bar ra me da","sang lu ka er de wa la mei da","sanlukaleudebalameda","shlwqt","Санлукар де Барамеда","Санлукар-де-Баррамеда","شلوقة","ซานลูการ์เดบาร์ราเมดา","სანლუკარ-დე-ბარამედა","サンルーカル・デ・バラメーダ","桑卢卡尔德瓦拉梅达","산루카르데바라메다"],"latitude":"36.77808","longitude":"-6.3515","feature_class":"P","feature_code":"PPL","country_code":"ES","cc2":"","admin1_code":"51","admin2_code":"CA","admin3_code":"11032","admin4_code":"","population":"65805","elevation":"","dem":"12","timezone":"Europe/Madrid","modification_date":"2012-08-15"},{"geonameid":"2511326","name":"San Juan del Puerto","asciiname":"San Juan del Puerto","alternatenames":["Juan del Puerto","San Juan","San Juan del Puerto"],"latitude":"37.31667","longitude":"-6.84139","feature_class":"P","feature_code":"PPLA3","country_code":"ES","cc2":"","admin1_code":"51","admin2_code":"H","admin3_code":"21064","admin4_code":"","population":"6834","elevation":"","dem":"9","timezone":"Europe/Madrid","modification_date":"2012-03-04"},{"geonameid":"2511329","name":"San Juan de Aznalfarache","asciiname":"San Juan de Aznalfarache","alternatenames":["San Juan de Aznalfarache","San-Khuan-de-Asnal'farache","sheng hu an de ya si na er fa la qie","Сан-Хуан-де-Аснальфараче","圣胡安德亚斯纳尔法拉切"],"latitude":"37.35813","longitude":"-6.03731","feature_class":"P","feature_code":"PPLA3","country_code":"ES","cc2":"","admin1_code":"51","admin2_code":"SE","admin3_code":"41086","admin4_code":"","population":"20779","elevation":"","dem":"55","timezone":"Europe/Madrid","modification_date":"2012-03-04"},{"geonameid":"2511357","name":"San José","asciiname":"San Jose","alternatenames":["Caserio San Jose","Caserío San José","San Khose","Сан Хосе"],"latitude":"36.76048","longitude":"-2.10912","feature_class":"P","feature_code":"PPL","country_code":"ES","cc2":"","admin1_code":"51","admin2_code":"AL","admin3_code":"04066","admin4_code":"","population":"1012","elevation":"23","dem":"22","timezone":"Europe/Madrid","modification_date":"2014-05-29"},{"geonameid":"2511388","name":"San Fernando","asciiname":"San Fernando","alternatenames":["San Fernanando","San Fernando","San Fernando i Spania","San-Fernando","san frnandw  qads","sheng fei er nan duo","Сан Фернандо","Сан-Фернандо","سان فرناندو، قادس","サン・フェルナンド","圣费尔南多"],"latitude":"36.4759","longitude":"-6.19817","feature_class":"P","feature_code":"PPLA3","country_code":"ES","cc2":"","admin1_code":"51","admin2_code":"CA","admin3_code":"11031","admin4_code":"","population":"96366","elevation":"","dem":"15","timezone":"Europe/Madrid","modification_date":"2012-03-04"},{"geonameid":"2511441","name":"San Bartolomé de la Torre","asciiname":"San Bartolome de la Torre","alternatenames":["San Bartolome de la Torre","San Bartolomé de la Torre"],"latitude":"37.44515","longitude":"-7.10597","feature_class":"P","feature_code":"PPLA3","country_code":"ES","cc2":"","admin1_code":"51","admin2_code":"H","admin3_code":"21063","admin4_code":"","population":"2981","elevation":"","dem":"130","timezone":"Europe/Madrid","modification_date":"2012-03-04"},{"geonameid":"2511495","name":"Salteras","asciiname":"Salteras","alternatenames":["Salteras"],"latitude":"37.4206","longitude":"-6.11049","feature_class":"P","feature_code":"PPLA3","country_code":"ES","cc2":"","admin1_code":"51","admin2_code":"SE","admin3_code":"41085","admin4_code":"","population":"3814","elevation":"","dem":"156","timezone":"Europe/Madrid","modification_date":"2012-03-04"},{"geonameid":"2511503","name":"Salobreña","asciiname":"Salobrena","alternatenames":["Salobrena","Salobreña"],"latitude":"36.74277","longitude":"-3.58717","feature_class":"P","feature_code":"PPLA3","country_code":"ES","cc2":"","admin1_code":"51","admin2_code":"GR","admin3_code":"18173","admin4_code":"","population":"12747","elevation":"","dem":"45","timezone":"Europe/Madrid","modification_date":"2012-03-04"},{"geonameid":"2511547","name":"Salares","asciiname":"Salares","alternatenames":[""],"latitude":"36.85463","longitude":"-4.02434","feature_class":"P","feature_code":"PPLA3","country_code":"ES","cc2":"","admin1_code":"51","admin2_code":"MA","admin3_code":"29085","admin4_code":"","population":"217","elevation":"","dem":"586","timezone":"Europe/Madrid","modification_date":"2012-03-04"},{"geonameid":"2511551","name":"Salar","asciiname":"Salar","alternatenames":["Salar"],"latitude":"37.15036","longitude":"-4.06576","feature_class":"P","feature_code":"PPLA3","country_code":"ES","cc2":"","admin1_code":"51","admin2_code":"GR","admin3_code":"18171","admin4_code":"","population":"2772","elevation":"","dem":"557","timezone":"Europe/Madrid","modification_date":"2012-03-04"},{"geonameid":"2511633","name":"Sabiote","asciiname":"Sabiote","alternatenames":["Sabiote"],"latitude":"38.06916","longitude":"-3.31448","feature_class":"P","feature_code":"PPL","country_code":"ES","cc2":"","admin1_code":"51","admin2_code":"J","admin3_code":"23092","admin4_code":"","population":"4134","elevation":"","dem":"829","timezone":"Europe/Madrid","modification_date":"2012-01-19"},{"geonameid":"2511649","name":"Rute","asciiname":"Rute","alternatenames":["Rute","Rute foersamling","Rute församling"],"latitude":"37.3269","longitude":"-4.36827","feature_class":"P","feature_code":"PPLA3","country_code":"ES","cc2":"","admin1_code":"51","admin2_code":"CO","admin3_code":"14058","admin4_code":"","population":"10559","elevation":"","dem":"658","timezone":"Europe/Madrid","modification_date":"2012-03-04"},{"geonameid":"2511651","name":"Rus","asciiname":"Rus","alternatenames":["Rus"],"latitude":"38.04759","longitude":"-3.46254","feature_class":"P","feature_code":"PPLA3","country_code":"ES","cc2":"","admin1_code":"51","admin2_code":"J","admin3_code":"23074","admin4_code":"","population":"3727","elevation":"","dem":"585","timezone":"Europe/Madrid","modification_date":"2012-03-04"},{"geonameid":"2511666","name":"Rubite","asciiname":"Rubite","alternatenames":["Rubite"],"latitude":"36.80947","longitude":"-3.34816","feature_class":"P","feature_code":"PPLA3","country_code":"ES","cc2":"","admin1_code":"51","admin2_code":"GR","admin3_code":"18170","admin4_code":"","population":"507","elevation":"","dem":"791","timezone":"Europe/Madrid","modification_date":"2012-03-04"},{"geonameid":"2511700","name":"Rota","asciiname":"Rota","alternatenames":["ROZ","Rota","Рота"],"latitude":"36.62545","longitude":"-6.3622","feature_class":"P","feature_code":"PPLA3","country_code":"ES","cc2":"","admin1_code":"51","admin2_code":"CA","admin3_code":"11030","admin4_code":"","population":"28516","elevation":"","dem":"18","timezone":"Europe/Madrid","modification_date":"2014-02-17"},{"geonameid":"2511705","name":"Rosal de la Frontera","asciiname":"Rosal de la Frontera","alternatenames":["El Rosal de la Frontera","Rosal","Rosal de la Frontera"],"latitude":"37.96754","longitude":"-7.21889","feature_class":"P","feature_code":"PPLA3","country_code":"ES","cc2":"","admin1_code":"51","admin2_code":"H","admin3_code":"21062","admin4_code":"","population":"0","elevation":"","dem":"223","timezone":"Europe/Madrid","modification_date":"2012-03-04"},{"geonameid":"2511716","name":"Roquetas de Mar","asciiname":"Roquetas de Mar","alternatenames":["Roketas de Mar","Roketas-de-Mar","Roquetas","Roquetas de Mar","luo ke ta si de ma er","rktas d mar","rwkwytas dy mar","Рокетас де Мар","Рокетас-де-Мар","روكويتاس دي مار","رکتاس د مار","ロケタス・デ・マル","罗克塔斯德马尔"],"latitude":"36.76419","longitude":"-2.61475","feature_class":"P","feature_code":"PPLA3","country_code":"ES","cc2":"","admin1_code":"51","admin2_code":"AL","admin3_code":"04079","admin4_code":"","population":"82665","elevation":"","dem":"12","timezone":"Europe/Madrid","modification_date":"2012-03-04"},{"geonameid":"2511730","name":"Ronda","asciiname":"Ronda","alternatenames":["RRA","Ronda","Ронда"],"latitude":"36.74231","longitude":"-5.16709","feature_class":"P","feature_code":"PPLA3","country_code":"ES","cc2":"","admin1_code":"51","admin2_code":"MA","admin3_code":"29084","admin4_code":"","population":"36827","elevation":"","dem":"718","timezone":"Europe/Madrid","modification_date":"2012-12-15"},{"geonameid":"2511824","name":"Rioja","asciiname":"Rioja","alternatenames":["Rioja"],"latitude":"36.94508","longitude":"-2.46302","feature_class":"P","feature_code":"PPLA3","country_code":"ES","cc2":"","admin1_code":"51","admin2_code":"AL","admin3_code":"04078","admin4_code":"","population":"1331","elevation":"","dem":"133","timezone":"Europe/Madrid","modification_date":"2012-03-04"},{"geonameid":"2511825","name":"Ríogordo","asciiname":"Riogordo","alternatenames":["Riogordo","Ríogordo"],"latitude":"36.91727","longitude":"-4.29318","feature_class":"P","feature_code":"PPL","country_code":"ES","cc2":"","admin1_code":"51","admin2_code":"MA","admin3_code":"29083","admin4_code":"","population":"2954","elevation":"","dem":"414","timezone":"Europe/Madrid","modification_date":"2012-01-19"},{"geonameid":"2511852","name":"Rincón de la Victoria","asciiname":"Rincon de la Victoria","alternatenames":["Bezmiliana","Rinkon-de-la-Viktoria","Rinkon-de-la-Viktorija","lin kong de la wei ke tuo li ya","rynkwn dy la fyktwrya","Ринкон-де-ла-Викториа","Ринкон-де-ла-Виктория","Рінкон-де-ла-Вікторія","رينكون دي لا فيكتوريا","林孔德拉维克托里亚"],"latitude":"36.71715","longitude":"-4.27583","feature_class":"P","feature_code":"PPLA3","country_code":"ES","cc2":"","admin1_code":"51","admin2_code":"MA","admin3_code":"29082","admin4_code":"","population":"38666","elevation":"","dem":"11","timezone":"Europe/Madrid","modification_date":"2012-03-04"},{"geonameid":"2512068","name":"Rágol","asciiname":"Ragol","alternatenames":["Ragol","Rágol"],"latitude":"36.99523","longitude":"-2.68178","feature_class":"P","feature_code":"PPLA3","country_code":"ES","cc2":"","admin1_code":"51","admin2_code":"AL","admin3_code":"04077","admin4_code":"","population":"380","elevation":"","dem":"413","timezone":"Europe/Madrid","modification_date":"2012-03-04"},{"geonameid":"2512107","name":"Quesada","asciiname":"Quesada","alternatenames":["Quesada"],"latitude":"37.84338","longitude":"-3.06561","feature_class":"P","feature_code":"PPL","country_code":"ES","cc2":"","admin1_code":"51","admin2_code":"J","admin3_code":"23028","admin4_code":"","population":"5987","elevation":"","dem":"656","timezone":"Europe/Madrid","modification_date":"2012-01-19"},{"geonameid":"2512110","name":"Quéntar","asciiname":"Quentar","alternatenames":[""],"latitude":"37.19253","longitude":"-3.46653","feature_class":"P","feature_code":"PPL","country_code":"ES","cc2":"","admin1_code":"51","admin2_code":"GR","admin3_code":"18094","admin4_code":"","population":"1022","elevation":"","dem":"871","timezone":"Europe/Madrid","modification_date":"2008-07-18"},{"geonameid":"2512131","name":"Purullena","asciiname":"Purullena","alternatenames":["Parullena","Purullena"],"latitude":"37.31763","longitude":"-3.19056","feature_class":"P","feature_code":"PPLA3","country_code":"ES","cc2":"","admin1_code":"51","admin2_code":"GR","admin3_code":"18167","admin4_code":"","population":"2215","elevation":"","dem":"905","timezone":"Europe/Madrid","modification_date":"2012-03-04"},{"geonameid":"2512133","name":"Purchena","asciiname":"Purchena","alternatenames":["Purchena","bwrtshyna","pu er qie na","pwrchna","Пурчена","بورتشينا","پورچنا","普尔切纳"],"latitude":"37.34744","longitude":"-2.3608","feature_class":"P","feature_code":"PPLA3","country_code":"ES","cc2":"","admin1_code":"51","admin2_code":"AL","admin3_code":"04076","admin4_code":"","population":"1598","elevation":"","dem":"546","timezone":"Europe/Madrid","modification_date":"2012-03-04"},{"geonameid":"2512152","name":"Pulpí","asciiname":"Pulpi","alternatenames":["Pulpi","Pulpí"],"latitude":"37.41154","longitude":"-1.74496","feature_class":"P","feature_code":"PPL","country_code":"ES","cc2":"","admin1_code":"51","admin2_code":"AL","admin3_code":"04035","admin4_code":"","population":"7434","elevation":"","dem":"196","timezone":"Europe/Madrid","modification_date":"2012-01-19"},{"geonameid":"2512155","name":"Pulianas","asciiname":"Pulianas","alternatenames":[""],"latitude":"37.22302","longitude":"-3.60832","feature_class":"P","feature_code":"PPLA3","country_code":"ES","cc2":"","admin1_code":"51","admin2_code":"GR","admin3_code":"18165","admin4_code":"","population":"4855","elevation":"","dem":"727","timezone":"Europe/Madrid","modification_date":"2012-03-04"},{"geonameid":"2512158","name":"Pujerra","asciiname":"Pujerra","alternatenames":["Pujerra"],"latitude":"36.61274","longitude":"-5.14979","feature_class":"P","feature_code":"PPLA3","country_code":"ES","cc2":"","admin1_code":"51","admin2_code":"MA","admin3_code":"29081","admin4_code":"","population":"316","elevation":"","dem":"788","timezone":"Europe/Madrid","modification_date":"2012-03-04"},{"geonameid":"2512164","name":"Puerto Serrano","asciiname":"Puerto Serrano","alternatenames":["Puerto Serrano"],"latitude":"36.92209","longitude":"-5.54304","feature_class":"P","feature_code":"PPL","country_code":"ES","cc2":"","admin1_code":"51","admin2_code":"CA","admin3_code":"11041","admin4_code":"","population":"6807","elevation":"","dem":"166","timezone":"Europe/Madrid","modification_date":"2012-01-19"},{"geonameid":"2512169","name":"Puerto Real","asciiname":"Puerto Real","alternatenames":["Puehrto-Real'","Puerto Real","Puerto-Real'","bwyrtw ryal","pueleutoleal","wang gang shi","Пуерто-Реаль","Пуэрто-Реаль","بويرتو ريال","王港市","푸에르토레알"],"latitude":"36.52819","longitude":"-6.19011","feature_class":"P","feature_code":"PPLA3","country_code":"ES","cc2":"","admin1_code":"51","admin2_code":"CA","admin3_code":"11028","admin4_code":"","population":"40183","elevation":"","dem":"14","timezone":"Europe/Madrid","modification_date":"2012-03-04"},{"geonameid":"2512232","name":"Puente-Genil","asciiname":"Puente-Genil","alternatenames":["GEN","Puente Genil","Puente-Genil"],"latitude":"37.38943","longitude":"-4.76686","feature_class":"P","feature_code":"PPL","country_code":"ES","cc2":"","admin1_code":"51","admin2_code":"CO","admin3_code":"14056","admin4_code":"","population":"30033","elevation":"","dem":"215","timezone":"Europe/Madrid","modification_date":"2013-07-22"},{"geonameid":"2512238","name":"Puente de Génave","asciiname":"Puente de Genave","alternatenames":["Puente de Genave","Puente de Génave","Puente-Genave","Puente-Génave"],"latitude":"38.35544","longitude":"-2.8032","feature_class":"P","feature_code":"PPLA3","country_code":"ES","cc2":"","admin1_code":"51","admin2_code":"J","admin3_code":"23071","admin4_code":"","population":"2064","elevation":"","dem":"544","timezone":"Europe/Madrid","modification_date":"2012-03-04"},{"geonameid":"2512264","name":"Puebla de Guzmán","asciiname":"Puebla de Guzman","alternatenames":["Puebla de Guzman","Puebla de Guzmán"],"latitude":"37.61427","longitude":"-7.24878","feature_class":"P","feature_code":"PPL","country_code":"ES","cc2":"","admin1_code":"51","admin2_code":"H","admin3_code":"21003","admin4_code":"","population":"3083","elevation":"","dem":"195","timezone":"Europe/Madrid","modification_date":"2012-01-19"},{"geonameid":"2512267","name":"Puebla de Don Fadrique","asciiname":"Puebla de Don Fadrique","alternatenames":["La Puebla de Don Fadrique","Puebla de Don Fadrique"],"latitude":"37.96156","longitude":"-2.43961","feature_class":"P","feature_code":"PPLA3","country_code":"ES","cc2":"","admin1_code":"51","admin2_code":"GR","admin3_code":"18164","admin4_code":"","population":"0","elevation":"","dem":"1196","timezone":"Europe/Madrid","modification_date":"2012-03-04"},{"geonameid":"2512272","name":"Pruna","asciiname":"Pruna","alternatenames":["Porcuna","Pruna"],"latitude":"36.97226","longitude":"-5.2223","feature_class":"P","feature_code":"PPLA3","country_code":"ES","cc2":"","admin1_code":"51","admin2_code":"SE","admin3_code":"41076","admin4_code":"","population":"3047","elevation":"","dem":"543","timezone":"Europe/Madrid","modification_date":"2012-03-04"},{"geonameid":"2512282","name":"Priego de Córdoba","asciiname":"Priego de Cordoba","alternatenames":["Pr'ego-de-Kordoba","Priego","Priego-de-Kordova","bryghw dy qrtbt  qrtbt","pu lie ge de ke er duo wa","Прьего-де-Кордоба","Прієго-де-Кордова","بريغو دي قرطبة، قرطبة","普列戈德科尔多瓦"],"latitude":"37.43807","longitude":"-4.19523","feature_class":"P","feature_code":"PPLA3","country_code":"ES","cc2":"","admin1_code":"51","admin2_code":"CO","admin3_code":"14055","admin4_code":"","population":"23513","elevation":"","dem":"661","timezone":"Europe/Madrid","modification_date":"2012-03-04"},{"geonameid":"2512294","name":"Prado del Rey","asciiname":"Prado del Rey","alternatenames":["Prado del Rey"],"latitude":"36.78756","longitude":"-5.55589","feature_class":"P","feature_code":"PPLA3","country_code":"ES","cc2":"","admin1_code":"51","admin2_code":"CA","admin3_code":"11026","admin4_code":"","population":"5851","elevation":"","dem":"441","timezone":"Europe/Madrid","modification_date":"2012-03-04"},{"geonameid":"2512340","name":"Pozoblanco","asciiname":"Pozoblanco","alternatenames":["Posoblanko","Pozoblanco","bo suo fu lan ke","bwzwblankw  qrtbt","Пособланко","بوزوبلانكو، قرطبة","波索夫兰科"],"latitude":"38.37906","longitude":"-4.84827","feature_class":"P","feature_code":"PPLA3","country_code":"ES","cc2":"","admin1_code":"51","admin2_code":"CO","admin3_code":"14054","admin4_code":"","population":"17669","elevation":"","dem":"657","timezone":"Europe/Madrid","modification_date":"2012-03-04"},{"geonameid":"2512343","name":"Pozo Alcón","asciiname":"Pozo Alcon","alternatenames":["Pozo Alcon","Pozo Alcor","Pozo Alcón"],"latitude":"37.70256","longitude":"-2.93367","feature_class":"P","feature_code":"PPLA3","country_code":"ES","cc2":"","admin1_code":"51","admin2_code":"J","admin3_code":"23070","admin4_code":"","population":"5414","elevation":"","dem":"861","timezone":"Europe/Madrid","modification_date":"2012-03-04"},{"geonameid":"2512367","name":"Posadas","asciiname":"Posadas","alternatenames":["Posadas"],"latitude":"37.80205","longitude":"-5.10726","feature_class":"P","feature_code":"PPLA3","country_code":"ES","cc2":"","admin1_code":"51","admin2_code":"CO","admin3_code":"14053","admin4_code":"","population":"7364","elevation":"","dem":"93","timezone":"Europe/Madrid","modification_date":"2012-03-04"},{"geonameid":"2512373","name":"Pórtugos","asciiname":"Portugos","alternatenames":[""],"latitude":"36.94193","longitude":"-3.31066","feature_class":"P","feature_code":"PPLA3","country_code":"ES","cc2":"","admin1_code":"51","admin2_code":"GR","admin3_code":"18163","admin4_code":"","population":"407","elevation":"","dem":"1304","timezone":"Europe/Madrid","modification_date":"2012-03-04"},{"geonameid":"2512408","name":"Porcuna","asciiname":"Porcuna","alternatenames":["Porcuna"],"latitude":"37.87102","longitude":"-4.18501","feature_class":"P","feature_code":"PPLA3","country_code":"ES","cc2":"","admin1_code":"51","admin2_code":"J","admin3_code":"23069","admin4_code":"","population":"6951","elevation":"","dem":"472","timezone":"Europe/Madrid","modification_date":"2012-03-04"},{"geonameid":"2512423","name":"Polopos","asciiname":"Polopos","alternatenames":["Polopos"],"latitude":"36.79466","longitude":"-3.29816","feature_class":"P","feature_code":"PPLA3","country_code":"ES","cc2":"","admin1_code":"51","admin2_code":"GR","admin3_code":"18162","admin4_code":"","population":"1573","elevation":"","dem":"794","timezone":"Europe/Madrid","modification_date":"2012-03-04"},{"geonameid":"2512434","name":"Polícar","asciiname":"Policar","alternatenames":["Policar","Polícar"],"latitude":"37.25759","longitude":"-3.23375","feature_class":"P","feature_code":"PPLA3","country_code":"ES","cc2":"","admin1_code":"51","admin2_code":"GR","admin3_code":"18161","admin4_code":"","population":"229","elevation":"","dem":"1160","timezone":"Europe/Madrid","modification_date":"2012-03-04"},{"geonameid":"2512490","name":"Pizarra","asciiname":"Pizarra","alternatenames":[""],"latitude":"36.76543","longitude":"-4.70833","feature_class":"P","feature_code":"PPLA3","country_code":"ES","cc2":"","admin1_code":"51","admin2_code":"MA","admin3_code":"29080","admin4_code":"","population":"7345","elevation":"","dem":"78","timezone":"Europe/Madrid","modification_date":"2014-08-25"},{"geonameid":"2512509","name":"Pinos Puente","asciiname":"Pinos Puente","alternatenames":["Pinos Puente","Pinos-Puehnte","Pinos-Puente","bynws bwynty","pi nuo si peng te","Пинос-Пуэнте","Пінос-Пуенте","بينوس بوينتي","ピノス・プエンテ","皮诺斯蓬特"],"latitude":"37.25109","longitude":"-3.74967","feature_class":"P","feature_code":"PPLA3","country_code":"ES","cc2":"","admin1_code":"51","admin2_code":"GR","admin3_code":"18158","admin4_code":"","population":"13515","elevation":"","dem":"573","timezone":"Europe/Madrid","modification_date":"2012-03-04"},{"geonameid":"2512511","name":"Pinos Genil","asciiname":"Pinos Genil","alternatenames":[""],"latitude":"37.16346","longitude":"-3.50215","feature_class":"P","feature_code":"PPLA3","country_code":"ES","cc2":"","admin1_code":"51","admin2_code":"GR","admin3_code":"18157","admin4_code":"","population":"1236","elevation":"","dem":"777","timezone":"Europe/Madrid","modification_date":"2012-03-04"},{"geonameid":"2512558","name":"Piñar","asciiname":"Pinar","alternatenames":["Pinar","Piñar"],"latitude":"37.44457","longitude":"-3.43861","feature_class":"P","feature_code":"PPL","country_code":"ES","cc2":"","admin1_code":"51","admin2_code":"GR","admin3_code":"18159","admin4_code":"","population":"1110","elevation":"","dem":"902","timezone":"Europe/Madrid","modification_date":"2012-01-19"},{"geonameid":"2512578","name":"Pilas","asciiname":"Pilas","alternatenames":["Pilas"],"latitude":"37.30337","longitude":"-6.30097","feature_class":"P","feature_code":"PPLA3","country_code":"ES","cc2":"","admin1_code":"51","admin2_code":"SE","admin3_code":"41075","admin4_code":"","population":"13386","elevation":"","dem":"74","timezone":"Europe/Madrid","modification_date":"2012-03-04"},{"geonameid":"2512660","name":"Periana","asciiname":"Periana","alternatenames":[""],"latitude":"36.92931","longitude":"-4.19163","feature_class":"P","feature_code":"PPLA3","country_code":"ES","cc2":"","admin1_code":"51","admin2_code":"MA","admin3_code":"29079","admin4_code":"","population":"3404","elevation":"","dem":"569","timezone":"Europe/Madrid","modification_date":"2012-03-04"},{"geonameid":"2512730","name":"Peñarroya-Pueblonuevo","asciiname":"Penarroya-Pueblonuevo","alternatenames":["Penarroya-Pueblonuevo","Peñarroya-Pueblonuevo","Pueblonuevo del Terrible"],"latitude":"38.3","longitude":"-5.26667","feature_class":"P","feature_code":"PPLA3","country_code":"ES","cc2":"","admin1_code":"51","admin2_code":"CO","admin3_code":"14052","admin4_code":"","population":"11883","elevation":"","dem":"544","timezone":"Europe/Madrid","modification_date":"2012-03-04"},{"geonameid":"2512746","name":"Peñaflor","asciiname":"Penaflor","alternatenames":["Penaflor","Peñaflor"],"latitude":"37.70892","longitude":"-5.34504","feature_class":"P","feature_code":"PPLA3","country_code":"ES","cc2":"","admin1_code":"51","admin2_code":"SE","admin3_code":"41074","admin4_code":"","population":"3688","elevation":"","dem":"68","timezone":"Europe/Madrid","modification_date":"2012-03-04"},{"geonameid":"2512767","name":"Peligros","asciiname":"Peligros","alternatenames":[""],"latitude":"37.23231","longitude":"-3.62901","feature_class":"P","feature_code":"PPLA3","country_code":"ES","cc2":"","admin1_code":"51","admin2_code":"GR","admin3_code":"18153","admin4_code":"","population":"10910","elevation":"","dem":"693","timezone":"Europe/Madrid","modification_date":"2012-03-04"},{"geonameid":"2512784","name":"Pegalajar","asciiname":"Pegalajar","alternatenames":["Pegalajar","Pegalapar"],"latitude":"37.74008","longitude":"-3.64946","feature_class":"P","feature_code":"PPLA3","country_code":"ES","cc2":"","admin1_code":"51","admin2_code":"J","admin3_code":"23067","admin4_code":"","population":"3095","elevation":"","dem":"821","timezone":"Europe/Madrid","modification_date":"2012-03-04"},{"geonameid":"2512796","name":"Pedro Martínez","asciiname":"Pedro Martinez","alternatenames":["Pedro Martinez","Pedro Martínez"],"latitude":"37.5029","longitude":"-3.23134","feature_class":"P","feature_code":"PPLA3","country_code":"ES","cc2":"","admin1_code":"51","admin2_code":"GR","admin3_code":"18152","admin4_code":"","population":"1229","elevation":"","dem":"1040","timezone":"Europe/Madrid","modification_date":"2012-03-04"},{"geonameid":"2512805","name":"Pedroche","asciiname":"Pedroche","alternatenames":["Pedroche"],"latitude":"38.42848","longitude":"-4.76325","feature_class":"P","feature_code":"PPLA3","country_code":"ES","cc2":"","admin1_code":"51","admin2_code":"CO","admin3_code":"14051","admin4_code":"","population":"1711","elevation":"","dem":"628","timezone":"Europe/Madrid","modification_date":"2012-03-04"},{"geonameid":"2512812","name":"Pedro Abad","asciiname":"Pedro Abad","alternatenames":["Pedro Abad"],"latitude":"37.96686","longitude":"-4.4556","feature_class":"P","feature_code":"PPLA3","country_code":"ES","cc2":"","admin1_code":"51","admin2_code":"CO","admin3_code":"14050","admin4_code":"","population":"2922","elevation":"","dem":"159","timezone":"Europe/Madrid","modification_date":"2012-03-04"},{"geonameid":"2512824","name":"Pedrera","asciiname":"Pedrera","alternatenames":["Pedrera"],"latitude":"37.22604","longitude":"-4.8942","feature_class":"P","feature_code":"PPLA3","country_code":"ES","cc2":"","admin1_code":"51","admin2_code":"SE","admin3_code":"41072","admin4_code":"","population":"5049","elevation":"","dem":"459","timezone":"Europe/Madrid","modification_date":"2012-03-04"},{"geonameid":"2512842","name":"Pechina","asciiname":"Pechina","alternatenames":["Pechina"],"latitude":"36.91619","longitude":"-2.43689","feature_class":"P","feature_code":"PPLA3","country_code":"ES","cc2":"","admin1_code":"51","admin2_code":"AL","admin3_code":"04074","admin4_code":"","population":"0","elevation":"","dem":"108","timezone":"Europe/Madrid","modification_date":"2012-03-04"},{"geonameid":"2512844","name":"Peal de Becerro","asciiname":"Peal de Becerro","alternatenames":["Peal de Becerro"],"latitude":"37.91338","longitude":"-3.12148","feature_class":"P","feature_code":"PPL","country_code":"ES","cc2":"","admin1_code":"51","admin2_code":"J","admin3_code":"23028","admin4_code":"","population":"5484","elevation":"","dem":"549","timezone":"Europe/Madrid","modification_date":"2012-01-19"},{"geonameid":"2512846","name":"Paymogo","asciiname":"Paymogo","alternatenames":["Paymogo"],"latitude":"37.73999","longitude":"-7.34499","feature_class":"P","feature_code":"PPLA3","country_code":"ES","cc2":"","admin1_code":"51","admin2_code":"H","admin3_code":"21057","admin4_code":"","population":"1310","elevation":"","dem":"177","timezone":"Europe/Madrid","modification_date":"2012-03-04"},{"geonameid":"2512857","name":"Paterna de Rivera","asciiname":"Paterna de Rivera","alternatenames":["Paterna de Rivera","Paterna de la Rivera"],"latitude":"36.52246","longitude":"-5.86578","feature_class":"P","feature_code":"PPLA3","country_code":"ES","cc2":"","admin1_code":"51","admin2_code":"CA","admin3_code":"11025","admin4_code":"","population":"5306","elevation":"","dem":"129","timezone":"Europe/Madrid","modification_date":"2012-03-04"},{"geonameid":"2512858","name":"Paterna del Río","asciiname":"Paterna del Rio","alternatenames":["Palerna del Rio","Palerna del Río"],"latitude":"37.02222","longitude":"-2.95343","feature_class":"P","feature_code":"PPLA3","country_code":"ES","cc2":"","admin1_code":"51","admin2_code":"AL","admin3_code":"04073","admin4_code":"","population":"417","elevation":"","dem":"1209","timezone":"Europe/Madrid","modification_date":"2012-03-04"},{"geonameid":"2512860","name":"Paterna del Campo","asciiname":"Paterna del Campo","alternatenames":["Paterna del Camino","Paterna del Campo"],"latitude":"37.41948","longitude":"-6.40248","feature_class":"P","feature_code":"PPL","country_code":"ES","cc2":"","admin1_code":"51","admin2_code":"H","admin3_code":"21032","admin4_code":"","population":"3625","elevation":"","dem":"175","timezone":"Europe/Madrid","modification_date":"2012-01-19"},{"geonameid":"2512891","name":"Partaloa","asciiname":"Partaloa","alternatenames":["Partaloa"],"latitude":"37.40764","longitude":"-2.22526","feature_class":"P","feature_code":"PPLA3","country_code":"ES","cc2":"","admin1_code":"51","admin2_code":"AL","admin3_code":"04072","admin4_code":"","population":"584","elevation":"","dem":"540","timezone":"Europe/Madrid","modification_date":"2012-03-04"},{"geonameid":"2512927","name":"Parauta","asciiname":"Parauta","alternatenames":["Parauta"],"latitude":"36.65629","longitude":"-5.12916","feature_class":"P","feature_code":"PPLA3","country_code":"ES","cc2":"","admin1_code":"51","admin2_code":"MA","admin3_code":"29077","admin4_code":"","population":"245","elevation":"","dem":"802","timezone":"Europe/Madrid","modification_date":"2012-03-04"},{"geonameid":"2512933","name":"Paradas","asciiname":"Paradas","alternatenames":["Paradas"],"latitude":"37.29047","longitude":"-5.49703","feature_class":"P","feature_code":"PPLA3","country_code":"ES","cc2":"","admin1_code":"51","admin2_code":"SE","admin3_code":"41071","admin4_code":"","population":"7084","elevation":"","dem":"120","timezone":"Europe/Madrid","modification_date":"2012-03-04"},{"geonameid":"2512948","name":"Pampaneira","asciiname":"Pampaneira","alternatenames":[""],"latitude":"36.94015","longitude":"-3.36096","feature_class":"P","feature_code":"PPLA3","country_code":"ES","cc2":"","admin1_code":"51","admin2_code":"GR","admin3_code":"18151","admin4_code":"","population":"324","elevation":"","dem":"1064","timezone":"Europe/Madrid","modification_date":"2012-03-04"},{"geonameid":"2512950","name":"Palos de la Frontera","asciiname":"Palos de la Frontera","alternatenames":["Palos","Palos de la Frontera","Palos-de-la-Frontera","balws dy la frwntyra","pa luo si de la fu long te la","Палос-де-ла-Фронтера","بالوس دي لا فرونتيرا","パロス・デ・ラ・フロンテーラ","帕洛斯德拉夫龙特拉"],"latitude":"37.23457","longitude":"-6.89471","feature_class":"P","feature_code":"PPL","country_code":"ES","cc2":"","admin1_code":"51","admin2_code":"H","admin3_code":"21041","admin4_code":"","population":"7956","elevation":"","dem":"9","timezone":"Europe/Madrid","modification_date":"2012-01-19"},{"geonameid":"2512964","name":"Palomares del Río","asciiname":"Palomares del Rio","alternatenames":["Palomares","Palomares del Rio","Palomares del Río"],"latitude":"37.32225","longitude":"-6.05863","feature_class":"P","feature_code":"PPLA3","country_code":"ES","cc2":"","admin1_code":"51","admin2_code":"SE","admin3_code":"41070","admin4_code":"","population":"4782","elevation":"","dem":"39","timezone":"Europe/Madrid","modification_date":"2012-03-04"},{"geonameid":"2512990","name":"Palma del Río","asciiname":"Palma del Rio","alternatenames":["Pal'ma-del'-Rio","Palma del Rio","Palma del Río","balma dyl ryw  qrtbt","pa er ma de er li ao","Пальма-дель-Рио","Пальма-дель-Ріо","بالما ديل ريو، قرطبة","帕尔马德尔里奥"],"latitude":"37.70024","longitude":"-5.28121","feature_class":"P","feature_code":"PPL","country_code":"ES","cc2":"","admin1_code":"51","admin2_code":"CO","admin3_code":"14036","admin4_code":"","population":"21588","elevation":"","dem":"60","timezone":"Europe/Madrid","modification_date":"2012-01-19"},{"geonameid":"2512998","name":"Palenciana","asciiname":"Palenciana","alternatenames":["Palenciana"],"latitude":"37.24851","longitude":"-4.58261","feature_class":"P","feature_code":"PPLA3","country_code":"ES","cc2":"","admin1_code":"51","admin2_code":"CO","admin3_code":"14048","admin4_code":"","population":"1562","elevation":"","dem":"395","timezone":"Europe/Madrid","modification_date":"2012-03-04"},{"geonameid":"2513034","name":"Padules","asciiname":"Padules","alternatenames":["Padules"],"latitude":"36.99813","longitude":"-2.77367","feature_class":"P","feature_code":"PPLA3","country_code":"ES","cc2":"","admin1_code":"51","admin2_code":"AL","admin3_code":"04071","admin4_code":"","population":"458","elevation":"","dem":"748","timezone":"Europe/Madrid","modification_date":"2012-03-04"},{"geonameid":"2513035","name":"Padul","asciiname":"Padul","alternatenames":[""],"latitude":"37.02462","longitude":"-3.62678","feature_class":"P","feature_code":"PPLA3","country_code":"ES","cc2":"","admin1_code":"51","admin2_code":"GR","admin3_code":"18150","admin4_code":"","population":"7266","elevation":"","dem":"766","timezone":"Europe/Madrid","modification_date":"2012-03-04"},{"geonameid":"2513045","name":"Otura","asciiname":"Otura","alternatenames":[""],"latitude":"37.08846","longitude":"-3.63321","feature_class":"P","feature_code":"PPLA3","country_code":"ES","cc2":"","admin1_code":"51","admin2_code":"GR","admin3_code":"18149","admin4_code":"","population":"5362","elevation":"","dem":"803","timezone":"Europe/Madrid","modification_date":"2012-03-04"},{"geonameid":"2513049","name":"Otívar","asciiname":"Otivar","alternatenames":["Otivar","Otívar"],"latitude":"36.81582","longitude":"-3.67979","feature_class":"P","feature_code":"PPL","country_code":"ES","cc2":"","admin1_code":"51","admin2_code":"GR","admin3_code":"18017","admin4_code":"","population":"1055","elevation":"","dem":"316","timezone":"Europe/Madrid","modification_date":"2012-01-19"},{"geonameid":"2513052","name":"Osuna","asciiname":"Osuna","alternatenames":["Osuna","ao su na","ashwnt","osuna","Осуна","أشونة","オスナ","奥苏纳"],"latitude":"37.2376","longitude":"-5.10311","feature_class":"P","feature_code":"PPLA3","country_code":"ES","cc2":"","admin1_code":"51","admin2_code":"SE","admin3_code":"41068","admin4_code":"","population":"17851","elevation":"","dem":"289","timezone":"Europe/Madrid","modification_date":"2015-05-31"},{"geonameid":"2513073","name":"Órjiva","asciiname":"Orjiva","alternatenames":["Orgiva","Orjiva","Órgiva","Órjiva"],"latitude":"36.90259","longitude":"-3.42379","feature_class":"P","feature_code":"PPL","country_code":"ES","cc2":"","admin1_code":"51","admin2_code":"GR","admin3_code":"18147","admin4_code":"","population":"5217","elevation":"","dem":"468","timezone":"Europe/Madrid","modification_date":"2012-01-19"},{"geonameid":"2513079","name":"Oria","asciiname":"Oria","alternatenames":["Oria"],"latitude":"37.4853","longitude":"-2.29292","feature_class":"P","feature_code":"PPLA3","country_code":"ES","cc2":"","admin1_code":"51","admin2_code":"AL","admin3_code":"04070","admin4_code":"","population":"2402","elevation":"","dem":"1028","timezone":"Europe/Madrid","modification_date":"2012-03-04"},{"geonameid":"2513094","name":"Orcera","asciiname":"Orcera","alternatenames":[""],"latitude":"38.31742","longitude":"-2.66487","feature_class":"P","feature_code":"PPLA3","country_code":"ES","cc2":"","admin1_code":"51","admin2_code":"J","admin3_code":"23065","admin4_code":"","population":"2116","elevation":"","dem":"759","timezone":"Europe/Madrid","modification_date":"2012-03-04"},{"geonameid":"2513097","name":"Orce","asciiname":"Orce","alternatenames":["Orce"],"latitude":"37.7212","longitude":"-2.47752","feature_class":"P","feature_code":"PPLA3","country_code":"ES","cc2":"","admin1_code":"51","admin2_code":"GR","admin3_code":"18146","admin4_code":"","population":"1336","elevation":"","dem":"941","timezone":"Europe/Madrid","modification_date":"2012-03-04"},{"geonameid":"2513120","name":"Olvera","asciiname":"Olvera","alternatenames":["Olvera"],"latitude":"36.93418","longitude":"-5.26678","feature_class":"P","feature_code":"PPLA3","country_code":"ES","cc2":"","admin1_code":"51","admin2_code":"CA","admin3_code":"11024","admin4_code":"","population":"8515","elevation":"","dem":"590","timezone":"Europe/Madrid","modification_date":"2012-03-04"},{"geonameid":"2513121","name":"Olula del Río","asciiname":"Olula del Rio","alternatenames":["Olula"],"latitude":"37.35445","longitude":"-2.29754","feature_class":"P","feature_code":"PPL","country_code":"ES","cc2":"","admin1_code":"51","admin2_code":"AL","admin3_code":"04069","admin4_code":"","population":"6244","elevation":"","dem":"488","timezone":"Europe/Madrid","modification_date":"2014-12-23"},{"geonameid":"2513122","name":"Olula de Castro","asciiname":"Olula de Castro","alternatenames":["Olula","Olula de Castro","Ulula de Castro"],"latitude":"37.17475","longitude":"-2.4743","feature_class":"P","feature_code":"PPLA3","country_code":"ES","cc2":"","admin1_code":"51","admin2_code":"AL","admin3_code":"04068","admin4_code":"","population":"148","elevation":"","dem":"1005","timezone":"Europe/Madrid","modification_date":"2012-03-04"},{"geonameid":"2513140","name":"Olivares","asciiname":"Olivares","alternatenames":["Olivares"],"latitude":"37.41802","longitude":"-6.15603","feature_class":"P","feature_code":"PPLA3","country_code":"ES","cc2":"","admin1_code":"51","admin2_code":"SE","admin3_code":"41067","admin4_code":"","population":"8759","elevation":"","dem":"175","timezone":"Europe/Madrid","modification_date":"2012-03-04"},{"geonameid":"2513163","name":"Ojén","asciiname":"Ojen","alternatenames":["Ojen","Ojén"],"latitude":"36.56486","longitude":"-4.85561","feature_class":"P","feature_code":"PPLA3","country_code":"ES","cc2":"","admin1_code":"51","admin2_code":"MA","admin3_code":"29076","admin4_code":"","population":"2347","elevation":"253","dem":"330","timezone":"Europe/Madrid","modification_date":"2012-03-04"},{"geonameid":"2513166","name":"Ohanes","asciiname":"Ohanes","alternatenames":["Ohanes"],"latitude":"37.03861","longitude":"-2.74524","feature_class":"P","feature_code":"PPLA3","country_code":"ES","cc2":"","admin1_code":"51","admin2_code":"AL","admin3_code":"04067","admin4_code":"","population":"865","elevation":"","dem":"977","timezone":"Europe/Madrid","modification_date":"2012-03-04"},{"geonameid":"2513167","name":"Ogíjares","asciiname":"Ogijares","alternatenames":[""],"latitude":"37.11913","longitude":"-3.60772","feature_class":"P","feature_code":"PPLA3","country_code":"ES","cc2":"","admin1_code":"51","admin2_code":"GR","admin3_code":"18145","admin4_code":"","population":"13119","elevation":"","dem":"723","timezone":"Europe/Madrid","modification_date":"2012-03-04"},{"geonameid":"2513179","name":"Obejo","asciiname":"Obejo","alternatenames":["Obejo","Ovejo"],"latitude":"38.13265","longitude":"-4.80018","feature_class":"P","feature_code":"PPL","country_code":"ES","cc2":"","admin1_code":"51","admin2_code":"CO","admin3_code":"14054","admin4_code":"","population":"1464","elevation":"","dem":"702","timezone":"Europe/Madrid","modification_date":"2012-01-19"},{"geonameid":"2513184","name":"Nueva-Carteya","asciiname":"Nueva-Carteya","alternatenames":["Nueva-Carteya"],"latitude":"37.5863","longitude":"-4.46759","feature_class":"P","feature_code":"PPL","country_code":"ES","cc2":"","admin1_code":"51","admin2_code":"CO","admin3_code":"14046","admin4_code":"","population":"5561","elevation":"","dem":"437","timezone":"Europe/Madrid","modification_date":"2012-01-19"},{"geonameid":"2513217","name":"Noalejo","asciiname":"Noalejo","alternatenames":["Noalejo"],"latitude":"37.53017","longitude":"-3.65615","feature_class":"P","feature_code":"PPLA3","country_code":"ES","cc2":"","admin1_code":"51","admin2_code":"J","admin3_code":"23064","admin4_code":"","population":"2161","elevation":"","dem":"1097","timezone":"Europe/Madrid","modification_date":"2012-03-04"},{"geonameid":"2513218","name":"Nívar","asciiname":"Nivar","alternatenames":[""],"latitude":"37.25909","longitude":"-3.57768","feature_class":"P","feature_code":"PPLA3","country_code":"ES","cc2":"","admin1_code":"51","admin2_code":"GR","admin3_code":"18144","admin4_code":"","population":"658","elevation":"","dem":"1034","timezone":"Europe/Madrid","modification_date":"2012-03-04"},{"geonameid":"2513222","name":"Níjar","asciiname":"Nijar","alternatenames":["Nikhar","Нихар"],"latitude":"36.96655","longitude":"-2.20595","feature_class":"P","feature_code":"PPLA3","country_code":"ES","cc2":"","admin1_code":"51","admin2_code":"AL","admin3_code":"04066","admin4_code":"","population":"26516","elevation":"","dem":"367","timezone":"Europe/Madrid","modification_date":"2012-03-04"},{"geonameid":"2513223","name":"Nigüelas","asciiname":"Niguelas","alternatenames":[""],"latitude":"36.9776","longitude":"-3.53949","feature_class":"P","feature_code":"PPLA3","country_code":"ES","cc2":"","admin1_code":"51","admin2_code":"GR","admin3_code":"18143","admin4_code":"","population":"924","elevation":"","dem":"930","timezone":"Europe/Madrid","modification_date":"2012-03-04"},{"geonameid":"2513230","name":"Niebla","asciiname":"Niebla","alternatenames":["Niebla"],"latitude":"37.36213","longitude":"-6.67894","feature_class":"P","feature_code":"PPLA3","country_code":"ES","cc2":"","admin1_code":"51","admin2_code":"H","admin3_code":"21053","admin4_code":"","population":"3962","elevation":"","dem":"41","timezone":"Europe/Madrid","modification_date":"2012-03-04"},{"geonameid":"2513237","name":"Nerva","asciiname":"Nerva","alternatenames":["Nerva"],"latitude":"37.69627","longitude":"-6.54967","feature_class":"P","feature_code":"PPLA3","country_code":"ES","cc2":"","admin1_code":"51","admin2_code":"H","admin3_code":"21052","admin4_code":"","population":"6009","elevation":"","dem":"336","timezone":"Europe/Madrid","modification_date":"2012-03-04"},{"geonameid":"2513240","name":"Nerja","asciiname":"Nerja","alternatenames":["Nerja"],"latitude":"36.75278","longitude":"-3.8744","feature_class":"P","feature_code":"PPLA3","country_code":"ES","cc2":"","admin1_code":"51","admin2_code":"MA","admin3_code":"29075","admin4_code":"","population":"21811","elevation":"","dem":"51","timezone":"Europe/Madrid","modification_date":"2013-04-22"},{"geonameid":"2513400","name":"Murtas","asciiname":"Murtas","alternatenames":["Murtas"],"latitude":"36.88504","longitude":"-3.10945","feature_class":"P","feature_code":"PPLA3","country_code":"ES","cc2":"","admin1_code":"51","admin2_code":"GR","admin3_code":"18141","admin4_code":"","population":"720","elevation":"","dem":"1124","timezone":"Europe/Madrid","modification_date":"2012-03-04"},{"geonameid":"2513477","name":"Motril","asciiname":"Motril","alternatenames":["Motril","Motril'","mo te li er","motoriru","mwtryl","Мотрил","Мотриль","Мотріль","موتريل","モトリル","莫特里尔"],"latitude":"36.75066","longitude":"-3.5179","feature_class":"P","feature_code":"PPLA3","country_code":"ES","cc2":"","admin1_code":"51","admin2_code":"GR","admin3_code":"18140","admin4_code":"","population":"60279","elevation":"34","dem":"65","timezone":"Europe/Madrid","modification_date":"2012-03-04"},{"geonameid":"2513509","name":"Morón de la Frontera","asciiname":"Moron de la Frontera","alternatenames":["Moron","Moron de la Frontera","Moron-de-la-Frontera","Morón","Morón de la Frontera","OZP","mo long de la fu long te la","mwrwr","Морон-де-ла-Фронтера","مورور","莫龙德拉夫龙特拉"],"latitude":"37.12084","longitude":"-5.45403","feature_class":"P","feature_code":"PPLA3","country_code":"ES","cc2":"","admin1_code":"51","admin2_code":"SE","admin3_code":"41065","admin4_code":"","population":"28455","elevation":"","dem":"228","timezone":"Europe/Madrid","modification_date":"2013-06-16"},{"geonameid":"2513579","name":"Moraleda de Zafayona","asciiname":"Moraleda de Zafayona","alternatenames":["Moraleda de Zafayona"],"latitude":"37.16723","longitude":"-3.96505","feature_class":"P","feature_code":"PPLA3","country_code":"ES","cc2":"","admin1_code":"51","admin2_code":"GR","admin3_code":"18138","admin4_code":"","population":"2730","elevation":"","dem":"616","timezone":"Europe/Madrid","modification_date":"2012-03-04"},{"geonameid":"2513589","name":"Monturque","asciiname":"Monturque","alternatenames":["Monturke","meng tu er ke","mwntwrkwy  qrtbt","Монтурке","مونتوركوي، قرطبة","蒙图尔克"],"latitude":"37.47186","longitude":"-4.58164","feature_class":"P","feature_code":"PPLA3","country_code":"ES","cc2":"","admin1_code":"51","admin2_code":"CO","admin3_code":"14044","admin4_code":"","population":"2032","elevation":"","dem":"370","timezone":"Europe/Madrid","modification_date":"2012-03-04"},{"geonameid":"2513595","name":"Montoro","asciiname":"Montoro","alternatenames":["Aebura","Aipora","Aypora","Epora","Iipora","Montoro","Ypora"],"latitude":"38.02409","longitude":"-4.3834","feature_class":"P","feature_code":"PPL","country_code":"ES","cc2":"","admin1_code":"51","admin2_code":"CO","admin3_code":"14021","admin4_code":"","population":"9915","elevation":"","dem":"195","timezone":"Europe/Madrid","modification_date":"2013-08-25"},{"geonameid":"2513597","name":"Montizón","asciiname":"Montizon","alternatenames":["Montizon","Montizón"],"latitude":"38.34249","longitude":"-3.10404","feature_class":"P","feature_code":"PPLA3","country_code":"ES","cc2":"","admin1_code":"51","admin2_code":"J","admin3_code":"23062","admin4_code":"","population":"2001","elevation":"","dem":"643","timezone":"Europe/Madrid","modification_date":"2012-03-04"},{"geonameid":"2513599","name":"Montillana","asciiname":"Montillana","alternatenames":["Montillana"],"latitude":"37.50168","longitude":"-3.67368","feature_class":"P","feature_code":"PPLA3","country_code":"ES","cc2":"","admin1_code":"51","admin2_code":"GR","admin3_code":"18137","admin4_code":"","population":"1300","elevation":"","dem":"1021","timezone":"Europe/Madrid","modification_date":"2012-03-04"},