{"region_data":{"countryId":"2510769","adminCode1":"53","countryName":"Spain","fclName":"country, state, region,...","countryCode":"ES","lng":"-15.5","fcodeName":"first-order administrative division","toponymName":"Canary Islands","fcl":"A","numberOfChildren":7,"name":"Canary Islands","fcode":"ADM1","geonameId":2593110,"lat":"28","adminName1":"Canary Islands","population":2103992},"country_data":{"ISO":"ES","ISO3":"ESP","ISO_Numeric":"724","fips":"SP","country":"Spain","capital":"Madrid","area":"504782","Population":"46505963","Continent":"EU","tld":".es","CurrencyCode":"EUR","CurrencyName":"Euro","Phone":"34","Postal_Code_Format":"#####","Postal_Code_Regex":"^(\\d{5})$","Languages":"es-ES,ca,gl,eu,oc","geonameid":"2510769","neighbours":"AD,PT,GI,FR,MA","EquivalentFipsCode":""},"cities":[{"geonameid":"2509408","name":"Yaiza","asciiname":"Yaiza","alternatenames":["Yaiza"],"latitude":"28.95678","longitude":"-13.76535","feature_class":"P","feature_code":"PPLA3","country_code":"ES","cc2":"","admin1_code":"53","admin2_code":"GC","admin3_code":"35034","admin4_code":"","population":"8777","elevation":"","dem":"168","timezone":"Atlantic/Canary","modification_date":"2012-03-04"},{"geonameid":"2509617","name":"Vilaflor","asciiname":"Vilaflor","alternatenames":["Vilaflor","Villaflor"],"latitude":"28.15623","longitude":"-16.63592","feature_class":"P","feature_code":"PPLA3","country_code":"ES","cc2":"","admin1_code":"53","admin2_code":"TF","admin3_code":"38052","admin4_code":"","population":"1981","elevation":"","dem":"1364","timezone":"Atlantic/Canary","modification_date":"2012-03-04"},{"geonameid":"2509799","name":"Vega de San Mateo","asciiname":"Vega de San Mateo","alternatenames":["San Mateo","Vega de San Mateo"],"latitude":"28.00892","longitude":"-15.5333","feature_class":"P","feature_code":"PPLA3","country_code":"ES","cc2":"","admin1_code":"53","admin2_code":"GC","admin3_code":"35033","admin4_code":"","population":"7687","elevation":"","dem":"848","timezone":"Atlantic/Canary","modification_date":"2012-03-04"},{"geonameid":"2509841","name":"Valverde","asciiname":"Valverde","alternatenames":["VDE","Val'verde","Вальверде"],"latitude":"27.80628","longitude":"-17.91578","feature_class":"P","feature_code":"PPLA3","country_code":"ES","cc2":"","admin1_code":"53","admin2_code":"TF","admin3_code":"38048","admin4_code":"","population":"5000","elevation":"","dem":"603","timezone":"Atlantic/Canary","modification_date":"2012-03-04"},{"geonameid":"2509846","name":"Valsequillo de Gran Canaria","asciiname":"Valsequillo de Gran Canaria","alternatenames":["Valsequillo","Valsequillo de Gran Canaria"],"latitude":"27.98562","longitude":"-15.49725","feature_class":"P","feature_code":"PPLA3","country_code":"ES","cc2":"","admin1_code":"53","admin2_code":"GC","admin3_code":"35031","admin4_code":"","population":"8635","elevation":"","dem":"601","timezone":"Atlantic/Canary","modification_date":"2012-03-04"},{"geonameid":"2509864","name":"Valleseco","asciiname":"Valleseco","alternatenames":["Valleseco"],"latitude":"28.0433","longitude":"-15.57623","feature_class":"P","feature_code":"PPLA3","country_code":"ES","cc2":"","admin1_code":"53","admin2_code":"GC","admin3_code":"35032","admin4_code":"","population":"4116","elevation":"","dem":"1067","timezone":"Atlantic/Canary","modification_date":"2012-03-04"},{"geonameid":"2509887","name":"Vallehermosa","asciiname":"Vallehermosa","alternatenames":["Vallehermosa","Vallehermoso"],"latitude":"28.17944","longitude":"-17.26664","feature_class":"P","feature_code":"PPL","country_code":"ES","cc2":"","admin1_code":"53","admin2_code":"TF","admin3_code":"38050","admin4_code":"","population":"3303","elevation":"","dem":"187","timezone":"Atlantic/Canary","modification_date":"2012-01-19"},{"geonameid":"2510137","name":"Tuineje","asciiname":"Tuineje","alternatenames":["Tuineje"],"latitude":"28.32372","longitude":"-14.04722","feature_class":"P","feature_code":"PPLA3","country_code":"ES","cc2":"","admin1_code":"53","admin2_code":"GC","admin3_code":"35030","admin4_code":"","population":"13632","elevation":"","dem":"185","timezone":"Atlantic/Canary","modification_date":"2012-03-04"},{"geonameid":"2510455","name":"Tinajo","asciiname":"Tinajo","alternatenames":["Tinajo"],"latitude":"29.06326","longitude":"-13.67647","feature_class":"P","feature_code":"PPLA3","country_code":"ES","cc2":"","admin1_code":"53","admin2_code":"GC","admin3_code":"35029","admin4_code":"","population":"5228","elevation":"","dem":"217","timezone":"Atlantic/Canary","modification_date":"2012-03-04"},{"geonameid":"2510468","name":"Tijarafe","asciiname":"Tijarafe","alternatenames":["Tijarafe","Tirajafe"],"latitude":"28.7","longitude":"-17.95","feature_class":"P","feature_code":"PPLA3","country_code":"ES","cc2":"","admin1_code":"53","admin2_code":"TF","admin3_code":"38047","admin4_code":"","population":"2648","elevation":"","dem":"623","timezone":"Atlantic/Canary","modification_date":"2011-07-31"},{"geonameid":"2510485","name":"Tías","asciiname":"Tias","alternatenames":["Tias","Tías"],"latitude":"28.96108","longitude":"-13.64502","feature_class":"P","feature_code":"PPLA3","country_code":"ES","cc2":"","admin1_code":"53","admin2_code":"GC","admin3_code":"35028","admin4_code":"","population":"19849","elevation":"","dem":"177","timezone":"Atlantic/Canary","modification_date":"2012-03-04"},{"geonameid":"2510508","name":"Teror","asciiname":"Teror","alternatenames":["Teror","te luo er","tyrwr","Терор","تيرور","特罗尔"],"latitude":"28.06062","longitude":"-15.54909","feature_class":"P","feature_code":"PPLA3","country_code":"ES","cc2":"","admin1_code":"53","admin2_code":"GC","admin3_code":"35027","admin4_code":"","population":"12926","elevation":"","dem":"634","timezone":"Atlantic/Canary","modification_date":"2012-03-04"},{"geonameid":"2510542","name":"Telde","asciiname":"Telde","alternatenames":["Tel'de","Telde","te er de","tyldy","Телде","Тельде","تيلدي","特尔德"],"latitude":"27.99243","longitude":"-15.41915","feature_class":"P","feature_code":"PPLA3","country_code":"ES","cc2":"","admin1_code":"53","admin2_code":"GC","admin3_code":"35026","admin4_code":"","population":"100015","elevation":"","dem":"160","timezone":"Atlantic/Canary","modification_date":"2012-03-04"},{"geonameid":"2510558","name":"Tejeda","asciiname":"Tejeda","alternatenames":["Tejada","Tekheda","te he da","tykhyda","Техеда","تيخيدا","特赫达"],"latitude":"27.99508","longitude":"-15.61543","feature_class":"P","feature_code":"PPL","country_code":"ES","cc2":"","admin1_code":"53","admin2_code":"GC","admin3_code":"35025","admin4_code":"","population":"2338","elevation":"","dem":"1046","timezone":"Atlantic/Canary","modification_date":"2015-06-07"},{"geonameid":"2510573","name":"Teguise","asciiname":"Teguise","alternatenames":["Teguise"],"latitude":"29.06049","longitude":"-13.56397","feature_class":"P","feature_code":"PPLA3","country_code":"ES","cc2":"","admin1_code":"53","admin2_code":"GC","admin3_code":"35024","admin4_code":"","population":"19418","elevation":"","dem":"286","timezone":"Atlantic/Canary","modification_date":"2012-03-04"},{"geonameid":"2510574","name":"Tegueste","asciiname":"Tegueste","alternatenames":["Tegueste"],"latitude":"28.51667","longitude":"-16.31667","feature_class":"P","feature_code":"PPLA3","country_code":"ES","cc2":"","admin1_code":"53","admin2_code":"TF","admin3_code":"38046","admin4_code":"","population":"10666","elevation":"","dem":"511","timezone":"Atlantic/Canary","modification_date":"2012-03-04"},{"geonameid":"2510582","name":"Tazacorte","asciiname":"Tazacorte","alternatenames":["Tasakorte","Tazacorte","ta sa ke er te","tathakwrty","Тасакорте","تاثاكورتي","塔萨科尔特"],"latitude":"28.64186","longitude":"-17.93394","feature_class":"P","feature_code":"PPLA3","country_code":"ES","cc2":"","admin1_code":"53","admin2_code":"TF","admin3_code":"38045","admin4_code":"","population":"5670","elevation":"","dem":"111","timezone":"Atlantic/Canary","modification_date":"2012-03-04"},{"geonameid":"2510621","name":"Tanque","asciiname":"Tanque","alternatenames":[""],"latitude":"28.36667","longitude":"-16.83333","feature_class":"P","feature_code":"PPL","country_code":"ES","cc2":"","admin1_code":"53","admin2_code":"TF","admin3_code":"38010","admin4_code":"","population":"3068","elevation":"","dem":"141","timezone":"Atlantic/Canary","modification_date":"2006-01-27"},{"geonameid":"2510725","name":"Tacoronte","asciiname":"Tacoronte","alternatenames":["Tacoronte"],"latitude":"28.47688","longitude":"-16.41016","feature_class":"P","feature_code":"PPLA3","country_code":"ES","cc2":"","admin1_code":"53","admin2_code":"TF","admin3_code":"38043","admin4_code":"","population":"23562","elevation":"","dem":"569","timezone":"Atlantic/Canary","modification_date":"2012-03-04"},{"geonameid":"2511012","name":"Sauzal","asciiname":"Sauzal","alternatenames":["El Sauzal","Sauzal"],"latitude":"28.46667","longitude":"-16.41667","feature_class":"P","feature_code":"PPL","country_code":"ES","cc2":"","admin1_code":"53","admin2_code":"TF","admin3_code":"38041","admin4_code":"","population":"8172","elevation":"","dem":"681","timezone":"Atlantic/Canary","modification_date":"2012-01-19"},{"geonameid":"2511070","name":"Santiago del Teide","asciiname":"Santiago del Teide","alternatenames":["Santiago","Santiago del Teide","Santiago del Teyde"],"latitude":"28.294","longitude":"-16.81618","feature_class":"P","feature_code":"PPLA3","country_code":"ES","cc2":"","admin1_code":"53","admin2_code":"TF","admin3_code":"38040","admin4_code":"","population":"12050","elevation":"","dem":"922","timezone":"Atlantic/Canary","modification_date":"2012-03-04"},{"geonameid":"2511091","name":"Santa Úrsula","asciiname":"Santa Ursula","alternatenames":["Santa Ursula","Santa Úrsula"],"latitude":"28.42613","longitude":"-16.48876","feature_class":"P","feature_code":"PPLA3","country_code":"ES","cc2":"","admin1_code":"53","admin2_code":"TF","admin3_code":"38039","admin4_code":"","population":"14013","elevation":"","dem":"283","timezone":"Atlantic/Canary","modification_date":"2012-03-04"},{"geonameid":"2511150","name":"Santa Lucía","asciiname":"Santa Lucia","alternatenames":["Santa Lucia de Tirajana","Santa Lucía de Tirajana","sheng lu xi ya","圣卢西亚"],"latitude":"27.91174","longitude":"-15.54071","feature_class":"P","feature_code":"PPL","country_code":"ES","cc2":"","admin1_code":"53","admin2_code":"GC","admin3_code":"35019","admin4_code":"","population":"63637","elevation":"","dem":"699","timezone":"Atlantic/Canary","modification_date":"2015-06-14"},{"geonameid":"2511174","name":"Santa Cruz de Tenerife","asciiname":"Santa Cruz de Tenerife","alternatenames":["Gorad Santa-Krus-deh-Tehnehryfeh","Sancta Crux Nivariae","Santa Cruz Tenerifekoa","Santa Cruz de Tenerife","Santa Cruz de Ténérife","Santa Krouth nte Tenerife","Santa Krus de Tenerife","Santa Kruz de Tenerife","Santa-Krus-de-Tenerife","Santakrusa de Tenerife","TCI","Tenerife","Tenerifes Santa Krusas","Teneriffa","Tenerifės Santa Krusas","san ta kru sde te ne rife","santa kruja de teneriphe","santa krujha de teneripha","santa krusa de tenarifa","santa krws","santa krws dy tynyryfa","santa krwth dy tynyryfh","santa krwz dy tynyrf","santakeuluseudetenelipe","sheng ke lu si-de te nei li fei","snth qrws dh tnryph","Σάντα Κρουθ ντε Τενερίφε","Горад Санта-Крус-дэ-Тэнэрыфэ","Санта Круз де Тенерифе","Санта Крус де Тенерифе","Санта-Крус-де-Тенерифе","Санта-Крус-де-Тенеріфе","סאנטא קרוז דע טענעריפע","סנטה קרוס דה טנריפה","سانتا كروث دي تينيريفه","سانتا كروس دى تينيريفا","سانتا کروز دی تینیرف","سانتا کروز ٹینرائف","سانتا کروس","सांता क्रुझ दे तेनेरीफ","सान्ता क्रूस दे तेनरीफ़","সান্টা ক্রুজ দে তেনেরিফে","ซานตากรุซเดเตเนรีเฟ","სანტა-კრუს-დე-ტენერიფე","サンタ・クルス・デ・テネリフェ","圣克鲁斯-德特内里费","산타크루스데테네리페"],"latitude":"28.46824","longitude":"-16.25462","feature_class":"P","feature_code":"PPLA","country_code":"ES","cc2":"","admin1_code":"53","admin2_code":"TF","admin3_code":"38038","admin4_code":"","population":"222417","elevation":"10","dem":"55","timezone":"Atlantic/Canary","modification_date":"2013-12-08"},{"geonameid":"2511180","name":"Santa Cruz de la Palma","asciiname":"Santa Cruz de la Palma","alternatenames":["SPC","Santa Cruz de La Palma","Santa Cruz de la Palma"],"latitude":"28.68351","longitude":"-17.76421","feature_class":"P","feature_code":"PPL","country_code":"ES","cc2":"","admin1_code":"53","admin2_code":"TF","admin3_code":"38037","admin4_code":"","population":"17084","elevation":"","dem":"18","timezone":"Atlantic/Canary","modification_date":"2010-04-22"},{"geonameid":"2511202","name":"Santa Brígida","asciiname":"Santa Brigida","alternatenames":["Santa Brigida","Santa Brígida"],"latitude":"28.03197","longitude":"-15.50425","feature_class":"P","feature_code":"PPLA3","country_code":"ES","cc2":"","admin1_code":"53","admin2_code":"GC","admin3_code":"35021","admin4_code":"","population":"19154","elevation":"","dem":"499","timezone":"Atlantic/Canary","modification_date":"2012-03-04"},{"geonameid":"2511230","name":"San Sebastián de la Gomera","asciiname":"San Sebastian de la Gomera","alternatenames":["San Sebastian","San Sebastian de La Gomera","San Sebastian de la Gomera","San Sebastián de La Gomera","San Sebastián de la Gomera"],"latitude":"28.09163","longitude":"-17.11331","feature_class":"P","feature_code":"PPL","country_code":"ES","cc2":"","admin1_code":"53","admin2_code":"TF","admin3_code":"38036","admin4_code":"","population":"8964","elevation":"","dem":"8","timezone":"Atlantic/Canary","modification_date":"2012-02-15"},{"geonameid":"2511275","name":"San Nicolás","asciiname":"San Nicolas","alternatenames":["Aldea de San Nicolas"],"latitude":"27.9891","longitude":"-15.78126","feature_class":"P","feature_code":"PPL","country_code":"ES","cc2":"","admin1_code":"53","admin2_code":"GC","admin3_code":"35020","admin4_code":"","population":"7950","elevation":"","dem":"57","timezone":"Atlantic/Canary","modification_date":"2008-08-05"},{"geonameid":"2511287","name":"San Miguel","asciiname":"San Miguel","alternatenames":[""],"latitude":"28.09826","longitude":"-16.61708","feature_class":"P","feature_code":"PPL","country_code":"ES","cc2":"","admin1_code":"53","admin2_code":"TF","admin3_code":"38035","admin4_code":"","population":"16179","elevation":"","dem":"601","timezone":"Atlantic/Canary","modification_date":"2010-04-22"},{"geonameid":"2511327","name":"San Juan de la Rambla","asciiname":"San Juan de la Rambla","alternatenames":["Juan de Rambla","San Juan de Rambla","San Juan de la Rambla"],"latitude":"28.39276","longitude":"-16.65015","feature_class":"P","feature_code":"PPL","country_code":"ES","cc2":"","admin1_code":"53","admin2_code":"TF","admin3_code":"38026","admin4_code":"","population":"5007","elevation":"","dem":"99","timezone":"Atlantic/Canary","modification_date":"2012-01-19"},{"geonameid":"2511371","name":"San Isidro","asciiname":"San Isidro","alternatenames":["San Isidro","Сан Исидро"],"latitude":"28.07617","longitude":"-16.558","feature_class":"P","feature_code":"PPL","country_code":"ES","cc2":"","admin1_code":"53","admin2_code":"TF","admin3_code":"38017","admin4_code":"","population":"19541","elevation":"","dem":"207","timezone":"Atlantic/Canary","modification_date":"2013-08-07"},{"geonameid":"2511401","name":"La Laguna","asciiname":"La Laguna","alternatenames":["La Laguna","La-Laguna","San Cristobal de La Laguna","San Cristóbal de La Laguna","Ла-Лагуна"],"latitude":"28.4853","longitude":"-16.32014","feature_class":"P","feature_code":"PPL","country_code":"ES","cc2":"","admin1_code":"53","admin2_code":"TF","admin3_code":"38023","admin4_code":"","population":"150661","elevation":"","dem":"558","timezone":"Atlantic/Canary","modification_date":"2012-01-19"},{"geonameid":"2511440","name":"San Bartolomé de Tirajana","asciiname":"San Bartolome de Tirajana","alternatenames":["San Bartolome Tirajana","San Bartolome de Tirajana","San Bartolomé Tirajana","San Bartolomé de Tirajana"],"latitude":"27.92481","longitude":"-15.57329","feature_class":"P","feature_code":"PPL","country_code":"ES","cc2":"","admin1_code":"53","admin2_code":"GC","admin3_code":"35019","admin4_code":"","population":"52161","elevation":"","dem":"902","timezone":"Atlantic/Canary","modification_date":"2015-06-17"},{"geonameid":"2511447","name":"San Bartolomé","asciiname":"San Bartolome","alternatenames":["San - Bartolome","San Bartolome","San Bartolomé","Сан - Бартоломе"],"latitude":"29.00093","longitude":"-13.613","feature_class":"P","feature_code":"PPLA3","country_code":"ES","cc2":"","admin1_code":"53","admin2_code":"GC","admin3_code":"35018","admin4_code":"","population":"18517","elevation":"","dem":"275","timezone":"Atlantic/Canary","modification_date":"2012-03-04"},{"geonameid":"2511994","name":"Realejo Alto","asciiname":"Realejo Alto","alternatenames":["Realejo Alto"],"latitude":"28.37645","longitude":"-16.58575","feature_class":"P","feature_code":"PPL","country_code":"ES","cc2":"","admin1_code":"53","admin2_code":"TF","admin3_code":"38026","admin4_code":"","population":"35963","elevation":"","dem":"390","timezone":"Atlantic/Canary","modification_date":"2012-01-19"},{"geonameid":"2512138","name":"Puntallana","asciiname":"Puntallana","alternatenames":["Puntallana","San Juan de Puntallana"],"latitude":"28.73333","longitude":"-17.73333","feature_class":"P","feature_code":"PPLA3","country_code":"ES","cc2":"","admin1_code":"53","admin2_code":"TF","admin3_code":"38030","admin4_code":"","population":"2394","elevation":"","dem":"131","timezone":"Atlantic/Canary","modification_date":"2011-07-31"},{"geonameid":"2512144","name":"Puntagorda","asciiname":"Puntagorda","alternatenames":[""],"latitude":"28.7749","longitude":"-17.97741","feature_class":"P","feature_code":"PPLA3","country_code":"ES","cc2":"","admin1_code":"53","admin2_code":"TF","admin3_code":"38029","admin4_code":"","population":"1659","elevation":"","dem":"469","timezone":"Atlantic/Canary","modification_date":"2015-06-25"},{"geonameid":"2512186","name":"Puerto del Rosario","asciiname":"Puerto del Rosario","alternatenames":["Puehrto-del'-Rosario","Puerto Cabras","Puerto Rosario","Puerto de Cabras","Puerto del Rosario","Пуэрто-дель-Росарио"],"latitude":"28.50038","longitude":"-13.86272","feature_class":"P","feature_code":"PPLA3","country_code":"ES","cc2":"","admin1_code":"53","admin2_code":"GC","admin3_code":"35017","admin4_code":"","population":"35667","elevation":"","dem":"43","timezone":"Atlantic/Canary","modification_date":"2012-03-04"},{"geonameid":"2512196","name":"Puerto de la Cruz","asciiname":"Puerto de la Cruz","alternatenames":["Puehrto-de-la-Krus","Puerto de la Cruz","Puerto de la Krus","Puerto de la Krusas","Puerto-de-la-Krus","bwyrtw dy la krwth","pu ai er tuo de la ke lu si","Пуерто де ла Крус","Пуерто-де-ла-Крус","Пуэрто-де-ла-Крус","بويرتو دي لا كروث","普埃尔托德拉克鲁斯"],"latitude":"28.41397","longitude":"-16.54867","feature_class":"P","feature_code":"PPLA3","country_code":"ES","cc2":"","admin1_code":"53","admin2_code":"TF","admin3_code":"38028","admin4_code":"","population":"32219","elevation":"","dem":"43","timezone":"Atlantic/Canary","modification_date":"2012-03-04"},{"geonameid":"2512465","name":"Playa Blanca","asciiname":"Playa Blanca","alternatenames":["Plajja Blanka","Playa Blanca","QLY","Плайя Бланка"],"latitude":"28.86426","longitude":"-13.82814","feature_class":"P","feature_code":"PPL","country_code":"ES","cc2":"","admin1_code":"53","admin2_code":"GC","admin3_code":"35034","admin4_code":"","population":"10000","elevation":"","dem":"16","timezone":"Atlantic/Canary","modification_date":"2014-03-11"},{"geonameid":"2513026","name":"Pájara","asciiname":"Pajara","alternatenames":["Pajara","Pájara"],"latitude":"28.35039","longitude":"-14.1076","feature_class":"P","feature_code":"PPLA3","country_code":"ES","cc2":"","admin1_code":"53","admin2_code":"GC","admin3_code":"35015","admin4_code":"","population":"20821","elevation":"","dem":"213","timezone":"Atlantic/Canary","modification_date":"2012-03-04"},{"geonameid":"2513285","name":"Nazaret","asciiname":"Nazaret","alternatenames":["Nazaret","Назарет"],"latitude":"29.03818","longitude":"-13.56386","feature_class":"P","feature_code":"PPL","country_code":"ES","cc2":"","admin1_code":"53","admin2_code":"GC","admin3_code":"35024","admin4_code":"","population":"10000","elevation":"","dem":"207","timezone":"Atlantic/Canary","modification_date":"2013-01-09"},{"geonameid":"2513476","name":"Moya","asciiname":"Moya","alternatenames":["Moya"],"latitude":"28.10136","longitude":"-15.58917","feature_class":"P","feature_code":"PPLA3","country_code":"ES","cc2":"","admin1_code":"53","admin2_code":"GC","admin3_code":"35013","admin4_code":"","population":"7492","elevation":"","dem":"407","timezone":"Atlantic/Canary","modification_date":"2012-03-04"},{"geonameid":"2513798","name":"Mogán","asciiname":"Mogan","alternatenames":["Mogan","Mogán"],"latitude":"27.88385","longitude":"-15.72538","feature_class":"P","feature_code":"PPLA3","country_code":"ES","cc2":"","admin1_code":"53","admin2_code":"GC","admin3_code":"35012","admin4_code":"","population":"21690","elevation":"","dem":"238","timezone":"Atlantic/Canary","modification_date":"2012-03-04"},{"geonameid":"2513978","name":"Mazo","asciiname":"Mazo","alternatenames":["El Pueblo","Mazo"],"latitude":"28.60906","longitude":"-17.77801","feature_class":"P","feature_code":"PPL","country_code":"ES","cc2":"","admin1_code":"53","admin2_code":"TF","admin3_code":"38053","admin4_code":"","population":"4805","elevation":"","dem":"464","timezone":"Atlantic/Canary","modification_date":"2012-01-19"},{"geonameid":"2514042","name":"Maspalomas","asciiname":"Maspalomas","alternatenames":["Maspalomas","Маспаломас"],"latitude":"27.76056","longitude":"-15.58602","feature_class":"P","feature_code":"PPL","country_code":"ES","cc2":"","admin1_code":"53","admin2_code":"GC","admin3_code":"35019","admin4_code":"","population":"33000","elevation":"","dem":"32","timezone":"Atlantic/Canary","modification_date":"2013-11-20"},{"geonameid":"2514452","name":"Los Silos","asciiname":"Los Silos","alternatenames":["Los Silos","Silos"],"latitude":"28.3661","longitude":"-16.81552","feature_class":"P","feature_code":"PPL","country_code":"ES","cc2":"","admin1_code":"53","admin2_code":"TF","admin3_code":"38042","admin4_code":"","population":"5586","elevation":"","dem":"98","timezone":"Atlantic/Canary","modification_date":"2008-01-22"},{"geonameid":"2514651","name":"Los Llanos de Aridane","asciiname":"Los Llanos de Aridane","alternatenames":["Llanos de Aridane","Los Llanos","Los Llanos de Aridane","Los-L'janos-de-Aridane","luo si li ya nuo si de ya li da nei","lws yanws dy arydany","Лос-Льянос-де-Аридане","Лос-Льянос-де-Арідане","لوس يانوس دي أريداني","洛斯利亚诺斯德亚里达内"],"latitude":"28.65851","longitude":"-17.91821","feature_class":"P","feature_code":"PPL","country_code":"ES","cc2":"","admin1_code":"53","admin2_code":"TF","admin3_code":"38024","admin4_code":"","population":"20766","elevation":"","dem":"341","timezone":"Atlantic/Canary","modification_date":"2012-01-19"},{"geonameid":"2514912","name":"Lomo de Arico","asciiname":"Lomo de Arico","alternatenames":["Arico","Lomo de Arico"],"latitude":"28.16667","longitude":"-16.48333","feature_class":"P","feature_code":"PPL","country_code":"ES","cc2":"","admin1_code":"53","admin2_code":"TF","admin3_code":"38017","admin4_code":"","population":"7189","elevation":"","dem":"401","timezone":"Atlantic/Canary","modification_date":"2012-01-19"},{"geonameid":"2515118","name":"La Victoria de Acentejo","asciiname":"La Victoria de Acentejo","alternatenames":["La Victoria de Acentejo"],"latitude":"28.43231","longitude":"-16.46232","feature_class":"P","feature_code":"PPL","country_code":"ES","cc2":"","admin1_code":"53","admin2_code":"TF","admin3_code":"38051","admin4_code":"","population":"8469","elevation":"","dem":"481","timezone":"Atlantic/Canary","modification_date":"2012-01-19"},{"geonameid":"2515270","name":"Las Palmas de Gran Canaria","asciiname":"Las Palmas de Gran Canaria","alternatenames":["Kanaria Handiko Las Palmas","LPA","Las Palmas","Las Palmas de G.C.","Las Palmas de Gran Canaria","Las Palmas de Gran Kanaria","Las-Pal'mas-de-Gran-Kanarija","Laspalmasa","Les Palmes de Gran Canaria","Les Palmes de Gran Canària","Palmas","Palmas de Gran Canaria","la si pa er ma si","Лас Палмас де Гран Канариа","Лас-Пальмас-де-Гран-Канария","ラス・パルマス・デ・グラン・カナリア","拉斯帕尔马斯"],"latitude":"28.09973","longitude":"-15.41343","feature_class":"P","feature_code":"PPLA","country_code":"ES","cc2":"","admin1_code":"53","admin2_code":"GC","admin3_code":"35016","admin4_code":"","population":"381847","elevation":"","dem":"23","timezone":"Atlantic/Canary","modification_date":"2012-11-20"},{"geonameid":"2515692","name":"La Orotava","asciiname":"La Orotava","alternatenames":["La Orotava","La-Orotava","Orotava","Villa Orotava","Villa de la Orotava","la awrwtafa","lao luo ta wa","Ла-Оротава","Оротава","لا أوروتافا","劳罗塔瓦"],"latitude":"28.39076","longitude":"-16.52309","feature_class":"P","feature_code":"PPL","country_code":"ES","cc2":"","admin1_code":"53","admin2_code":"TF","admin3_code":"38026","admin4_code":"","population":"41171","elevation":"","dem":"355","timezone":"Atlantic/Canary","modification_date":"2012-04-29"},{"geonameid":"2515698","name":"La Oliva","asciiname":"La Oliva","alternatenames":["La Oliva","Oliva"],"latitude":"28.61052","longitude":"-13.92912","feature_class":"P","feature_code":"PPL","country_code":"ES","cc2":"","admin1_code":"53","admin2_code":"GC","admin3_code":"35014","admin4_code":"","population":"21996","elevation":"","dem":"225","timezone":"Atlantic/Canary","modification_date":"2010-04-22"},{"geonameid":"2515772","name":"La Matanza de Acentejo","asciiname":"La Matanza de Acentejo","alternatenames":["La Matanza de Acentejo"],"latitude":"28.45242","longitude":"-16.4472","feature_class":"P","feature_code":"PPLA3","country_code":"ES","cc2":"","admin1_code":"53","admin2_code":"TF","admin3_code":"38025","admin4_code":"","population":"7709","elevation":"","dem":"515","timezone":"Atlantic/Canary","modification_date":"2012-03-04"},{"geonameid":"2515911","name":"La Guancha","asciiname":"La Guancha","alternatenames":["Guancha","La Guancha"],"latitude":"28.3732","longitude":"-16.65158","feature_class":"P","feature_code":"PPLA3","country_code":"ES","cc2":"","admin1_code":"53","admin2_code":"TF","admin3_code":"38018","admin4_code":"","population":"5424","elevation":"","dem":"275","timezone":"Atlantic/Canary","modification_date":"2015-06-25"},{"geonameid":"2516443","name":"Ingenio","asciiname":"Ingenio","alternatenames":["Carrizal de Ingenio","Ingenio"],"latitude":"27.92086","longitude":"-15.4406","feature_class":"P","feature_code":"PPLA3","country_code":"ES","cc2":"","admin1_code":"53","admin2_code":"GC","admin3_code":"35011","admin4_code":"","population":"29319","elevation":"","dem":"306","timezone":"Atlantic/Canary","modification_date":"2012-03-04"},{"geonameid":"2516474","name":"Icod de los Vinos","asciiname":"Icod de los Vinos","alternatenames":["Icod","Icod de los Vinos"],"latitude":"28.37241","longitude":"-16.71188","feature_class":"P","feature_code":"PPLA3","country_code":"ES","cc2":"","admin1_code":"53","admin2_code":"TF","admin3_code":"38022","admin4_code":"","population":"24024","elevation":"","dem":"219","timezone":"Atlantic/Canary","modification_date":"2012-03-04"},{"geonameid":"2516785","name":"Hermigua","asciiname":"Hermigua","alternatenames":["Hermigua"],"latitude":"28.16766","longitude":"-17.19051","feature_class":"P","feature_code":"PPLA3","country_code":"ES","cc2":"","admin1_code":"53","admin2_code":"TF","admin3_code":"38021","admin4_code":"","population":"2195","elevation":"","dem":"107","timezone":"Atlantic/Canary","modification_date":"2012-03-04"},{"geonameid":"2516814","name":"Haría","asciiname":"Haria","alternatenames":["Haria","Haría"],"latitude":"29.14553","longitude":"-13.49986","feature_class":"P","feature_code":"PPLA3","country_code":"ES","cc2":"","admin1_code":"53","admin2_code":"GC","admin3_code":"35010","admin4_code":"","population":"4833","elevation":"","dem":"287","timezone":"Atlantic/Canary","modification_date":"2012-03-04"},{"geonameid":"2516852","name":"Güimar","asciiname":"Guimar","alternatenames":["Guimar","Güimar"],"latitude":"28.31122","longitude":"-16.41276","feature_class":"P","feature_code":"PPL","country_code":"ES","cc2":"","admin1_code":"53","admin2_code":"TF","admin3_code":"38020","admin4_code":"","population":"17662","elevation":"","dem":"278","timezone":"Atlantic/Canary","modification_date":"2015-05-31"},{"geonameid":"2516860","name":"Guía de Isora","asciiname":"Guia de Isora","alternatenames":["Gia-de-Isora","Guia","Guia de Isora","Guia de Izara","Guía","Guía de Isora","ghya dy aswra","ji ya de suo la","Гиа-де-Исора","Гіа-де-Ісора","غيا دي إسورا","吉亚德索拉"],"latitude":"28.21154","longitude":"-16.77947","feature_class":"P","feature_code":"PPLA3","country_code":"ES","cc2":"","admin1_code":"53","admin2_code":"TF","admin3_code":"38019","admin4_code":"","population":"20536","elevation":"","dem":"594","timezone":"Atlantic/Canary","modification_date":"2012-03-04"},{"geonameid":"2516861","name":"Guia","asciiname":"Guia","alternatenames":["Guia de Gran Canaria","Guía de Gran Canaria"],"latitude":"28.13974","longitude":"-15.63294","feature_class":"P","feature_code":"PPL","country_code":"ES","cc2":"","admin1_code":"53","admin2_code":"GC","admin3_code":"35009","admin4_code":"","population":"14031","elevation":"","dem":"181","timezone":"Atlantic/Canary","modification_date":"2008-12-23"},{"geonameid":"2517111","name":"Granadilla de Abona","asciiname":"Granadilla de Abona","alternatenames":["Granadil'ja-de-Abona","Granadilla","Granadilla de Abona","ge la na di li ya de ya wo na","ghranadya dy abwna","Гранадилья-де-Абона","Гранаділья-де-Абона","غراناديا دي أبونا","格拉纳迪利亚德亚沃纳"],"latitude":"28.11882","longitude":"-16.57599","feature_class":"P","feature_code":"PPLA3","country_code":"ES","cc2":"","admin1_code":"53","admin2_code":"TF","admin3_code":"38017","admin4_code":"","population":"39993","elevation":"","dem":"634","timezone":"Atlantic/Canary","modification_date":"2012-03-04"},{"geonameid":"2517346","name":"Garafía","asciiname":"Garafia","alternatenames":["Garafia","Garafia vald","Garafija","Garafía","Garafía vald","Santo Domingo","gharafya","jia la fei ya","Гарафиа","Гарафія","غارافيا","加拉菲亚"],"latitude":"28.81667","longitude":"-17.93333","feature_class":"P","feature_code":"PPLA3","country_code":"ES","cc2":"","admin1_code":"53","admin2_code":"TF","admin3_code":"38016","admin4_code":"","population":"1929","elevation":"","dem":"795","timezone":"Atlantic/Canary","modification_date":"2011-07-31"},{"geonameid":"2517349","name":"Garachico","asciiname":"Garachico","alternatenames":["Garachico","Garachiko","Гарачико"],"latitude":"28.77807","longitude":"-17.76459","feature_class":"P","feature_code":"PPL","country_code":"ES","cc2":"","admin1_code":"53","admin2_code":"TF","admin3_code":"38030","admin4_code":"","population":"6000","elevation":"","dem":"295","timezone":"Atlantic/Canary","modification_date":"2012-01-19"},{"geonameid":"2517436","name":"Gáldar","asciiname":"Galdar","alternatenames":["Gal'dar","Galdar","Gáldar","Гальдар"],"latitude":"28.14701","longitude":"-15.6502","feature_class":"P","feature_code":"PPLA3","country_code":"ES","cc2":"","admin1_code":"53","admin2_code":"GC","admin3_code":"35009","admin4_code":"","population":"24405","elevation":"","dem":"148","timezone":"Atlantic/Canary","modification_date":"2012-03-04"},{"geonameid":"2517598","name":"Fuencaliente de la Palma","asciiname":"Fuencaliente de la Palma","alternatenames":["Fuencaliente de la Palma","Los Canarios","fuencaliente"],"latitude":"28.49236","longitude":"-17.84529","feature_class":"P","feature_code":"PPL","country_code":"ES","cc2":"","admin1_code":"53","admin2_code":"TF","admin3_code":"38014","admin4_code":"","population":"1894","elevation":"","dem":"698","timezone":"Atlantic/Canary","modification_date":"2012-01-19"},{"geonameid":"2517611","name":"Frontera","asciiname":"Frontera","alternatenames":["Frontera","La Frontera","Las Lapas","Фронтера"],"latitude":"27.75404","longitude":"-18.00367","feature_class":"P","feature_code":"PPLA3","country_code":"ES","cc2":"ES","admin1_code":"53","admin2_code":"TF","admin3_code":"38013","admin4_code":"","population":"4010","elevation":"","dem":"342","timezone":"Atlantic/Canary","modification_date":"2011-07-31"},{"geonameid":"2517717","name":"Firgas","asciiname":"Firgas","alternatenames":["Firgas"],"latitude":"28.10711","longitude":"-15.56299","feature_class":"P","feature_code":"PPLA3","country_code":"ES","cc2":"","admin1_code":"53","admin2_code":"GC","admin3_code":"35008","admin4_code":"","population":"7106","elevation":"","dem":"510","timezone":"Atlantic/Canary","modification_date":"2012-03-04"},{"geonameid":"2517763","name":"Fasnia","asciiname":"Fasnia","alternatenames":["Fasnea","Fasnia"],"latitude":"28.23638","longitude":"-16.43886","feature_class":"P","feature_code":"PPLA3","country_code":"ES","cc2":"","admin1_code":"53","admin2_code":"TF","admin3_code":"38012","admin4_code":"","population":"2777","elevation":"","dem":"429","timezone":"Atlantic/Canary","modification_date":"2012-03-04"},{"geonameid":"2518277","name":"El Paso","asciiname":"El Paso","alternatenames":["Ehl'-Paso","El Paso","El'-Paso","Paso","ai er pa suo","al basw  santa krwth dy tynyryfh","Ель-Пасо","Эль-Пасо","إل باسو، سانتا كروث دي تينيريفه","埃尔帕索"],"latitude":"28.65007","longitude":"-17.88274","feature_class":"P","feature_code":"PPL","country_code":"ES","cc2":"","admin1_code":"53","admin2_code":"TF","admin3_code":"38027","admin4_code":"","population":"7053","elevation":"","dem":"641","timezone":"Atlantic/Canary","modification_date":"2012-01-19"},{"geonameid":"2519217","name":"Corralejo","asciiname":"Corralejo","alternatenames":["Corralejo","Koral'ekho","QFU","Коральехо"],"latitude":"28.73079","longitude":"-13.86749","feature_class":"P","feature_code":"PPL","country_code":"ES","cc2":"","admin1_code":"53","admin2_code":"GC","admin3_code":"35014","admin4_code":"","population":"13618","elevation":"","dem":"14","timezone":"Atlantic/Canary","modification_date":"2014-03-11"},{"geonameid":"2520283","name":"Candelaria","asciiname":"Candelaria","alternatenames":["Cancelaria","Candelaria","Kandelaria","Kandelarii","Kandelarija","kan de la li ya","kanderaria","kandylarya  santa krwth dy tynyryfh","Κανδελάρια","Канделарии","Канделария","Канделарія","קאנדלאריה","كانديلاريا، سانتا كروث دي تينيريفه","カンデラリア","坎德拉里亚"],"latitude":"28.3548","longitude":"-16.37268","feature_class":"P","feature_code":"PPLA3","country_code":"ES","cc2":"","admin1_code":"53","admin2_code":"TF","admin3_code":"38011","admin4_code":"","population":"24319","elevation":"","dem":"36","timezone":"Atlantic/Canary","modification_date":"2012-03-04"},{"geonameid":"2520760","name":"Buenavista del Norte","asciiname":"Buenavista del Norte","alternatenames":["Buehnavista-del'-Norte","Buenavista","Buenavista del Norte","Buenavista-del'-Norte","bu ai na wei si ta de er nuo er te","bwynafysta dyl nwrty","Буенавіста-дель-Норте","Буэнависта-дель-Норте","بوينافيستا ديل نورتي","布埃纳维斯塔德尔诺尔特"],"latitude":"28.37458","longitude":"-16.86098","feature_class":"P","feature_code":"PPLA3","country_code":"ES","cc2":"","admin1_code":"53","admin2_code":"TF","admin3_code":"38010","admin4_code":"","population":"5231","elevation":"","dem":"38","timezone":"Atlantic/Canary","modification_date":"2014-04-28"},{"geonameid":"2520799","name":"Breña Baja","asciiname":"Brena Baja","alternatenames":["Brena Baja","Breña Baja"],"latitude":"28.63011","longitude":"-17.78953","feature_class":"P","feature_code":"PPLA3","country_code":"ES","cc2":"","admin1_code":"53","admin2_code":"TF","admin3_code":"38009","admin4_code":"","population":"4245","elevation":"","dem":"539","timezone":"Atlantic/Canary","modification_date":"2015-06-07"},{"geonameid":"2520800","name":"Breña Alta","asciiname":"Brena Alta","alternatenames":["Brena Alta","Breña Alta"],"latitude":"28.65","longitude":"-17.78333","feature_class":"P","feature_code":"PPLA3","country_code":"ES","cc2":"","admin1_code":"53","admin2_code":"TF","admin3_code":"38008","admin4_code":"","population":"7092","elevation":"","dem":"329","timezone":"Atlantic/Canary","modification_date":"2011-07-31"},{"geonameid":"2521309","name":"Barlovento","asciiname":"Barlovento","alternatenames":[""],"latitude":"28.82708","longitude":"-17.80377","feature_class":"P","feature_code":"PPLA3","country_code":"ES","cc2":"","admin1_code":"53","admin2_code":"TF","admin3_code":"38007","admin4_code":"","population":"2334","elevation":"","dem":"575","timezone":"Atlantic/Canary","modification_date":"2012-02-15"},{"geonameid":"2521519","name":"Arucas","asciiname":"Arucas","alternatenames":["Arucas","Arukas","Арукас"],"latitude":"28.11983","longitude":"-15.52325","feature_class":"P","feature_code":"PPLA3","country_code":"ES","cc2":"","admin1_code":"53","admin2_code":"GC","admin3_code":"35006","admin4_code":"","population":"36259","elevation":"","dem":"280","timezone":"Atlantic/Canary","modification_date":"2012-03-04"},{"geonameid":"2521521","name":"Artenara","asciiname":"Artenara","alternatenames":["Artenara"],"latitude":"28.02055","longitude":"-15.64693","feature_class":"P","feature_code":"PPLA3","country_code":"ES","cc2":"","admin1_code":"53","admin2_code":"GC","admin3_code":"35005","admin4_code":"","population":"1565","elevation":"","dem":"1235","timezone":"Atlantic/Canary","modification_date":"2012-03-04"},{"geonameid":"2521570","name":"Arrecife","asciiname":"Arrecife","alternatenames":["ACE","Aresife","Arrecife","Аресифе"],"latitude":"28.96302","longitude":"-13.54769","feature_class":"P","feature_code":"PPLA3","country_code":"ES","cc2":"","admin1_code":"53","admin2_code":"GC","admin3_code":"35004","admin4_code":"","population":"59127","elevation":"","dem":"20","timezone":"Atlantic/Canary","modification_date":"2012-03-04"},{"geonameid":"2521582","name":"Arona","asciiname":"Arona","alternatenames":["Aron","Arona","Arona pa Tenerife","Arona på Tenerife","a luo na","arwna  asbanya","Арон","Арона","أرونا، إسبانيا","阿罗纳"],"latitude":"28.09962","longitude":"-16.68102","feature_class":"P","feature_code":"PPLA3","country_code":"ES","cc2":"","admin1_code":"53","admin2_code":"TF","admin3_code":"38006","admin4_code":"","population":"78614","elevation":"","dem":"632","timezone":"Atlantic/Canary","modification_date":"2012-03-04"},{"geonameid":"2521602","name":"Cruce de Arinaga","asciiname":"Cruce de Arinaga","alternatenames":["Puerto de Arinaga"],"latitude":"27.87656","longitude":"-15.42798","feature_class":"P","feature_code":"PPLL","country_code":"ES","cc2":"ES","admin1_code":"53","admin2_code":"GC","admin3_code":"35002","admin4_code":"","population":"2700","elevation":"","dem":"75","timezone":"Atlantic/Canary","modification_date":"2007-06-07"},{"geonameid":"2521692","name":"Arafo","asciiname":"Arafo","alternatenames":["Arafo","Arato"],"latitude":"28.33971","longitude":"-16.42244","feature_class":"P","feature_code":"PPLA3","country_code":"ES","cc2":"","admin1_code":"53","admin2_code":"TF","admin3_code":"38004","admin4_code":"","population":"5375","elevation":"","dem":"500","timezone":"Atlantic/Canary","modification_date":"2012-03-04"},{"geonameid":"2521706","name":"Antigua","asciiname":"Antigua","alternatenames":["La Antigua"],"latitude":"28.42307","longitude":"-14.01379","feature_class":"P","feature_code":"PPLA3","country_code":"ES","cc2":"","admin1_code":"53","admin2_code":"GC","admin3_code":"35003","admin4_code":"","population":"10371","elevation":"","dem":"263","timezone":"Atlantic/Canary","modification_date":"2012-03-04"},{"geonameid":"2522293","name":"Alajeró","asciiname":"Alajero","alternatenames":["Alajero","Alajeró"],"latitude":"28.06205","longitude":"-17.24073","feature_class":"P","feature_code":"PPL","country_code":"ES","cc2":"","admin1_code":"53","admin2_code":"TF","admin3_code":"38003","admin4_code":"","population":"2066","elevation":"","dem":"804","timezone":"Atlantic/Canary","modification_date":"2012-01-19"},{"geonameid":"2522318","name":"Agulo","asciiname":"Agulo","alternatenames":["Agulo"],"latitude":"28.18778","longitude":"-17.19678","feature_class":"P","feature_code":"PPLA3","country_code":"ES","cc2":"","admin1_code":"53","admin2_code":"TF","admin3_code":"38002","admin4_code":"","population":"1252","elevation":"","dem":"214","timezone":"Atlantic/Canary","modification_date":"2012-03-04"},{"geonameid":"2522325","name":"Agüimes","asciiname":"Aguimes","alternatenames":["Agueimes","Aguimes","Agüimes","Агуимес"],"latitude":"27.90539","longitude":"-15.44609","feature_class":"P","feature_code":"PPLA3","country_code":"ES","cc2":"","admin1_code":"53","admin2_code":"GC","admin3_code":"35002","admin4_code":"","population":"28924","elevation":"","dem":"287","timezone":"Atlantic/Canary","modification_date":"2013-07-29"},{"geonameid":"2522423","name":"Agaete","asciiname":"Agaete","alternatenames":["Agaehte","Agaete","a gai te","agaete","aghayty","Агаете","Агаэте","أغايتي","アガエテ","阿盖特"],"latitude":"28.10023","longitude":"-15.69998","feature_class":"P","feature_code":"PPLA3","country_code":"ES","cc2":"","admin1_code":"53","admin2_code":"GC","admin3_code":"35001","admin4_code":"","population":"5459","elevation":"","dem":"55","timezone":"Atlantic/Canary","modification_date":"2012-03-04"},{"geonameid":"2522437","name":"Adeje","asciiname":"Adeje","alternatenames":["Adeche","Adechė","Adeje","Adekhe","Costa Adeje","a de he","adykhy","Адехе","أديخي","阿德赫"],"latitude":"28.12271","longitude":"-16.726","feature_class":"P","feature_code":"PPLA3","country_code":"ES","cc2":"","admin1_code":"53","admin2_code":"TF","admin3_code":"38001","admin4_code":"","population":"43204","elevation":"","dem":"284","timezone":"Atlantic/Canary","modification_date":"2012-03-04"},{"geonameid":"6354969","name":"Playa del Ingles","asciiname":"Playa del Ingles","alternatenames":["Plaja del' Ingles","Playa del Ingles","Playa del Inglés","Плая дель Инглес"],"latitude":"27.7567","longitude":"-15.5787","feature_class":"P","feature_code":"PPL","country_code":"ES","cc2":"","admin1_code":"53","admin2_code":"GC","admin3_code":"35019","admin4_code":"","population":"17158","elevation":"","dem":"49","timezone":"Atlantic/Canary","modification_date":"2008-11-24"},{"geonameid":"6354970","name":"Puerto Rico","asciiname":"Puerto Rico","alternatenames":[""],"latitude":"27.78943","longitude":"-15.71045","feature_class":"P","feature_code":"PPL","country_code":"ES","cc2":"","admin1_code":"53","admin2_code":"GC","admin3_code":"35012","admin4_code":"","population":"11000","elevation":"10","dem":"25","timezone":"Atlantic/Canary","modification_date":"2015-04-14"},{"geonameid":"6355013","name":"Puerto del Carmen","asciiname":"Puerto del Carmen","alternatenames":["Puehrto-del'-Karmen","Puerto del Carmen","Пуэрто-дель-Кармен"],"latitude":"28.92313","longitude":"-13.66579","feature_class":"P","feature_code":"PPL","country_code":"ES","cc2":"","admin1_code":"53","admin2_code":"GC","admin3_code":"35028","admin4_code":"","population":"30000","elevation":"","dem":"44","timezone":"Atlantic/Canary","modification_date":"2015-06-10"},{"geonameid":"6355183","name":"Playa de las Américas","asciiname":"Playa de las Americas","alternatenames":["las americas"],"latitude":"28.06403","longitude":"-16.73012","feature_class":"P","feature_code":"PPL","country_code":"ES","cc2":"","admin1_code":"53","admin2_code":"TF","admin3_code":"38001","admin4_code":"","population":"3000","elevation":"","dem":"14","timezone":"Atlantic/Canary","modification_date":"2015-03-31"},{"geonameid":"6355214","name":"Las Rosas","asciiname":"Las Rosas","alternatenames":[""],"latitude":"28.01539","longitude":"-16.65373","feature_class":"P","feature_code":"PPLX","country_code":"ES","cc2":"","admin1_code":"53","admin2_code":"TF","admin3_code":"38006","admin4_code":"","population":"2000","elevation":"","dem":"20","timezone":"Atlantic/Canary","modification_date":"2007-03-11"},{"geonameid":"6692439","name":"El Cotillo","asciiname":"El Cotillo","alternatenames":["Ehl'-Kotil'o","El Cotillo","Эль-Котильо"],"latitude":"28.68272","longitude":"-14.00993","feature_class":"P","feature_code":"PPL","country_code":"ES","cc2":"","admin1_code":"53","admin2_code":"GC","admin3_code":"35014","admin4_code":"","population":"1190","elevation":"","dem":"24","timezone":"Atlantic/Canary","modification_date":"2014-03-11"},{"geonameid":"6692471","name":"Los Realejos","asciiname":"Los Realejos","alternatenames":["Los-Realekhos","luo si lei ya lai huo si","lws ryalykhws","Лос-Реалехос","لوس رياليخوس","洛斯雷亚莱霍斯"],"latitude":"28.38487","longitude":"-16.58275","feature_class":"P","feature_code":"PPL","country_code":"ES","cc2":"","admin1_code":"53","admin2_code":"TF","admin3_code":"38031","admin4_code":"","population":"37559","elevation":"","dem":"297","timezone":"Atlantic/Canary","modification_date":"2015-06-14"}]}