{"region_data":{"countryId":"2510769","adminCode1":"54","countryName":"Spain","fclName":"country, state, region,...","countryCode":"ES","lng":"-3","fcodeName":"first-order administrative division","toponymName":"Castilla-La Mancha","fcl":"A","numberOfChildren":5,"name":"Castille-La Mancha","fcode":"ADM1","geonameId":2593111,"lat":"39.5","adminName1":"Castille-La Mancha","population":2081313},"country_data":{"ISO":"ES","ISO3":"ESP","ISO_Numeric":"724","fips":"SP","country":"Spain","capital":"Madrid","area":"504782","Population":"46505963","Continent":"EU","tld":".es","CurrencyCode":"EUR","CurrencyName":"Euro","Phone":"34","Postal_Code_Format":"#####","Postal_Code_Regex":"^(\\d{5})$","Languages":"es-ES,ca,gl,eu,oc","geonameid":"2510769","neighbours":"AD,PT,GI,FR,MA","EquivalentFipsCode":""},"cities":[{"geonameid":"2509375","name":"Zafra de Záncara","asciiname":"Zafra de Zancara","alternatenames":["Zafra de Zancara","Zafra de Záncara"],"latitude":"39.89203","longitude":"-2.55786","feature_class":"P","feature_code":"PPLA3","country_code":"ES","cc2":"","admin1_code":"54","admin2_code":"CU","admin3_code":"16277","admin4_code":"","population":"169","elevation":"","dem":"922","timezone":"Europe/Madrid","modification_date":"2012-03-04"},{"geonameid":"2509386","name":"Yeste","asciiname":"Yeste","alternatenames":["Yeste","Zoste"],"latitude":"38.36852","longitude":"-2.31756","feature_class":"P","feature_code":"PPLA3","country_code":"ES","cc2":"","admin1_code":"54","admin2_code":"AB","admin3_code":"02086","admin4_code":"","population":"3580","elevation":"","dem":"912","timezone":"Europe/Madrid","modification_date":"2012-03-04"},{"geonameid":"2509389","name":"Yepes","asciiname":"Yepes","alternatenames":["Epes","Yepes","ye pei si","yybys","Єпес","Епес","ييبيس","耶佩斯"],"latitude":"39.90199","longitude":"-3.62517","feature_class":"P","feature_code":"PPLA3","country_code":"ES","cc2":"","admin1_code":"54","admin2_code":"TO","admin3_code":"45202","admin4_code":"","population":"4752","elevation":"","dem":"703","timezone":"Europe/Madrid","modification_date":"2012-03-04"},{"geonameid":"2509390","name":"Yémeda","asciiname":"Yemeda","alternatenames":["Yemeda","Yémeda"],"latitude":"39.76667","longitude":"-1.71667","feature_class":"P","feature_code":"PPLA3","country_code":"ES","cc2":"","admin1_code":"54","admin2_code":"CU","admin3_code":"16276","admin4_code":"","population":"26","elevation":"","dem":"922","timezone":"Europe/Madrid","modification_date":"2012-03-04"},{"geonameid":"2509419","name":"Viveros","asciiname":"Viveros","alternatenames":["Viveros"],"latitude":"38.7726","longitude":"-2.57449","feature_class":"P","feature_code":"PPLA3","country_code":"ES","cc2":"","admin1_code":"54","admin2_code":"AB","admin3_code":"02085","admin4_code":"","population":"475","elevation":"","dem":"1005","timezone":"Europe/Madrid","modification_date":"2012-03-04"},{"geonameid":"2509437","name":"Viso del Marqués","asciiname":"Viso del Marques","alternatenames":["El Viso del Marques","El Viso del Marqués","Viso del Marques","Viso del Marqués"],"latitude":"38.52208","longitude":"-3.56348","feature_class":"P","feature_code":"PPLA3","country_code":"ES","cc2":"","admin1_code":"54","admin2_code":"CR","admin3_code":"13098","admin4_code":"","population":"2946","elevation":"","dem":"783","timezone":"Europe/Madrid","modification_date":"2012-03-04"},{"geonameid":"2509467","name":"Villaverde y Pasaconsol","asciiname":"Villaverde y Pasaconsol","alternatenames":["Villaverde y Pasaconsol"],"latitude":"39.77099","longitude":"-2.26552","feature_class":"P","feature_code":"PPLA3","country_code":"ES","cc2":"","admin1_code":"54","admin2_code":"CU","admin3_code":"16273","admin4_code":"","population":"413","elevation":"","dem":"861","timezone":"Europe/Madrid","modification_date":"2012-03-04"},{"geonameid":"2509469","name":"Villaverde de Guadalimar","asciiname":"Villaverde de Guadalimar","alternatenames":["Villaverde de Guadalimar"],"latitude":"38.45525","longitude":"-2.51782","feature_class":"P","feature_code":"PPLA3","country_code":"ES","cc2":"","admin1_code":"54","admin2_code":"AB","admin3_code":"02084","admin4_code":"","population":"408","elevation":"","dem":"796","timezone":"Europe/Madrid","modification_date":"2012-03-04"},{"geonameid":"2509472","name":"Villavaliente","asciiname":"Villavaliente","alternatenames":["Villavaliente"],"latitude":"39.12646","longitude":"-1.45712","feature_class":"P","feature_code":"PPLA3","country_code":"ES","cc2":"","admin1_code":"54","admin2_code":"AB","admin3_code":"02083","admin4_code":"","population":"264","elevation":"","dem":"728","timezone":"Europe/Madrid","modification_date":"2012-03-04"},{"geonameid":"2509473","name":"Villatoya","asciiname":"Villatoya","alternatenames":[""],"latitude":"39.33333","longitude":"-1.3","feature_class":"P","feature_code":"PPLA3","country_code":"ES","cc2":"","admin1_code":"54","admin2_code":"AB","admin3_code":"02082","admin4_code":"","population":"197","elevation":"","dem":"395","timezone":"Europe/Madrid","modification_date":"2011-07-31"},{"geonameid":"2509475","name":"Villatobas","asciiname":"Villatobas","alternatenames":["Villatobas"],"latitude":"39.90187","longitude":"-3.32386","feature_class":"P","feature_code":"PPLA3","country_code":"ES","cc2":"","admin1_code":"54","admin2_code":"TO","admin3_code":"45198","admin4_code":"","population":"2356","elevation":"","dem":"736","timezone":"Europe/Madrid","modification_date":"2012-03-04"},{"geonameid":"2509477","name":"Villasequilla de Yepes","asciiname":"Villasequilla de Yepes","alternatenames":["Villasequilla","Villasequilla de Yepes"],"latitude":"39.87582","longitude":"-3.7311","feature_class":"P","feature_code":"PPL","country_code":"ES","cc2":"","admin1_code":"54","admin2_code":"TO","admin3_code":"45202","admin4_code":"","population":"2531","elevation":"","dem":"519","timezone":"Europe/Madrid","modification_date":"2012-01-19"},{"geonameid":"2509479","name":"Villaseca de la Sagra","asciiname":"Villaseca de la Sagra","alternatenames":["Villaseca","Villaseca de la Sagra"],"latitude":"39.96185","longitude":"-3.88291","feature_class":"P","feature_code":"PPLA3","country_code":"ES","cc2":"","admin1_code":"54","admin2_code":"TO","admin3_code":"45196","admin4_code":"","population":"1602","elevation":"","dem":"488","timezone":"Europe/Madrid","modification_date":"2012-03-04"},{"geonameid":"2509480","name":"Villarta de San Juan","asciiname":"Villarta de San Juan","alternatenames":["Villarta de San Juan"],"latitude":"39.23785","longitude":"-3.42333","feature_class":"P","feature_code":"PPLA3","country_code":"ES","cc2":"","admin1_code":"54","admin2_code":"CR","admin3_code":"13097","admin4_code":"","population":"3073","elevation":"","dem":"631","timezone":"Europe/Madrid","modification_date":"2012-03-04"},{"geonameid":"2509484","name":"Villarta","asciiname":"Villarta","alternatenames":["Villarta"],"latitude":"39.45","longitude":"-1.65","feature_class":"P","feature_code":"PPLA3","country_code":"ES","cc2":"","admin1_code":"54","admin2_code":"CU","admin3_code":"16271","admin4_code":"","population":"831","elevation":"","dem":"776","timezone":"Europe/Madrid","modification_date":"2012-03-04"},{"geonameid":"2509485","name":"Villarrubio","asciiname":"Villarrubio","alternatenames":["Villarrubio"],"latitude":"39.94511","longitude":"-2.89431","feature_class":"P","feature_code":"PPLA3","country_code":"ES","cc2":"","admin1_code":"54","admin2_code":"CU","admin3_code":"16270","admin4_code":"","population":"254","elevation":"","dem":"829","timezone":"Europe/Madrid","modification_date":"2012-03-04"},{"geonameid":"2509486","name":"Villarrubia de Santiago","asciiname":"Villarrubia de Santiago","alternatenames":["Villarrubia de Santiago"],"latitude":"39.98555","longitude":"-3.36898","feature_class":"P","feature_code":"PPLA3","country_code":"ES","cc2":"","admin1_code":"54","admin2_code":"TO","admin3_code":"45195","admin4_code":"","population":"2852","elevation":"","dem":"758","timezone":"Europe/Madrid","modification_date":"2012-03-04"},{"geonameid":"2509487","name":"Villarrubia de los Ojos","asciiname":"Villarrubia de los Ojos","alternatenames":["Villarrubia de los Ojos","Villarrubia los Ojos"],"latitude":"39.22085","longitude":"-3.60802","feature_class":"P","feature_code":"PPLA3","country_code":"ES","cc2":"","admin1_code":"54","admin2_code":"CR","admin3_code":"13096","admin4_code":"","population":"11191","elevation":"","dem":"629","timezone":"Europe/Madrid","modification_date":"2012-03-04"},{"geonameid":"2509491","name":"Villarrobledo","asciiname":"Villarrobledo","alternatenames":["Billarrobledo","Vil'jarrobledo","Villa Robletum","Villarrobledo","biryaroburedo","Βιλλαρροβλέδο","Вильярробледо","ビリャロブレド"],"latitude":"39.26992","longitude":"-2.60119","feature_class":"P","feature_code":"PPLA3","country_code":"ES","cc2":"","admin1_code":"54","admin2_code":"AB","admin3_code":"02081","admin4_code":"","population":"26642","elevation":"","dem":"729","timezone":"Europe/Madrid","modification_date":"2012-03-04"},{"geonameid":"2509499","name":"Villares del Saz","asciiname":"Villares del Saz","alternatenames":["Villares del Saz"],"latitude":"39.84109","longitude":"-2.50427","feature_class":"P","feature_code":"PPLA3","country_code":"ES","cc2":"","admin1_code":"54","admin2_code":"CU","admin3_code":"16269","admin4_code":"","population":"630","elevation":"","dem":"873","timezone":"Europe/Madrid","modification_date":"2012-03-04"},{"geonameid":"2509505","name":"Villarejo-Periesteban","asciiname":"Villarejo-Periesteban","alternatenames":["Villarejo-Periesteban"],"latitude":"39.87231","longitude":"-2.44145","feature_class":"P","feature_code":"PPLA3","country_code":"ES","cc2":"","admin1_code":"54","admin2_code":"CU","admin3_code":"16266","admin4_code":"","population":"511","elevation":"","dem":"920","timezone":"Europe/Madrid","modification_date":"2012-03-04"},{"geonameid":"2509506","name":"Villarejo de Montalbán","asciiname":"Villarejo de Montalban","alternatenames":["Villarejo de Montalban","Villarejo de Montalbán"],"latitude":"39.76913","longitude":"-4.57314","feature_class":"P","feature_code":"PPLA3","country_code":"ES","cc2":"","admin1_code":"54","admin2_code":"TO","admin3_code":"45194","admin4_code":"","population":"76","elevation":"","dem":"534","timezone":"Europe/Madrid","modification_date":"2012-03-04"},{"geonameid":"2509507","name":"Villarejo de Fuentes","asciiname":"Villarejo de Fuentes","alternatenames":[""],"latitude":"39.78809","longitude":"-2.6968","feature_class":"P","feature_code":"PPLA3","country_code":"ES","cc2":"","admin1_code":"54","admin2_code":"CU","admin3_code":"16264","admin4_code":"","population":"736","elevation":"","dem":"862","timezone":"Europe/Madrid","modification_date":"2012-03-04"},{"geonameid":"2509517","name":"Villar del Pozo","asciiname":"Villar del Pozo","alternatenames":["Villar del Pozo"],"latitude":"38.8501","longitude":"-3.96405","feature_class":"P","feature_code":"PPLA3","country_code":"ES","cc2":"","admin1_code":"54","admin2_code":"CR","admin3_code":"13095","admin4_code":"","population":"121","elevation":"","dem":"639","timezone":"Europe/Madrid","modification_date":"2012-03-04"},{"geonameid":"2509519","name":"Villar del Humo","asciiname":"Villar del Humo","alternatenames":["Villar del Humo"],"latitude":"39.86667","longitude":"-1.63333","feature_class":"P","feature_code":"PPLA3","country_code":"ES","cc2":"","admin1_code":"54","admin2_code":"CU","admin3_code":"16258","admin4_code":"","population":"354","elevation":"","dem":"975","timezone":"Europe/Madrid","modification_date":"2012-03-04"},{"geonameid":"2509522","name":"Villar de la Encina","asciiname":"Villar de la Encina","alternatenames":["Villar de la Encima","Villar de la Encina"],"latitude":"39.63725","longitude":"-2.52155","feature_class":"P","feature_code":"PPLA3","country_code":"ES","cc2":"","admin1_code":"54","admin2_code":"CU","admin3_code":"16255","admin4_code":"","population":"217","elevation":"","dem":"841","timezone":"Europe/Madrid","modification_date":"2012-03-04"},{"geonameid":"2509526","name":"Villar de Cañas","asciiname":"Villar de Canas","alternatenames":[""],"latitude":"39.7786","longitude":"-2.56428","feature_class":"P","feature_code":"PPLA3","country_code":"ES","cc2":"","admin1_code":"54","admin2_code":"CU","admin3_code":"16253","admin4_code":"","population":"481","elevation":"","dem":"818","timezone":"Europe/Madrid","modification_date":"2012-03-04"},{"geonameid":"2509537","name":"Villapalacios","asciiname":"Villapalacios","alternatenames":["Villapalacios"],"latitude":"38.575","longitude":"-2.63384","feature_class":"P","feature_code":"PPLA3","country_code":"ES","cc2":"","admin1_code":"54","admin2_code":"AB","admin3_code":"02080","admin4_code":"","population":"770","elevation":"","dem":"842","timezone":"Europe/Madrid","modification_date":"2012-03-04"},{"geonameid":"2509540","name":"Villanueva de San Carlos","asciiname":"Villanueva de San Carlos","alternatenames":["Villanueva de San Carlos"],"latitude":"38.62173","longitude":"-3.90903","feature_class":"P","feature_code":"PPLA3","country_code":"ES","cc2":"","admin1_code":"54","admin2_code":"CR","admin3_code":"13094","admin4_code":"","population":"414","elevation":"","dem":"656","timezone":"Europe/Madrid","modification_date":"2013-07-22"},{"geonameid":"2509558","name":"Villanueva de la Jara","asciiname":"Villanueva de la Jara","alternatenames":["Vil'januehva-de-la-Khara","Vil'janueva-de-la-Khara","Villanueva de la Jara","fylanywfa dy la khara","ha la xin zhen","Вильянуэва-де-ла-Хара","Вільянуева-де-ла-Хара","فيلانيوفا دي لا خارا","哈拉新镇"],"latitude":"39.43333","longitude":"-1.93333","feature_class":"P","feature_code":"PPLA3","country_code":"ES","cc2":"","admin1_code":"54","admin2_code":"CU","admin3_code":"16251","admin4_code":"","population":"2166","elevation":"","dem":"800","timezone":"Europe/Madrid","modification_date":"2012-03-04"},{"geonameid":"2509560","name":"Villanueva de la Fuente","asciiname":"Villanueva de la Fuente","alternatenames":["Villanueva de la Fuente"],"latitude":"38.69463","longitude":"-2.69637","feature_class":"P","feature_code":"PPLA3","country_code":"ES","cc2":"","admin1_code":"54","admin2_code":"CR","admin3_code":"13092","admin4_code":"","population":"2602","elevation":"","dem":"1006","timezone":"Europe/Madrid","modification_date":"2012-03-04"},{"geonameid":"2509565","name":"Villanueva de Bogas","asciiname":"Villanueva de Bogas","alternatenames":["Villanueva de Bogas"],"latitude":"39.72347","longitude":"-3.65743","feature_class":"P","feature_code":"PPLA3","country_code":"ES","cc2":"","admin1_code":"54","admin2_code":"TO","admin3_code":"45193","admin4_code":"","population":"816","elevation":"","dem":"657","timezone":"Europe/Madrid","modification_date":"2012-03-04"},{"geonameid":"2509567","name":"Villanueva de Alcardete","asciiname":"Villanueva de Alcardete","alternatenames":["Villanueva de Alcardete","Villanueva del Cardete"],"latitude":"39.67321","longitude":"-3.01445","feature_class":"P","feature_code":"PPLA3","country_code":"ES","cc2":"","admin1_code":"54","admin2_code":"TO","admin3_code":"45192","admin4_code":"","population":"3658","elevation":"","dem":"729","timezone":"Europe/Madrid","modification_date":"2012-03-04"},{"geonameid":"2509569","name":"Villamuelas","asciiname":"Villamuelas","alternatenames":["Villamuelas"],"latitude":"39.81784","longitude":"-3.73461","feature_class":"P","feature_code":"PPLA3","country_code":"ES","cc2":"","admin1_code":"54","admin2_code":"TO","admin3_code":"45191","admin4_code":"","population":"729","elevation":"","dem":"591","timezone":"Europe/Madrid","modification_date":"2012-03-04"},{"geonameid":"2509570","name":"Villaminaya","asciiname":"Villaminaya","alternatenames":["Villaminaya"],"latitude":"39.71197","longitude":"-3.87055","feature_class":"P","feature_code":"PPLA3","country_code":"ES","cc2":"","admin1_code":"54","admin2_code":"TO","admin3_code":"45190","admin4_code":"","population":"589","elevation":"","dem":"728","timezone":"Europe/Madrid","modification_date":"2012-03-04"},{"geonameid":"2509571","name":"Villamiel de Toledo","asciiname":"Villamiel de Toledo","alternatenames":["Villamiel de Toledo"],"latitude":"39.96482","longitude":"-4.12627","feature_class":"P","feature_code":"PPLA3","country_code":"ES","cc2":"","admin1_code":"54","admin2_code":"TO","admin3_code":"45189","admin4_code":"","population":"725","elevation":"","dem":"483","timezone":"Europe/Madrid","modification_date":"2012-03-04"},{"geonameid":"2509573","name":"Villamayor de Santiago","asciiname":"Villamayor de Santiago","alternatenames":["Villamayor de Santiago"],"latitude":"39.73072","longitude":"-2.92357","feature_class":"P","feature_code":"PPLA3","country_code":"ES","cc2":"","admin1_code":"54","admin2_code":"CU","admin3_code":"16249","admin4_code":"","population":"2766","elevation":"","dem":"781","timezone":"Europe/Madrid","modification_date":"2012-03-04"},{"geonameid":"2509574","name":"Villamayor de Calatrava","asciiname":"Villamayor de Calatrava","alternatenames":["Villamayor de Calatrava"],"latitude":"38.78763","longitude":"-4.13774","feature_class":"P","feature_code":"PPLA3","country_code":"ES","cc2":"","admin1_code":"54","admin2_code":"CR","admin3_code":"13091","admin4_code":"","population":"618","elevation":"","dem":"661","timezone":"Europe/Madrid","modification_date":"2012-03-04"},{"geonameid":"2509578","name":"Villamanrique","asciiname":"Villamanrique","alternatenames":["Villamanrique"],"latitude":"38.54636","longitude":"-2.99729","feature_class":"P","feature_code":"PPLA3","country_code":"ES","cc2":"","admin1_code":"54","admin2_code":"CR","admin3_code":"13090","admin4_code":"","population":"1506","elevation":"","dem":"855","timezone":"Europe/Madrid","modification_date":"2012-03-04"},{"geonameid":"2509580","name":"Villamalea","asciiname":"Villamalea","alternatenames":["Villamalea"],"latitude":"39.36667","longitude":"-1.58333","feature_class":"P","feature_code":"PPLA3","country_code":"ES","cc2":"","admin1_code":"54","admin2_code":"AB","admin3_code":"02079","admin4_code":"","population":"3955","elevation":"","dem":"737","timezone":"Europe/Madrid","modification_date":"2012-03-04"},{"geonameid":"2509582","name":"Villalpardo","asciiname":"Villalpardo","alternatenames":["Villalpardo"],"latitude":"39.46667","longitude":"-1.63333","feature_class":"P","feature_code":"PPLA3","country_code":"ES","cc2":"","admin1_code":"54","admin2_code":"CU","admin3_code":"16248","admin4_code":"","population":"1153","elevation":"","dem":"763","timezone":"Europe/Madrid","modification_date":"2012-03-04"},{"geonameid":"2509585","name":"Villalgordo del Marquesado","asciiname":"Villalgordo del Marquesado","alternatenames":["Villalgordo del Marquesado"],"latitude":"39.68245","longitude":"-2.50885","feature_class":"P","feature_code":"PPLA3","country_code":"ES","cc2":"","admin1_code":"54","admin2_code":"CU","admin3_code":"16247","admin4_code":"","population":"114","elevation":"","dem":"869","timezone":"Europe/Madrid","modification_date":"2012-03-04"},{"geonameid":"2509589","name":"Villahermosa","asciiname":"Villahermosa","alternatenames":["Villahermosa"],"latitude":"38.75023","longitude":"-2.87066","feature_class":"P","feature_code":"PPL","country_code":"ES","cc2":"","admin1_code":"54","admin2_code":"CR","admin3_code":"13010","admin4_code":"","population":"2422","elevation":"","dem":"959","timezone":"Europe/Madrid","modification_date":"2012-01-19"},{"geonameid":"2509593","name":"Villagarcía del Llano","asciiname":"Villagarcia del Llano","alternatenames":["Villagarcia","Villagarcia del Llano","Villagarcía","Villagarcía del Llano"],"latitude":"39.31667","longitude":"-1.83333","feature_class":"P","feature_code":"PPLA3","country_code":"ES","cc2":"","admin1_code":"54","admin2_code":"CU","admin3_code":"16244","admin4_code":"","population":"939","elevation":"","dem":"719","timezone":"Europe/Madrid","modification_date":"2012-03-04"},{"geonameid":"2509597","name":"Villafranca de los Caballeros","asciiname":"Villafranca de los Caballeros","alternatenames":[""],"latitude":"39.42824","longitude":"-3.36079","feature_class":"P","feature_code":"PPLA3","country_code":"ES","cc2":"","admin1_code":"54","admin2_code":"TO","admin3_code":"45187","admin4_code":"","population":"5181","elevation":"","dem":"645","timezone":"Europe/Madrid","modification_date":"2012-03-04"},{"geonameid":"2509602","name":"Villa de Ves","asciiname":"Villa de Ves","alternatenames":["Villa de Ves"],"latitude":"39.2","longitude":"-1.23333","feature_class":"P","feature_code":"PPLA3","country_code":"ES","cc2":"","admin1_code":"54","admin2_code":"AB","admin3_code":"02077","admin4_code":"","population":"78","elevation":"","dem":"674","timezone":"Europe/Madrid","modification_date":"2012-03-04"},{"geonameid":"2509605","name":"Villa de Don Fadrique","asciiname":"Villa de Don Fadrique","alternatenames":["La Villa de Don Fadrique","Villa de Don Fabrique","Villa de Don Fadrique"],"latitude":"39.61505","longitude":"-3.21915","feature_class":"P","feature_code":"PPL","country_code":"ES","cc2":"","admin1_code":"54","admin2_code":"TO","admin3_code":"45186","admin4_code":"","population":"4200","elevation":"","dem":"672","timezone":"Europe/Madrid","modification_date":"2012-01-19"},{"geonameid":"2509608","name":"Villacañas","asciiname":"Villacanas","alternatenames":[""],"latitude":"39.62367","longitude":"-3.33813","feature_class":"P","feature_code":"PPLA3","country_code":"ES","cc2":"","admin1_code":"54","admin2_code":"TO","admin3_code":"45185","admin4_code":"","population":"10645","elevation":"","dem":"677","timezone":"Europe/Madrid","modification_date":"2012-03-04"},{"geonameid":"2509713","name":"Ventas con Peña Aguilera","asciiname":"Ventas con Pena Aguilera","alternatenames":["Ventas con Pena Aguilera","Ventas con Peña Aguilera"],"latitude":"39.61033","longitude":"-4.23128","feature_class":"P","feature_code":"PPL","country_code":"ES","cc2":"","admin1_code":"54","admin2_code":"TO","admin3_code":"45182","admin4_code":"","population":"1386","elevation":"","dem":"794","timezone":"Europe/Madrid","modification_date":"2012-01-19"},{"geonameid":"2509781","name":"Velada","asciiname":"Velada","alternatenames":["Velada"],"latitude":"39.97687","longitude":"-4.97641","feature_class":"P","feature_code":"PPLA3","country_code":"ES","cc2":"","admin1_code":"54","admin2_code":"TO","admin3_code":"45181","admin4_code":"","population":"2429","elevation":"","dem":"434","timezone":"Europe/Madrid","modification_date":"2012-03-04"},{"geonameid":"2509819","name":"Vara de Rey","asciiname":"Vara de Rey","alternatenames":["Vara de Rey"],"latitude":"39.42595","longitude":"-2.29404","feature_class":"P","feature_code":"PPLA3","country_code":"ES","cc2":"","admin1_code":"54","admin2_code":"CU","admin3_code":"16238","admin4_code":"","population":"629","elevation":"","dem":"820","timezone":"Europe/Madrid","modification_date":"2012-03-04"},{"geonameid":"2509831","name":"Valverdejo","asciiname":"Valverdejo","alternatenames":["Valverdejo"],"latitude":"39.61667","longitude":"-2.01667","feature_class":"P","feature_code":"PPLA3","country_code":"ES","cc2":"","admin1_code":"54","admin2_code":"CU","admin3_code":"16237","admin4_code":"","population":"124","elevation":"","dem":"897","timezone":"Europe/Madrid","modification_date":"2012-03-04"},{"geonameid":"2509836","name":"Valverde de Júcar","asciiname":"Valverde de Jucar","alternatenames":["Valverde de Jucar","Valverde de Júcar","Valverde del Jucar","Valverde del Júcar"],"latitude":"39.71866","longitude":"-2.22135","feature_class":"P","feature_code":"PPLA3","country_code":"ES","cc2":"","admin1_code":"54","admin2_code":"CU","admin3_code":"16236","admin4_code":"","population":"1372","elevation":"","dem":"845","timezone":"Europe/Madrid","modification_date":"2012-03-04"},{"geonameid":"2509937","name":"Valhermoso de la Fuente","asciiname":"Valhermoso de la Fuente","alternatenames":["Valhermoso","Valhermoso de la Fuente"],"latitude":"39.56667","longitude":"-2.01667","feature_class":"P","feature_code":"PPLA3","country_code":"ES","cc2":"","admin1_code":"54","admin2_code":"CU","admin3_code":"16231","admin4_code":"","population":"44","elevation":"","dem":"829","timezone":"Europe/Madrid","modification_date":"2012-03-04"},{"geonameid":"2509942","name":"Valenzuela de Calatrava","asciiname":"Valenzuela de Calatrava","alternatenames":["Valenzuela de Calatrava"],"latitude":"38.85254","longitude":"-3.7721","feature_class":"P","feature_code":"PPLA3","country_code":"ES","cc2":"","admin1_code":"54","admin2_code":"CR","admin3_code":"13088","admin4_code":"","population":"788","elevation":"","dem":"659","timezone":"Europe/Madrid","modification_date":"2012-03-04"},{"geonameid":"2509961","name":"Valdeverdeja","asciiname":"Valdeverdeja","alternatenames":["Valdeverdeja","Valdeverja","Valle la Verja","Valverdeja"],"latitude":"39.79635","longitude":"-5.24544","feature_class":"P","feature_code":"PPLA3","country_code":"ES","cc2":"","admin1_code":"54","admin2_code":"TO","admin3_code":"45179","admin4_code":"","population":"721","elevation":"","dem":"475","timezone":"Europe/Madrid","modification_date":"2012-03-04"},{"geonameid":"2509982","name":"Valdepeñas","asciiname":"Valdepenas","alternatenames":["Val'depen'jase","Valdepenas","Valdepeñas","Yaldepenas","Вальдепеньясе"],"latitude":"38.76211","longitude":"-3.38483","feature_class":"P","feature_code":"PPLA3","country_code":"ES","cc2":"","admin1_code":"54","admin2_code":"CR","admin3_code":"13087","admin4_code":"","population":"31147","elevation":"","dem":"714","timezone":"Europe/Madrid","modification_date":"2013-11-13"},{"geonameid":"2509991","name":"Valdemanco del Esteras","asciiname":"Valdemanco del Esteras","alternatenames":["Valdemanco del Esteras"],"latitude":"38.93858","longitude":"-4.8292","feature_class":"P","feature_code":"PPLA3","country_code":"ES","cc2":"","admin1_code":"54","admin2_code":"CR","admin3_code":"13086","admin4_code":"","population":"0","elevation":"","dem":"551","timezone":"Europe/Madrid","modification_date":"2012-03-04"},{"geonameid":"2510028","name":"Valdeganga","asciiname":"Valdeganga","alternatenames":["Valdeganga"],"latitude":"39.13514","longitude":"-1.67703","feature_class":"P","feature_code":"PPLA3","country_code":"ES","cc2":"","admin1_code":"54","admin2_code":"AB","admin3_code":"02075","admin4_code":"","population":"1871","elevation":"","dem":"667","timezone":"Europe/Madrid","modification_date":"2012-03-04"},{"geonameid":"2510083","name":"Urda","asciiname":"Urda","alternatenames":["Urda"],"latitude":"39.41179","longitude":"-3.71493","feature_class":"P","feature_code":"PPLA3","country_code":"ES","cc2":"","admin1_code":"54","admin2_code":"TO","admin3_code":"45177","admin4_code":"","population":"3123","elevation":"","dem":"770","timezone":"Europe/Madrid","modification_date":"2012-03-04"},{"geonameid":"2510106","name":"Uclés","asciiname":"Ucles","alternatenames":["Ucles","Uclès","Uclés","Ukles","aqlysh","ukuresu","wu ke lai si","Уклес","أقليش","ウクレス","乌克莱斯"],"latitude":"39.97938","longitude":"-2.86143","feature_class":"P","feature_code":"PPLA3","country_code":"ES","cc2":"","admin1_code":"54","admin2_code":"CU","admin3_code":"16218","admin4_code":"","population":"276","elevation":"","dem":"846","timezone":"Europe/Madrid","modification_date":"2012-03-04"},{"geonameid":"2510127","name":"Turleque","asciiname":"Turleque","alternatenames":["Torleque","Turleque"],"latitude":"39.60138","longitude":"-3.61404","feature_class":"P","feature_code":"PPLA3","country_code":"ES","cc2":"","admin1_code":"54","admin2_code":"TO","admin3_code":"45175","admin4_code":"","population":"921","elevation":"","dem":"694","timezone":"Europe/Madrid","modification_date":"2012-03-04"},{"geonameid":"2510168","name":"Tribaldos","asciiname":"Tribaldos","alternatenames":["Tribaldos"],"latitude":"39.97264","longitude":"-2.89809","feature_class":"P","feature_code":"PPLA3","country_code":"ES","cc2":"","admin1_code":"54","admin2_code":"CU","admin3_code":"16217","admin4_code":"","population":"124","elevation":"","dem":"830","timezone":"Europe/Madrid","modification_date":"2012-03-04"},{"geonameid":"2510180","name":"Tresjuncos","asciiname":"Tresjuncos","alternatenames":["Tresjuncos"],"latitude":"39.70087","longitude":"-2.75502","feature_class":"P","feature_code":"PPLA3","country_code":"ES","cc2":"","admin1_code":"54","admin2_code":"CU","admin3_code":"16216","admin4_code":"","population":"438","elevation":"","dem":"814","timezone":"Europe/Madrid","modification_date":"2012-03-04"},{"geonameid":"2510223","name":"Totanés","asciiname":"Totanes","alternatenames":["Totanes","Totanés"],"latitude":"39.71057","longitude":"-4.22655","feature_class":"P","feature_code":"PPLA3","country_code":"ES","cc2":"","admin1_code":"54","admin2_code":"TO","admin3_code":"45174","admin4_code":"","population":"398","elevation":"","dem":"726","timezone":"Europe/Madrid","modification_date":"2012-03-04"},{"geonameid":"2510240","name":"Torrubia del Castillo","asciiname":"Torrubia del Castillo","alternatenames":["Torrubia del Castillo"],"latitude":"39.65852","longitude":"-2.31171","feature_class":"P","feature_code":"PPLA3","country_code":"ES","cc2":"","admin1_code":"54","admin2_code":"CU","admin3_code":"16213","admin4_code":"","population":"39","elevation":"","dem":"849","timezone":"Europe/Madrid","modification_date":"2012-03-04"},{"geonameid":"2510241","name":"Torrubia del Campo","asciiname":"Torrubia del Campo","alternatenames":["Torrubia del Campo"],"latitude":"39.89749","longitude":"-2.96133","feature_class":"P","feature_code":"PPLA3","country_code":"ES","cc2":"","admin1_code":"54","admin2_code":"CU","admin3_code":"16212","admin4_code":"","population":"338","elevation":"","dem":"805","timezone":"Europe/Madrid","modification_date":"2012-03-04"},{"geonameid":"2510249","name":"Torrijos","asciiname":"Torrijos","alternatenames":["Torrijas","Torrijos"],"latitude":"39.98195","longitude":"-4.28349","feature_class":"P","feature_code":"PPLA3","country_code":"ES","cc2":"","admin1_code":"54","admin2_code":"TO","admin3_code":"45173","admin4_code":"","population":"13117","elevation":"","dem":"531","timezone":"Europe/Madrid","modification_date":"2012-03-04"},{"geonameid":"2510251","name":"Torrico","asciiname":"Torrico","alternatenames":["Torrico"],"latitude":"39.82918","longitude":"-5.22581","feature_class":"P","feature_code":"PPLA3","country_code":"ES","cc2":"","admin1_code":"54","admin2_code":"TO","admin3_code":"45172","admin4_code":"","population":"843","elevation":"","dem":"441","timezone":"Europe/Madrid","modification_date":"2012-03-04"},{"geonameid":"2510274","name":"Torrenueva","asciiname":"Torrenueva","alternatenames":[""],"latitude":"38.6396","longitude":"-3.36259","feature_class":"P","feature_code":"PPLA3","country_code":"ES","cc2":"","admin1_code":"54","admin2_code":"CR","admin3_code":"13085","admin4_code":"","population":"3075","elevation":"","dem":"734","timezone":"Europe/Madrid","modification_date":"2012-03-04"},{"geonameid":"2510294","name":"Torrejoncillo del Rey","asciiname":"Torrejoncillo del Rey","alternatenames":["Torrejoncillo del Rey"],"latitude":"40.0084","longitude":"-2.57107","feature_class":"P","feature_code":"PPLA3","country_code":"ES","cc2":"","admin1_code":"54","admin2_code":"CU","admin3_code":"16211","admin4_code":"","population":"646","elevation":"","dem":"936","timezone":"Europe/Madrid","modification_date":"2012-03-04"},{"geonameid":"2510314","name":"Torre de Juan Abad","asciiname":"Torre de Juan Abad","alternatenames":["Torre de Juan Abad"],"latitude":"38.58417","longitude":"-3.05994","feature_class":"P","feature_code":"PPLA3","country_code":"ES","cc2":"","admin1_code":"54","admin2_code":"CR","admin3_code":"13084","admin4_code":"","population":"1332","elevation":"","dem":"829","timezone":"Europe/Madrid","modification_date":"2012-03-04"},{"geonameid":"2510320","name":"Torrecilla de la Jara","asciiname":"Torrecilla de la Jara","alternatenames":["Torrecilla","Torrecilla de la Jara"],"latitude":"39.70425","longitude":"-4.77186","feature_class":"P","feature_code":"PPLA3","country_code":"ES","cc2":"","admin1_code":"54","admin2_code":"TO","admin3_code":"45170","admin4_code":"","population":"317","elevation":"","dem":"642","timezone":"Europe/Madrid","modification_date":"2012-03-04"},{"geonameid":"2510347","name":"Torralba de Oropesa","asciiname":"Torralba de Oropesa","alternatenames":["Torralba de Oropesa"],"latitude":"39.93384","longitude":"-5.15404","feature_class":"P","feature_code":"PPLA3","country_code":"ES","cc2":"","admin1_code":"54","admin2_code":"TO","admin3_code":"45169","admin4_code":"","population":"267","elevation":"","dem":"371","timezone":"Europe/Madrid","modification_date":"2012-03-04"},{"geonameid":"2510349","name":"Torralba de Calatrava","asciiname":"Torralba de Calatrava","alternatenames":["Torralba","Torralba de Calatrava"],"latitude":"39.01785","longitude":"-3.75105","feature_class":"P","feature_code":"PPL","country_code":"ES","cc2":"","admin1_code":"54","admin2_code":"CR","admin3_code":"13039","admin4_code":"","population":"2993","elevation":"","dem":"622","timezone":"Europe/Madrid","modification_date":"2012-01-19"},{"geonameid":"2510392","name":"Tomelloso","asciiname":"Tomelloso","alternatenames":["Tomel'joso","Tomel'oso","Tomeloso","tomejoso","tuo mei e suo","twmylwsw  sywdad ryal","Томельйосо","Томельосо","Томељосо","توميلوسو، سيوداد ريال","トメジョーソ","托梅略索"],"latitude":"39.15759","longitude":"-3.02156","feature_class":"P","feature_code":"PPL","country_code":"ES","cc2":"","admin1_code":"54","admin2_code":"CR","admin3_code":"13019","admin4_code":"","population":"38095","elevation":"","dem":"669","timezone":"Europe/Madrid","modification_date":"2015-05-30"},{"geonameid":"2510409","name":"Toledo","asciiname":"Toledo","alternatenames":["Gorad Taleda","Toledas","Tolede","Toledo","Toledo i Spania","Toledu","Toletum","Toleu","Tolède","XTJ","tlytlt","to le do","toledo","tolledo","toredo","tuo lai duo","twldw","twlydw","Τολέδο","Горад Таледа","Толедо","Տոլեդո","טאלעדא","טולדו","تولدو","توليدو","طليطلة","طلیطلہ","टोलेडो","तोलेदो","ਤੋਲੇਦੋ","โตเลโด","ტოლედო","ቶሌዶ","トレド","托萊多","톨레도"],"latitude":"39.8581","longitude":"-4.02263","feature_class":"P","feature_code":"PPLA","country_code":"ES","cc2":"","admin1_code":"54","admin2_code":"TO","admin3_code":"45168","admin4_code":"","population":"82291","elevation":"","dem":"533","timezone":"Europe/Madrid","modification_date":"2011-07-26"},{"geonameid":"2510426","name":"Tobarra","asciiname":"Tobarra","alternatenames":["Tobarra"],"latitude":"38.59213","longitude":"-1.69191","feature_class":"P","feature_code":"PPLA3","country_code":"ES","cc2":"","admin1_code":"54","admin2_code":"AB","admin3_code":"02074","admin4_code":"","population":"7884","elevation":"","dem":"650","timezone":"Europe/Madrid","modification_date":"2012-03-04"},{"geonameid":"2510497","name":"Terrinches","asciiname":"Terrinches","alternatenames":["Terrinches"],"latitude":"38.61057","longitude":"-2.84215","feature_class":"P","feature_code":"PPLA3","country_code":"ES","cc2":"","admin1_code":"54","admin2_code":"CR","admin3_code":"13081","admin4_code":"","population":"1031","elevation":"","dem":"949","timezone":"Europe/Madrid","modification_date":"2012-03-04"},{"geonameid":"2510540","name":"Tembleque","asciiname":"Tembleque","alternatenames":["Tembleque"],"latitude":"39.69541","longitude":"-3.50429","feature_class":"P","feature_code":"PPLA3","country_code":"ES","cc2":"","admin1_code":"54","admin2_code":"TO","admin3_code":"45166","admin4_code":"","population":"2202","elevation":"","dem":"640","timezone":"Europe/Madrid","modification_date":"2012-03-04"},{"geonameid":"2510579","name":"Tébar","asciiname":"Tebar","alternatenames":["Tebar","Tébar"],"latitude":"39.5","longitude":"-2.16667","feature_class":"P","feature_code":"PPLA3","country_code":"ES","cc2":"","admin1_code":"54","admin2_code":"CU","admin3_code":"16204","admin4_code":"","population":"406","elevation":"","dem":"881","timezone":"Europe/Madrid","modification_date":"2012-03-04"},{"geonameid":"2510602","name":"Tarazona de la Mancha","asciiname":"Tarazona de la Mancha","alternatenames":["Tarazona","Tarazona de la Mancha"],"latitude":"39.25","longitude":"-1.91667","feature_class":"P","feature_code":"PPLA3","country_code":"ES","cc2":"","admin1_code":"54","admin2_code":"AB","admin3_code":"02073","admin4_code":"","population":"6514","elevation":"","dem":"722","timezone":"Europe/Madrid","modification_date":"2012-03-04"},{"geonameid":"2510687","name":"Talayuelas","asciiname":"Talayuelas","alternatenames":["Talayuelas"],"latitude":"39.85","longitude":"-1.28333","feature_class":"P","feature_code":"PPLA3","country_code":"ES","cc2":"","admin1_code":"54","admin2_code":"CU","admin3_code":"16202","admin4_code":"","population":"0","elevation":"","dem":"990","timezone":"Europe/Madrid","modification_date":"2012-03-04"},{"geonameid":"2510693","name":"Talavera de la Reina","asciiname":"Talavera de la Reina","alternatenames":["Aebura","Caesarobriga","Ebora","Ebura","Elbora","QWT","Talavera de la Reina","Talavera de la Rejna","Talavera de la reina","Talavera del Tajo","Talavera-de-la-Rejna","ta la be ra de la rey na","ta la wei la de la lei na","talavera di la rina","tlbyrt","Талавера де ла Реина","Талавера де ла Рейна","Талавера-де-ла-Рейна","طلبيرة","टालावेरा दी ला रीना","ตาลาเบราเดลาเรย์นา","ታላቬራ ዴ ላ ሬና","タラベラ・デ・ラ・レイナ","塔拉韦拉德拉雷纳"],"latitude":"39.96348","longitude":"-4.83076","feature_class":"P","feature_code":"PPLA3","country_code":"ES","cc2":"","admin1_code":"54","admin2_code":"TO","admin3_code":"45165","admin4_code":"","population":"88856","elevation":"","dem":"380","timezone":"Europe/Madrid","modification_date":"2012-10-21"},{"geonameid":"2510801","name":"Sonseca","asciiname":"Sonseca","alternatenames":["Sonseca con Casalgordo"],"latitude":"39.67747","longitude":"-3.97448","feature_class":"P","feature_code":"PPL","country_code":"ES","cc2":"","admin1_code":"54","admin2_code":"TO","admin3_code":"45124","admin4_code":"","population":"11265","elevation":"","dem":"755","timezone":"Europe/Madrid","modification_date":"2010-05-23"},{"geonameid":"2510852","name":"Socuéllamos","asciiname":"Socuellamos","alternatenames":["Socuellamos","Socuéllamos","Sokuehl'jamos","Sokuel'jamos","suo ku ai li ya mo si","swkwylamws  sywdad ryal","Сокуельямос","Сокуэльямос","سوكويلاموس، سيوداد ريال","索库埃利亚莫斯"],"latitude":"39.28581","longitude":"-2.79205","feature_class":"P","feature_code":"PPLA3","country_code":"ES","cc2":"","admin1_code":"54","admin2_code":"CR","admin3_code":"13078","admin4_code":"","population":"13163","elevation":"","dem":"682","timezone":"Europe/Madrid","modification_date":"2012-03-04"},{"geonameid":"2510853","name":"Socovos","asciiname":"Socovos","alternatenames":[""],"latitude":"38.33232","longitude":"-1.98485","feature_class":"P","feature_code":"PPLA3","country_code":"ES","cc2":"","admin1_code":"54","admin2_code":"AB","admin3_code":"02072","admin4_code":"","population":"1909","elevation":"","dem":"741","timezone":"Europe/Madrid","modification_date":"2012-03-04"},{"geonameid":"2510861","name":"Sisante","asciiname":"Sisante","alternatenames":["Sisante"],"latitude":"39.40849","longitude":"-2.20173","feature_class":"P","feature_code":"PPLA3","country_code":"ES","cc2":"","admin1_code":"54","admin2_code":"CU","admin3_code":"16198","admin4_code":"","population":"1775","elevation":"","dem":"743","timezone":"Europe/Madrid","modification_date":"2012-03-04"},{"geonameid":"2510906","name":"Sevilleja de la Jara","asciiname":"Sevilleja de la Jara","alternatenames":["Sevilleja de la Jara"],"latitude":"39.57488","longitude":"-4.96387","feature_class":"P","feature_code":"PPLA3","country_code":"ES","cc2":"","admin1_code":"54","admin2_code":"TO","admin3_code":"45162","admin4_code":"","population":"953","elevation":"","dem":"664","timezone":"Europe/Madrid","modification_date":"2012-03-04"},{"geonameid":"2511123","name":"Santa María del Campo Rus","asciiname":"Santa Maria del Campo Rus","alternatenames":["Santa Maria del Campo","Santa Maria del Campo Rus","Santa María del Campo Rus"],"latitude":"39.55942","longitude":"-2.42306","feature_class":"P","feature_code":"PPLA3","country_code":"ES","cc2":"","admin1_code":"54","admin2_code":"CU","admin3_code":"16195","admin4_code":"","population":"771","elevation":"","dem":"794","timezone":"Europe/Madrid","modification_date":"2012-03-04"},{"geonameid":"2511175","name":"Santa Cruz de Mudela","asciiname":"Santa Cruz de Mudela","alternatenames":["Santa Cruz de Mudela"],"latitude":"38.64241","longitude":"-3.4665","feature_class":"P","feature_code":"PPLA3","country_code":"ES","cc2":"","admin1_code":"54","admin2_code":"CR","admin3_code":"13077","admin4_code":"","population":"4825","elevation":"","dem":"723","timezone":"Europe/Madrid","modification_date":"2012-03-04"},{"geonameid":"2511176","name":"Santa Cruz de Moya","asciiname":"Santa Cruz de Moya","alternatenames":["Santa Cruz de Moya"],"latitude":"39.95","longitude":"-1.26667","feature_class":"P","feature_code":"PPLA3","country_code":"ES","cc2":"","admin1_code":"54","admin2_code":"CU","admin3_code":"16194","admin4_code":"","population":"384","elevation":"","dem":"901","timezone":"Europe/Madrid","modification_date":"2012-03-04"},{"geonameid":"2511177","name":"Santa Cruz de los Cáñamos","asciiname":"Santa Cruz de los Canamos","alternatenames":["Santa Cruz de los Canamos","Santa Cruz de los Cáñamos"],"latitude":"38.63759","longitude":"-2.86618","feature_class":"P","feature_code":"PPLA3","country_code":"ES","cc2":"","admin1_code":"54","admin2_code":"CR","admin3_code":"13076","admin4_code":"","population":"637","elevation":"","dem":"991","timezone":"Europe/Madrid","modification_date":"2012-03-04"},{"geonameid":"2511178","name":"Santa Cruz de la Zarza","asciiname":"Santa Cruz de la Zarza","alternatenames":["Santa Cruz de la Zaraza","Santa Cruz de la Zarza","Santa-Krus-de-la-Sarsa","santa krwz dy la zarza","sheng ke lu si de la sa er sa","Санта-Крус-де-ла-Сарса","سانتا كروز دي لا زارزا","圣克鲁斯德拉萨尔萨"],"latitude":"39.98104","longitude":"-3.18787","feature_class":"P","feature_code":"PPLA3","country_code":"ES","cc2":"","admin1_code":"54","admin2_code":"TO","admin3_code":"45156","admin4_code":"","population":"4755","elevation":"","dem":"787","timezone":"Europe/Madrid","modification_date":"2012-03-04"},{"geonameid":"2511210","name":"Santa Ana de Pusa","asciiname":"Santa Ana de Pusa","alternatenames":["Santa Ana de Pusa"],"latitude":"39.76238","longitude":"-4.70904","feature_class":"P","feature_code":"PPLA3","country_code":"ES","cc2":"","admin1_code":"54","admin2_code":"TO","admin3_code":"45155","admin4_code":"","population":"417","elevation":"","dem":"600","timezone":"Europe/Madrid","modification_date":"2012-03-04"},{"geonameid":"2511265","name":"San Pedro","asciiname":"San Pedro","alternatenames":["San Pedro"],"latitude":"38.82493","longitude":"-2.18276","feature_class":"P","feature_code":"PPL","country_code":"ES","cc2":"","admin1_code":"54","admin2_code":"AB","admin3_code":"02022","admin4_code":"","population":"1277","elevation":"","dem":"838","timezone":"Europe/Madrid","modification_date":"2012-01-19"},{"geonameid":"2511289","name":"San Martín de Pusa","asciiname":"San Martin de Pusa","alternatenames":["San Martin de Pusa","San Martín de Pusa"],"latitude":"39.78404","longitude":"-4.63252","feature_class":"P","feature_code":"PPLA3","country_code":"ES","cc2":"","admin1_code":"54","admin2_code":"TO","admin3_code":"45152","admin4_code":"","population":"790","elevation":"","dem":"503","timezone":"Europe/Madrid","modification_date":"2012-03-04"},{"geonameid":"2511290","name":"San Martín de Montalbán","asciiname":"San Martin de Montalban","alternatenames":["San Martin de Montalban","San Martín de Montalbán"],"latitude":"39.70186","longitude":"-4.38796","feature_class":"P","feature_code":"PPLA3","country_code":"ES","cc2":"","admin1_code":"54","admin2_code":"TO","admin3_code":"45151","admin4_code":"","population":"745","elevation":"","dem":"656","timezone":"Europe/Madrid","modification_date":"2012-03-04"},{"geonameid":"2511292","name":"San Martín de Boniches","asciiname":"San Martin de Boniches","alternatenames":["San Martin de Boniches","San Martín de Boniches"],"latitude":"39.9","longitude":"-1.56667","feature_class":"P","feature_code":"PPLA3","country_code":"ES","cc2":"","admin1_code":"54","admin2_code":"CU","admin3_code":"16192","admin4_code":"","population":"89","elevation":"","dem":"1300","timezone":"Europe/Madrid","modification_date":"2012-03-04"},{"geonameid":"2511308","name":"San Lorenzo de la Parrilla","asciiname":"San Lorenzo de la Parrilla","alternatenames":["San Lorenzo de la Parilla","San Lorenzo de la Parrilla"],"latitude":"39.85129","longitude":"-2.36079","feature_class":"P","feature_code":"PPLA3","country_code":"ES","cc2":"","admin1_code":"54","admin2_code":"CU","admin3_code":"16191","admin4_code":"","population":"1313","elevation":"","dem":"950","timezone":"Europe/Madrid","modification_date":"2012-03-04"},{"geonameid":"2511310","name":"San Lorenzo de Calatrava","asciiname":"San Lorenzo de Calatrava","alternatenames":["San Lorenzo","San Lorenzo de Calatrava"],"latitude":"38.47681","longitude":"-3.82605","feature_class":"P","feature_code":"PPLA3","country_code":"ES","cc2":"","admin1_code":"54","admin2_code":"CR","admin3_code":"13075","admin4_code":"","population":"277","elevation":"","dem":"765","timezone":"Europe/Madrid","modification_date":"2012-03-04"},{"geonameid":"2511411","name":"San Clemente","asciiname":"San Clemente","alternatenames":["San Clemente"],"latitude":"39.4041","longitude":"-2.42819","feature_class":"P","feature_code":"PPLA3","country_code":"ES","cc2":"","admin1_code":"54","admin2_code":"CU","admin3_code":"16190","admin4_code":"","population":"6765","elevation":"","dem":"728","timezone":"Europe/Madrid","modification_date":"2012-03-04"},{"geonameid":"2511423","name":"San Carlos del Valle","asciiname":"San Carlos del Valle","alternatenames":["San Carlos del Valle"],"latitude":"38.84399","longitude":"-3.24148","feature_class":"P","feature_code":"PPLA3","country_code":"ES","cc2":"","admin1_code":"54","admin2_code":"CR","admin3_code":"13074","admin4_code":"","population":"1215","elevation":"","dem":"758","timezone":"Europe/Madrid","modification_date":"2012-03-04"},{"geonameid":"2511442","name":"San Bartolomé de las Abiertas","asciiname":"San Bartolome de las Abiertas","alternatenames":["San Bartolome de las Abiertas","San Bartolomé de las Abiertas"],"latitude":"39.82972","longitude":"-4.71901","feature_class":"P","feature_code":"PPLA3","country_code":"ES","cc2":"","admin1_code":"54","admin2_code":"TO","admin3_code":"45150","admin4_code":"","population":"458","elevation":"","dem":"557","timezone":"Europe/Madrid","modification_date":"2012-03-04"},{"geonameid":"2511507","name":"Salobre","asciiname":"Salobre","alternatenames":["Salobre"],"latitude":"38.59297","longitude":"-2.55038","feature_class":"P","feature_code":"PPLA3","country_code":"ES","cc2":"","admin1_code":"54","admin2_code":"AB","admin3_code":"02070","admin4_code":"","population":"621","elevation":"","dem":"921","timezone":"Europe/Madrid","modification_date":"2012-03-04"},{"geonameid":"2511623","name":"Saelices","asciiname":"Saelices","alternatenames":["Saelices"],"latitude":"39.92061","longitude":"-2.80502","feature_class":"P","feature_code":"PPLA3","country_code":"ES","cc2":"","admin1_code":"54","admin2_code":"CU","admin3_code":"16186","admin4_code":"","population":"655","elevation":"","dem":"929","timezone":"Europe/Madrid","modification_date":"2012-03-04"},{"geonameid":"2511626","name":"Saceruela","asciiname":"Saceruela","alternatenames":["Saceruela"],"latitude":"38.94382","longitude":"-4.60768","feature_class":"P","feature_code":"PPLA3","country_code":"ES","cc2":"","admin1_code":"54","admin2_code":"CR","admin3_code":"13073","admin4_code":"","population":"686","elevation":"","dem":"591","timezone":"Europe/Madrid","modification_date":"2012-03-04"},{"geonameid":"2511661","name":"Ruidera","asciiname":"Ruidera","alternatenames":["Ruidera"],"latitude":"38.97775","longitude":"-2.88321","feature_class":"P","feature_code":"PPLA3","country_code":"ES","cc2":"","admin1_code":"54","admin2_code":"CR","admin3_code":"13902","admin4_code":"","population":"598","elevation":"","dem":"787","timezone":"Europe/Madrid","modification_date":"2012-03-04"},{"geonameid":"2511681","name":"Rozalén del Monte","asciiname":"Rozalen del Monte","alternatenames":["Rozalen del Monte","Rozalén del Monte"],"latitude":"39.99083","longitude":"-2.80525","feature_class":"P","feature_code":"PPLA3","country_code":"ES","cc2":"","admin1_code":"54","admin2_code":"CU","admin3_code":"16181","admin4_code":"","population":"94","elevation":"","dem":"877","timezone":"Europe/Madrid","modification_date":"2012-03-04"},{"geonameid":"2511779","name":"Robledo","asciiname":"Robledo","alternatenames":["Robledo"],"latitude":"38.75807","longitude":"-2.45042","feature_class":"P","feature_code":"PPLA3","country_code":"ES","cc2":"","admin1_code":"54","admin2_code":"AB","admin3_code":"02068","admin4_code":"","population":"420","elevation":"","dem":"1030","timezone":"Europe/Madrid","modification_date":"2012-03-04"},{"geonameid":"2511818","name":"Riópar","asciiname":"Riopar","alternatenames":["Riopar","Riópar"],"latitude":"38.5","longitude":"-2.45","feature_class":"P","feature_code":"PPLA3","country_code":"ES","cc2":"","admin1_code":"54","admin2_code":"AB","admin3_code":"02067","admin4_code":"","population":"1504","elevation":"","dem":"984","timezone":"Europe/Madrid","modification_date":"2012-03-04"},{"geonameid":"2511867","name":"Rielves","asciiname":"Rielves","alternatenames":[""],"latitude":"39.96206","longitude":"-4.193","feature_class":"P","feature_code":"PPLA3","country_code":"ES","cc2":"","admin1_code":"54","admin2_code":"TO","admin3_code":"45147","admin4_code":"","population":"586","elevation":"","dem":"498","timezone":"Europe/Madrid","modification_date":"2012-03-04"},{"geonameid":"2511905","name":"Retuerta de Bullaque","asciiname":"Retuerta de Bullaque","alternatenames":["Retuerta","Retuerta de Bullaque","Returta"],"latitude":"39.46363","longitude":"-4.41363","feature_class":"P","feature_code":"PPL","country_code":"ES","cc2":"","admin1_code":"54","admin2_code":"CR","admin3_code":"13072","admin4_code":"","population":"1049","elevation":"","dem":"744","timezone":"Europe/Madrid","modification_date":"2012-01-19"},{"geonameid":"2511947","name":"Reíllo","asciiname":"Reillo","alternatenames":["Reillo","Reíllo"],"latitude":"39.9","longitude":"-1.86667","feature_class":"P","feature_code":"PPLA3","country_code":"ES","cc2":"","admin1_code":"54","admin2_code":"CU","admin3_code":"16177","admin4_code":"","population":"118","elevation":"","dem":"974","timezone":"Europe/Madrid","modification_date":"2012-03-04"},{"geonameid":"2512078","name":"Rada de Haro","asciiname":"Rada de Haro","alternatenames":["Rada de Haro"],"latitude":"39.57002","longitude":"-2.62086","feature_class":"P","feature_code":"PPLA3","country_code":"ES","cc2":"","admin1_code":"54","admin2_code":"CU","admin3_code":"16176","admin4_code":"","population":"65","elevation":"","dem":"825","timezone":"Europe/Madrid","modification_date":"2012-03-04"},{"geonameid":"2512095","name":"Quintanar del Rey","asciiname":"Quintanar del Rey","alternatenames":[""],"latitude":"39.33333","longitude":"-1.93333","feature_class":"P","feature_code":"PPLA3","country_code":"ES","cc2":"","admin1_code":"54","admin2_code":"CU","admin3_code":"16175","admin4_code":"","population":"7539","elevation":"","dem":"723","timezone":"Europe/Madrid","modification_date":"2012-03-04"},{"geonameid":"2512096","name":"Quintanar de la Orden","asciiname":"Quintanar de la Orden","alternatenames":["Quintanar de la Orden","Quintanar la Orden"],"latitude":"39.59369","longitude":"-3.04165","feature_class":"P","feature_code":"PPLA3","country_code":"ES","cc2":"","admin1_code":"54","admin2_code":"TO","admin3_code":"45142","admin4_code":"","population":"12736","elevation":"","dem":"692","timezone":"Europe/Madrid","modification_date":"2012-03-04"},{"geonameid":"2512109","name":"Quero","asciiname":"Quero","alternatenames":["Quero"],"latitude":"39.51111","longitude":"-3.24741","feature_class":"P","feature_code":"PPLA3","country_code":"ES","cc2":"","admin1_code":"54","admin2_code":"TO","admin3_code":"45141","admin4_code":"","population":"1240","elevation":"","dem":"654","timezone":"Europe/Madrid","modification_date":"2012-03-04"},{"geonameid":"2512156","name":"Pulgar","asciiname":"Pulgar","alternatenames":["Pulgar"],"latitude":"39.69383","longitude":"-4.15233","feature_class":"P","feature_code":"PPL","country_code":"ES","cc2":"","admin1_code":"54","admin2_code":"TO","admin3_code":"45140","admin4_code":"","population":"1393","elevation":"","dem":"723","timezone":"Europe/Madrid","modification_date":"2014-01-30"},{"geonameid":"2512177","name":"Puertollano","asciiname":"Puertollano","alternatenames":["Puehrtol'jano","Puertojano","Puertolano","Puertollano","UER","bwrtwlanw  sywdad ryal","pu ai er tuo li ya nuo","puerutoryano","Пуертояно","Пуертољано","Пуэртольяно","بورتولانو، سيوداد ريال","プエルトリャノ","普埃尔托利亚诺"],"latitude":"38.68712","longitude":"-4.10734","feature_class":"P","feature_code":"PPLA3","country_code":"ES","cc2":"","admin1_code":"54","admin2_code":"CR","admin3_code":"13071","admin4_code":"","population":"51842","elevation":"","dem":"701","timezone":"Europe/Madrid","modification_date":"2012-03-04"},{"geonameid":"2512178","name":"Puerto Lápice","asciiname":"Puerto Lapice","alternatenames":["Puerto Lapice","Puerto Lápice"],"latitude":"39.3236","longitude":"-3.48148","feature_class":"P","feature_code":"PPL","country_code":"ES","cc2":"","admin1_code":"54","admin2_code":"TO","admin3_code":"45087","admin4_code":"","population":"1001","elevation":"","dem":"678","timezone":"Europe/Madrid","modification_date":"2012-01-19"},{"geonameid":"2512182","name":"Puerto de San Vicente","asciiname":"Puerto de San Vicente","alternatenames":["Puerto de San Vicente"],"latitude":"39.52283","longitude":"-5.11407","feature_class":"P","feature_code":"PPLA3","country_code":"ES","cc2":"","admin1_code":"54","admin2_code":"TO","admin3_code":"45139","admin4_code":"","population":"288","elevation":"","dem":"750","timezone":"Europe/Madrid","modification_date":"2012-03-04"},{"geonameid":"2512257","name":"Puebla del Salvador","asciiname":"Puebla del Salvador","alternatenames":["Puebla del Salvador"],"latitude":"39.56667","longitude":"-1.66667","feature_class":"P","feature_code":"PPLA3","country_code":"ES","cc2":"","admin1_code":"54","admin2_code":"CU","admin3_code":"16174","admin4_code":"","population":"273","elevation":"","dem":"874","timezone":"Europe/Madrid","modification_date":"2012-03-04"},{"geonameid":"2512259","name":"Puebla del Príncipe","asciiname":"Puebla del Principe","alternatenames":["Puebla del Principe","Puebla del Príncipe","Pueblo del Principe"],"latitude":"38.56766","longitude":"-2.92605","feature_class":"P","feature_code":"PPLA3","country_code":"ES","cc2":"","admin1_code":"54","admin2_code":"CR","admin3_code":"13069","admin4_code":"","population":"953","elevation":"","dem":"940","timezone":"Europe/Madrid","modification_date":"2012-03-04"},{"geonameid":"2512266","name":"Puebla de Don Rodrigo","asciiname":"Puebla de Don Rodrigo","alternatenames":["Puebla de Don Rodrigo"],"latitude":"39.08564","longitude":"-4.61966","feature_class":"P","feature_code":"PPLA3","country_code":"ES","cc2":"","admin1_code":"54","admin2_code":"CR","admin3_code":"13068","admin4_code":"","population":"1242","elevation":"","dem":"501","timezone":"Europe/Madrid","modification_date":"2012-03-04"},{"geonameid":"2512268","name":"Puebla de Almenara","asciiname":"Puebla de Almenara","alternatenames":["Puebla-de-Al'menara","Puehbla-de-Al'menara","bwybla dy almnart","pu ai fu la de ya er mei na la","Пуебла-де-Альменара","Пуэбла-де-Альменара","بويبلا دي المنارة","普埃夫拉德亚尔梅纳拉"],"latitude":"39.7844","longitude":"-2.81435","feature_class":"P","feature_code":"PPLA3","country_code":"ES","cc2":"","admin1_code":"54","admin2_code":"CU","admin3_code":"16172","admin4_code":"","population":"473","elevation":"","dem":"857","timezone":"Europe/Madrid","modification_date":"2012-03-04"},{"geonameid":"2512305","name":"Pozuelo de Calatrava","asciiname":"Pozuelo de Calatrava","alternatenames":["Pozuelo de Calatrava"],"latitude":"38.58333","longitude":"-3.83333","feature_class":"P","feature_code":"PPL","country_code":"ES","cc2":"","admin1_code":"54","admin2_code":"CR","admin3_code":"13055","admin4_code":"","population":"2762","elevation":"","dem":"648","timezone":"Europe/Madrid","modification_date":"2012-01-19"},{"geonameid":"2512308","name":"Pozuelo","asciiname":"Pozuelo","alternatenames":["Pozuelo"],"latitude":"38.80989","longitude":"-2.10101","feature_class":"P","feature_code":"PPLA3","country_code":"ES","cc2":"","admin1_code":"54","admin2_code":"AB","admin3_code":"02065","admin4_code":"","population":"673","elevation":"","dem":"848","timezone":"Europe/Madrid","modification_date":"2012-03-04"},{"geonameid":"2512313","name":"Pozorrubio","asciiname":"Pozorrubio","alternatenames":["Pozorrubio"],"latitude":"39.81645","longitude":"-2.94936","feature_class":"P","feature_code":"PPLA3","country_code":"ES","cc2":"","admin1_code":"54","admin2_code":"CU","admin3_code":"16167","admin4_code":"","population":"442","elevation":"","dem":"788","timezone":"Europe/Madrid","modification_date":"2012-03-04"},{"geonameid":"2512319","name":"Pozohondo","asciiname":"Pozohondo","alternatenames":["Pozohondo"],"latitude":"38.72095","longitude":"-1.91192","feature_class":"P","feature_code":"PPLA3","country_code":"ES","cc2":"","admin1_code":"54","admin2_code":"AB","admin3_code":"02063","admin4_code":"","population":"1829","elevation":"","dem":"871","timezone":"Europe/Madrid","modification_date":"2012-03-04"},{"geonameid":"2512337","name":"Pozo-Cañada","asciiname":"Pozo-Canada","alternatenames":["Pozo-Canada","Pozo-Cañada"],"latitude":"38.80333","longitude":"-1.73532","feature_class":"P","feature_code":"PPL","country_code":"ES","cc2":"","admin1_code":"54","admin2_code":"AB","admin3_code":"02029","admin4_code":"","population":"2681","elevation":"","dem":"811","timezone":"Europe/Madrid","modification_date":"2010-11-05"},{"geonameid":"2512341","name":"Pozoamargo","asciiname":"Pozoamargo","alternatenames":["Pozoamargo"],"latitude":"39.36558","longitude":"-2.19617","feature_class":"P","feature_code":"PPLA3","country_code":"ES","cc2":"","admin1_code":"54","admin2_code":"CU","admin3_code":"16166","admin4_code":"","population":"351","elevation":"","dem":"751","timezone":"Europe/Madrid","modification_date":"2012-03-04"},{"geonameid":"2512358","name":"Povedilla","asciiname":"Povedilla","alternatenames":["Povedilla"],"latitude":"38.70022","longitude":"-2.60212","feature_class":"P","feature_code":"PPLA3","country_code":"ES","cc2":"","admin1_code":"54","admin2_code":"AB","admin3_code":"02062","admin4_code":"","population":"637","elevation":"","dem":"867","timezone":"Europe/Madrid","modification_date":"2012-03-04"},{"geonameid":"2512369","name":"Porzuna","asciiname":"Porzuna","alternatenames":["Porzuna"],"latitude":"39.14618","longitude":"-4.15407","feature_class":"P","feature_code":"PPLA3","country_code":"ES","cc2":"","admin1_code":"54","admin2_code":"CR","admin3_code":"13065","admin4_code":"","population":"3978","elevation":"","dem":"649","timezone":"Europe/Madrid","modification_date":"2012-03-04"},{"geonameid":"2512437","name":"Polán","asciiname":"Polan","alternatenames":["Polan","Polán"],"latitude":"39.78765","longitude":"-4.16792","feature_class":"P","feature_code":"PPLA3","country_code":"ES","cc2":"","admin1_code":"54","admin2_code":"TO","admin3_code":"45133","admin4_code":"","population":"3527","elevation":"","dem":"650","timezone":"Europe/Madrid","modification_date":"2012-03-04"},{"geonameid":"2512451","name":"Poblete","asciiname":"Poblete","alternatenames":["Poblete"],"latitude":"38.9355","longitude":"-3.98137","feature_class":"P","feature_code":"PPLA3","country_code":"ES","cc2":"","admin1_code":"54","admin2_code":"CR","admin3_code":"13064","admin4_code":"","population":"964","elevation":"","dem":"625","timezone":"Europe/Madrid","modification_date":"2012-03-04"},{"geonameid":"2512496","name":"Piqueras del Castillo","asciiname":"Piqueras del Castillo","alternatenames":["Piqueras del Castillo"],"latitude":"39.71667","longitude":"-2.06667","feature_class":"P","feature_code":"PPLA3","country_code":"ES","cc2":"","admin1_code":"54","admin2_code":"CU","admin3_code":"16161","admin4_code":"","population":"81","elevation":"","dem":"949","timezone":"Europe/Madrid","modification_date":"2012-03-04"},{"geonameid":"2512548","name":"Pinarejo","asciiname":"Pinarejo","alternatenames":["Pinarejo"],"latitude":"39.61639","longitude":"-2.42592","feature_class":"P","feature_code":"PPLA3","country_code":"ES","cc2":"","admin1_code":"54","admin2_code":"CU","admin3_code":"16159","admin4_code":"","population":"352","elevation":"","dem":"871","timezone":"Europe/Madrid","modification_date":"2012-03-04"},{"geonameid":"2512609","name":"Piedrabuena","asciiname":"Piedrabuena","alternatenames":["Piedrabuena"],"latitude":"39.03536","longitude":"-4.17512","feature_class":"P","feature_code":"PPLA3","country_code":"ES","cc2":"","admin1_code":"54","admin2_code":"CR","admin3_code":"13063","admin4_code":"","population":"4863","elevation":"","dem":"594","timezone":"Europe/Madrid","modification_date":"2012-03-04"},{"geonameid":"2512615","name":"Picón","asciiname":"Picon","alternatenames":["Picon","Picón"],"latitude":"39.05074","longitude":"-4.06084","feature_class":"P","feature_code":"PPLA3","country_code":"ES","cc2":"","admin1_code":"54","admin2_code":"CR","admin3_code":"13062","admin4_code":"","population":"660","elevation":"","dem":"602","timezone":"Europe/Madrid","modification_date":"2012-03-04"},{"geonameid":"2512634","name":"Pétrola","asciiname":"Petrola","alternatenames":["Petrola","Pétrola"],"latitude":"38.82628","longitude":"-1.55662","feature_class":"P","feature_code":"PPLA3","country_code":"ES","cc2":"","admin1_code":"54","admin2_code":"AB","admin3_code":"02061","admin4_code":"","population":"874","elevation":"","dem":"870","timezone":"Europe/Madrid","modification_date":"2012-03-04"},{"geonameid":"2512715","name":"Peñas de San Pedro","asciiname":"Penas de San Pedro","alternatenames":["Penas de San Pedro","Peñas de San Pedro"],"latitude":"38.7288","longitude":"-2.005","feature_class":"P","feature_code":"PPLA3","country_code":"ES","cc2":"","admin1_code":"54","admin2_code":"AB","admin3_code":"02060","admin4_code":"","population":"1259","elevation":"","dem":"1028","timezone":"Europe/Madrid","modification_date":"2012-03-04"},{"geonameid":"2512794","name":"Pedro Muñoz","asciiname":"Pedro Munoz","alternatenames":["Pedro Munoz","Pedro Muñoz"],"latitude":"39.40285","longitude":"-2.94664","feature_class":"P","feature_code":"PPLA3","country_code":"ES","cc2":"","admin1_code":"54","admin2_code":"CR","admin3_code":"13061","admin4_code":"","population":"7789","elevation":"","dem":"666","timezone":"Europe/Madrid","modification_date":"2012-03-04"},{"geonameid":"2512859","name":"Paterna del Madera","asciiname":"Paterna del Madera","alternatenames":["Paterna del Madera"],"latitude":"38.59751","longitude":"-2.34421","feature_class":"P","feature_code":"PPLA3","country_code":"ES","cc2":"","admin1_code":"54","admin2_code":"AB","admin3_code":"02058","admin4_code":"","population":"474","elevation":"","dem":"1125","timezone":"Europe/Madrid","modification_date":"2012-03-04"},{"geonameid":"2512935","name":"Paracuellos","asciiname":"Paracuellos","alternatenames":["Paracuellos"],"latitude":"39.71667","longitude":"-1.78333","feature_class":"P","feature_code":"PPLA3","country_code":"ES","cc2":"","admin1_code":"54","admin2_code":"CU","admin3_code":"16150","admin4_code":"","population":"157","elevation":"","dem":"922","timezone":"Europe/Madrid","modification_date":"2012-03-04"},{"geonameid":"2512965","name":"Palomares del Campo","asciiname":"Palomares del Campo","alternatenames":["Palomares del Campo"],"latitude":"39.94664","longitude":"-2.59776","feature_class":"P","feature_code":"PPLA3","country_code":"ES","cc2":"","admin1_code":"54","admin2_code":"CU","admin3_code":"16148","admin4_code":"","population":"917","elevation":"","dem":"885","timezone":"Europe/Madrid","modification_date":"2012-03-04"},{"geonameid":"2513018","name":"Pajaroncillo","asciiname":"Pajaroncillo","alternatenames":["Pajaroncillo"],"latitude":"39.95","longitude":"-1.73333","feature_class":"P","feature_code":"PPLA3","country_code":"ES","cc2":"","admin1_code":"54","admin2_code":"CU","admin3_code":"16147","admin4_code":"","population":"96","elevation":"","dem":"975","timezone":"Europe/Madrid","modification_date":"2012-03-04"},{"geonameid":"2513019","name":"Pajarón","asciiname":"Pajaron","alternatenames":["Pajaron","Pajarón"],"latitude":"39.95","longitude":"-1.78333","feature_class":"P","feature_code":"PPLA3","country_code":"ES","cc2":"","admin1_code":"54","admin2_code":"CU","admin3_code":"16146","admin4_code":"","population":"113","elevation":"","dem":"1055","timezone":"Europe/Madrid","modification_date":"2012-03-04"},{"geonameid":"2513051","name":"Otero","asciiname":"Otero","alternatenames":["Otero"],"latitude":"40.00096","longitude":"-4.51539","feature_class":"P","feature_code":"PPLA3","country_code":"ES","cc2":"","admin1_code":"54","admin2_code":"TO","admin3_code":"45126","admin4_code":"","population":"227","elevation":"","dem":"465","timezone":"Europe/Madrid","modification_date":"2012-03-04"},{"geonameid":"2513053","name":"Ossa de Montiel","asciiname":"Ossa de Montiel","alternatenames":["Osa de Montiel","Ossa de Montiel"],"latitude":"38.96398","longitude":"-2.74553","feature_class":"P","feature_code":"PPLA3","country_code":"ES","cc2":"","admin1_code":"54","admin2_code":"AB","admin3_code":"02057","admin4_code":"","population":"2821","elevation":"","dem":"914","timezone":"Europe/Madrid","modification_date":"2012-03-04"},{"geonameid":"2513057","name":"Osa de la Vega","asciiname":"Osa de la Vega","alternatenames":["Osa de la Vega"],"latitude":"39.65977","longitude":"-2.75998","feature_class":"P","feature_code":"PPLA3","country_code":"ES","cc2":"","admin1_code":"54","admin2_code":"CU","admin3_code":"16145","admin4_code":"","population":"680","elevation":"","dem":"763","timezone":"Europe/Madrid","modification_date":"2012-03-04"},{"geonameid":"2513069","name":"Oropesa","asciiname":"Oropesa","alternatenames":["Oropesa","Oropesa y Corchueta","Oropesay Corchuela"],"latitude":"39.91726","longitude":"-5.17371","feature_class":"P","feature_code":"PPLA3","country_code":"ES","cc2":"","admin1_code":"54","admin2_code":"TO","admin3_code":"45125","admin4_code":"","population":"2831","elevation":"","dem":"417","timezone":"Europe/Madrid","modification_date":"2012-03-04"},{"geonameid":"2513081","name":"Orgaz","asciiname":"Orgaz","alternatenames":["Orgas","ao er jia si","Оргас","奥尔加斯"],"latitude":"39.64826","longitude":"-3.87577","feature_class":"P","feature_code":"PPLA3","country_code":"ES","cc2":"","admin1_code":"54","admin2_code":"TO","admin3_code":"45124","admin4_code":"","population":"2757","elevation":"","dem":"748","timezone":"Europe/Madrid","modification_date":"2012-03-04"},{"geonameid":"2513103","name":"Ontur","asciiname":"Ontur","alternatenames":["Ontar","Ontur"],"latitude":"38.61509","longitude":"-1.49724","feature_class":"P","feature_code":"PPLA3","country_code":"ES","cc2":"","admin1_code":"54","admin2_code":"AB","admin3_code":"02056","admin4_code":"","population":"2431","elevation":"","dem":"662","timezone":"Europe/Madrid","modification_date":"2012-03-04"},{"geonameid":"2513104","name":"Ontígola","asciiname":"Ontigola","alternatenames":[""],"latitude":"40.00421","longitude":"-3.57227","feature_class":"P","feature_code":"PPLA3","country_code":"ES","cc2":"","admin1_code":"54","admin2_code":"TO","admin3_code":"45123","admin4_code":"","population":"1965","elevation":"","dem":"612","timezone":"Europe/Madrid","modification_date":"2012-03-04"},{"geonameid":"2513126","name":"Olmedilla de Alarcón","asciiname":"Olmedilla de Alarcon","alternatenames":["Olmedilla de Alarcon","Olmedilla de Alarcón"],"latitude":"39.61667","longitude":"-2.1","feature_class":"P","feature_code":"PPLA3","country_code":"ES","cc2":"","admin1_code":"54","admin2_code":"CU","admin3_code":"16142","admin4_code":"","population":"145","elevation":"","dem":"842","timezone":"Europe/Madrid","modification_date":"2012-03-04"},{"geonameid":"2513128","name":"Olmeda del Rey","asciiname":"Olmeda del Rey","alternatenames":["Olmeda del Rey"],"latitude":"39.8","longitude":"-2.08333","feature_class":"P","feature_code":"PPLA3","country_code":"ES","cc2":"","admin1_code":"54","admin2_code":"CU","admin3_code":"16141","admin4_code":"","population":"215","elevation":"","dem":"960","timezone":"Europe/Madrid","modification_date":"2012-03-04"},{"geonameid":"2513137","name":"Olivares de Júcar","asciiname":"Olivares de Jucar","alternatenames":["Olivares","Olivares de Jucar","Olivares de Júcar"],"latitude":"39.76101","longitude":"-2.35589","feature_class":"P","feature_code":"PPLA3","country_code":"ES","cc2":"","admin1_code":"54","admin2_code":"CU","admin3_code":"16139","admin4_code":"","population":"506","elevation":"","dem":"921","timezone":"Europe/Madrid","modification_date":"2012-03-04"},{"geonameid":"2513146","name":"Olías del Rey","asciiname":"Olias del Rey","alternatenames":[""],"latitude":"39.94436","longitude":"-3.98684","feature_class":"P","feature_code":"PPLA3","country_code":"ES","cc2":"","admin1_code":"54","admin2_code":"TO","admin3_code":"45122","admin4_code":"","population":"5336","elevation":"","dem":"593","timezone":"Europe/Madrid","modification_date":"2012-03-04"},{"geonameid":"2513175","name":"Ocaña","asciiname":"Ocana","alternatenames":[""],"latitude":"39.95785","longitude":"-3.4982","feature_class":"P","feature_code":"PPLA3","country_code":"ES","cc2":"","admin1_code":"54","admin2_code":"TO","admin3_code":"45121","admin4_code":"","population":"6913","elevation":"","dem":"741","timezone":"Europe/Madrid","modification_date":"2012-03-04"},{"geonameid":"2513215","name":"Noez","asciiname":"Noez","alternatenames":["Noez"],"latitude":"39.74094","longitude":"-4.18408","feature_class":"P","feature_code":"PPLA3","country_code":"ES","cc2":"","admin1_code":"54","admin2_code":"TO","admin3_code":"45116","admin4_code":"","population":"802","elevation":"","dem":"759","timezone":"Europe/Madrid","modification_date":"2012-03-04"},{"geonameid":"2513216","name":"Noblejas","asciiname":"Noblejas","alternatenames":[""],"latitude":"39.98061","longitude":"-3.44001","feature_class":"P","feature_code":"PPLA3","country_code":"ES","cc2":"","admin1_code":"54","admin2_code":"TO","admin3_code":"45115","admin4_code":"","population":"3322","elevation":"","dem":"744","timezone":"Europe/Madrid","modification_date":"2012-03-04"},{"geonameid":"2513238","name":"Nerpio","asciiname":"Nerpio","alternatenames":["Nerpio"],"latitude":"38.14751","longitude":"-2.30202","feature_class":"P","feature_code":"PPLA3","country_code":"ES","cc2":"","admin1_code":"54","admin2_code":"AB","admin3_code":"02055","admin4_code":"","population":"1655","elevation":"","dem":"1078","timezone":"Europe/Madrid","modification_date":"2012-03-04"},{"geonameid":"2513299","name":"Navas de Jorquera","asciiname":"Navas de Jorquera","alternatenames":["Navas de Jorquera"],"latitude":"39.28333","longitude":"-1.71667","feature_class":"P","feature_code":"PPLA3","country_code":"ES","cc2":"","admin1_code":"54","admin2_code":"AB","admin3_code":"02054","admin4_code":"","population":"517","elevation":"","dem":"709","timezone":"Europe/Madrid","modification_date":"2012-03-04"},{"geonameid":"2513300","name":"Navas de Estena","asciiname":"Navas de Estena","alternatenames":["Navas de Estena"],"latitude":"39.49481","longitude":"-4.52155","feature_class":"P","feature_code":"PPLA3","country_code":"ES","cc2":"","admin1_code":"54","admin2_code":"CR","admin3_code":"13060","admin4_code":"","population":"392","elevation":"","dem":"665","timezone":"Europe/Madrid","modification_date":"2012-03-04"},{"geonameid":"2513320","name":"Navalpino","asciiname":"Navalpino","alternatenames":["Navalpino"],"latitude":"39.22573","longitude":"-4.59133","feature_class":"P","feature_code":"PPLA3","country_code":"ES","cc2":"","admin1_code":"54","admin2_code":"CR","admin3_code":"13059","admin4_code":"","population":"264","elevation":"","dem":"625","timezone":"Europe/Madrid","modification_date":"2012-03-04"},{"geonameid":"2513323","name":"Navalmoralejo","asciiname":"Navalmoralejo","alternatenames":["Navalmoralejo"],"latitude":"39.73929","longitude":"-5.14359","feature_class":"P","feature_code":"PPLA3","country_code":"ES","cc2":"","admin1_code":"54","admin2_code":"TO","admin3_code":"45111","admin4_code":"","population":"70","elevation":"","dem":"428","timezone":"Europe/Madrid","modification_date":"2012-03-04"},{"geonameid":"2513346","name":"Navahermosa","asciiname":"Navahermosa","alternatenames":["Navahermosa"],"latitude":"39.63526","longitude":"-4.47012","feature_class":"P","feature_code":"PPLA3","country_code":"ES","cc2":"","admin1_code":"54","admin2_code":"TO","admin3_code":"45109","admin4_code":"","population":"4146","elevation":"","dem":"736","timezone":"Europe/Madrid","modification_date":"2012-03-04"},{"geonameid":"2513372","name":"Narboneta","asciiname":"Narboneta","alternatenames":["Narboneta"],"latitude":"39.75","longitude":"-1.46667","feature_class":"P","feature_code":"PPLA3","country_code":"ES","cc2":"","admin1_code":"54","admin2_code":"CU","admin3_code":"16137","admin4_code":"","population":"101","elevation":"","dem":"871","timezone":"Europe/Madrid","modification_date":"2012-03-04"},{"geonameid":"2513384","name":"Nambroca","asciiname":"Nambroca","alternatenames":["Nambroca"],"latitude":"39.79771","longitude":"-3.94434","feature_class":"P","feature_code":"PPLA3","country_code":"ES","cc2":"","admin1_code":"54","admin2_code":"TO","admin3_code":"45107","admin4_code":"","population":"2920","elevation":"","dem":"680","timezone":"Europe/Madrid","modification_date":"2012-03-04"},{"geonameid":"2513421","name":"Munera","asciiname":"Munera","alternatenames":["Munera"],"latitude":"39.04217","longitude":"-2.48068","feature_class":"P","feature_code":"PPL","country_code":"ES","cc2":"","admin1_code":"54","admin2_code":"AB","admin3_code":"02019","admin4_code":"","population":"3985","elevation":"","dem":"923","timezone":"Europe/Madrid","modification_date":"2012-01-19"},{"geonameid":"2513475","name":"Moya","asciiname":"Moya","alternatenames":["Moya"],"latitude":"39.95","longitude":"-1.36667","feature_class":"P","feature_code":"PPLA3","country_code":"ES","cc2":"","admin1_code":"54","admin2_code":"CU","admin3_code":"16135","admin4_code":"","population":"242","elevation":"","dem":"1082","timezone":"Europe/Madrid","modification_date":"2012-03-04"},{"geonameid":"2513479","name":"Motilleja","asciiname":"Motilleja","alternatenames":["Motilleja"],"latitude":"39.18333","longitude":"-1.78333","feature_class":"P","feature_code":"PPLA3","country_code":"ES","cc2":"","admin1_code":"54","admin2_code":"AB","admin3_code":"02052","admin4_code":"","population":"550","elevation":"","dem":"672","timezone":"Europe/Madrid","modification_date":"2012-03-04"},{"geonameid":"2513480","name":"Motilla del Palancar","asciiname":"Motilla del Palancar","alternatenames":["Motilla del Palancar"],"latitude":"39.56667","longitude":"-1.88333","feature_class":"P","feature_code":"PPLA3","country_code":"ES","cc2":"","admin1_code":"54","admin2_code":"CU","admin3_code":"16134","admin4_code":"","population":"5607","elevation":"","dem":"846","timezone":"Europe/Madrid","modification_date":"2012-03-04"},{"geonameid":"2513481","name":"Mota del Cuervo","asciiname":"Mota del Cuervo","alternatenames":["Mata del Cuervo","Mota del Cuervo"],"latitude":"39.50189","longitude":"-2.86994","feature_class":"P","feature_code":"PPLA3","country_code":"ES","cc2":"","admin1_code":"54","admin2_code":"CU","admin3_code":"16133","admin4_code":"","population":"6020","elevation":"","dem":"710","timezone":"Europe/Madrid","modification_date":"2012-03-04"},{"geonameid":"2513482","name":"Mota de Altarejos","asciiname":"Mota de Altarejos","alternatenames":["Mota de Altarejos"],"latitude":"39.88201","longitude":"-2.30958","feature_class":"P","feature_code":"PPLA3","country_code":"ES","cc2":"","admin1_code":"54","admin2_code":"CU","admin3_code":"16132","admin4_code":"","population":"57","elevation":"","dem":"860","timezone":"Europe/Madrid","modification_date":"2012-03-04"},{"geonameid":"2513580","name":"Moral de Calatrava","asciiname":"Moral de Calatrava","alternatenames":["Moral de Calatrava"],"latitude":"38.82989","longitude":"-3.57813","feature_class":"P","feature_code":"PPLA3","country_code":"ES","cc2":"","admin1_code":"54","admin2_code":"CR","admin3_code":"13058","admin4_code":"","population":"5236","elevation":"","dem":"674","timezone":"Europe/Madrid","modification_date":"2012-03-04"},{"geonameid":"2513588","name":"Mora","asciiname":"Mora","alternatenames":["Mora"],"latitude":"39.68492","longitude":"-3.77394","feature_class":"P","feature_code":"PPLA3","country_code":"ES","cc2":"","admin1_code":"54","admin2_code":"TO","admin3_code":"45106","admin4_code":"","population":"10554","elevation":"","dem":"722","timezone":"Europe/Madrid","modification_date":"2012-03-04"},{"geonameid":"2513606","name":"Montiel","asciiname":"Montiel","alternatenames":["Montiel"],"latitude":"38.69802","longitude":"-2.86441","feature_class":"P","feature_code":"PPLA3","country_code":"ES","cc2":"","admin1_code":"54","admin2_code":"CR","admin3_code":"13057","admin4_code":"","population":"1688","elevation":"","dem":"894","timezone":"Europe/Madrid","modification_date":"2012-03-04"},{"geonameid":"2513647","name":"Montearagón","asciiname":"Montearagon","alternatenames":["Montearagon","Montearagón"],"latitude":"39.96425","longitude":"-4.63214","feature_class":"P","feature_code":"PPLA3","country_code":"ES","cc2":"","admin1_code":"54","admin2_code":"TO","admin3_code":"45104","admin4_code":"","population":"499","elevation":"","dem":"432","timezone":"Europe/Madrid","modification_date":"2012-03-04"},{"geonameid":"2513649","name":"Montealegre del Castillo","asciiname":"Montealegre del Castillo","alternatenames":["Montealegre","Montealegre del Castillo"],"latitude":"38.78856","longitude":"-1.32722","feature_class":"P","feature_code":"PPLA3","country_code":"ES","cc2":"","admin1_code":"54","admin2_code":"AB","admin3_code":"02051","admin4_code":"","population":"2327","elevation":"","dem":"803","timezone":"Europe/Madrid","modification_date":"2012-03-04"},{"geonameid":"2513651","name":"Monteagudo de las Salinas","asciiname":"Monteagudo de las Salinas","alternatenames":["Monteagudo de las Salinas"],"latitude":"39.8","longitude":"-1.9","feature_class":"P","feature_code":"PPLA3","country_code":"ES","cc2":"","admin1_code":"54","admin2_code":"CU","admin3_code":"16131","admin4_code":"","population":"160","elevation":"","dem":"948","timezone":"Europe/Madrid","modification_date":"2012-03-04"},{"geonameid":"2513665","name":"Montalvos","asciiname":"Montalvos","alternatenames":["Montalvos"],"latitude":"39.16667","longitude":"-2.01667","feature_class":"P","feature_code":"PPLA3","country_code":"ES","cc2":"","admin1_code":"54","admin2_code":"AB","admin3_code":"02050","admin4_code":"","population":"143","elevation":"","dem":"707","timezone":"Europe/Madrid","modification_date":"2012-03-04"},{"geonameid":"2513667","name":"Montalbo","asciiname":"Montalbo","alternatenames":["Montalbo","Montalvo"],"latitude":"39.87994","longitude":"-2.67038","feature_class":"P","feature_code":"PPLA3","country_code":"ES","cc2":"","admin1_code":"54","admin2_code":"CU","admin3_code":"16130","admin4_code":"","population":"694","elevation":"","dem":"876","timezone":"Europe/Madrid","modification_date":"2012-03-04"},{"geonameid":"2513670","name":"Montalbanejo","asciiname":"Montalbanejo","alternatenames":["Montalbanejo"],"latitude":"39.73369","longitude":"-2.49911","feature_class":"P","feature_code":"PPLA3","country_code":"ES","cc2":"","admin1_code":"54","admin2_code":"CU","admin3_code":"16129","admin4_code":"","population":"176","elevation":"","dem":"908","timezone":"Europe/Madrid","modification_date":"2012-03-04"},{"geonameid":"2513678","name":"Monreal del Llano","asciiname":"Monreal del Llano","alternatenames":["Monreal del Llano"],"latitude":"39.56888","longitude":"-2.76046","feature_class":"P","feature_code":"PPLA3","country_code":"ES","cc2":"","admin1_code":"54","admin2_code":"CU","admin3_code":"16128","admin4_code":"","population":"74","elevation":"","dem":"735","timezone":"Europe/Madrid","modification_date":"2012-03-04"},{"geonameid":"2513753","name":"Molinicos","asciiname":"Molinicos","alternatenames":["Molinicos"],"latitude":"38.46717","longitude":"-2.23939","feature_class":"P","feature_code":"PPLA3","country_code":"ES","cc2":"","admin1_code":"54","admin2_code":"AB","admin3_code":"02049","admin4_code":"","population":"1151","elevation":"","dem":"853","timezone":"Europe/Madrid","modification_date":"2012-03-04"},{"geonameid":"2513788","name":"Mohedas de la Jara","asciiname":"Mohedas de la Jara","alternatenames":["Mohedas de la Jara"],"latitude":"39.60417","longitude":"-5.14247","feature_class":"P","feature_code":"PPLA3","country_code":"ES","cc2":"","admin1_code":"54","admin2_code":"TO","admin3_code":"45103","admin4_code":"","population":"565","elevation":"","dem":"644","timezone":"Europe/Madrid","modification_date":"2012-03-04"},{"geonameid":"2513803","name":"Mocejón","asciiname":"Mocejon","alternatenames":["Mocejon","Mocejón"],"latitude":"39.93934","longitude":"-3.91716","feature_class":"P","feature_code":"PPLA3","country_code":"ES","cc2":"","admin1_code":"54","admin2_code":"TO","admin3_code":"45102","admin4_code":"","population":"4449","elevation":"","dem":"483","timezone":"Europe/Madrid","modification_date":"2012-03-04"},{"geonameid":"2513844","name":"Mira","asciiname":"Mira","alternatenames":["Mira","mi la","myra  qwnkt","Мира","Міра","ميرا، قونكة","米拉"],"latitude":"39.71667","longitude":"-1.43333","feature_class":"P","feature_code":"PPLA3","country_code":"ES","cc2":"","admin1_code":"54","admin2_code":"CU","admin3_code":"16126","admin4_code":"","population":"1208","elevation":"","dem":"862","timezone":"Europe/Madrid","modification_date":"2012-03-04"},{"geonameid":"2513852","name":"Minglanilla","asciiname":"Minglanilla","alternatenames":["Minglanilla","Minglanillo"],"latitude":"39.53333","longitude":"-1.6","feature_class":"P","feature_code":"PPLA3","country_code":"ES","cc2":"","admin1_code":"54","admin2_code":"CU","admin3_code":"16125","admin4_code":"","population":"2300","elevation":"","dem":"803","timezone":"Europe/Madrid","modification_date":"2012-03-04"},{"geonameid":"2513855","name":"Minaya","asciiname":"Minaya","alternatenames":["Minaya"],"latitude":"39.27052","longitude":"-2.32176","feature_class":"P","feature_code":"PPLA3","country_code":"ES","cc2":"","admin1_code":"54","admin2_code":"AB","admin3_code":"02048","admin4_code":"","population":"1701","elevation":"","dem":"730","timezone":"Europe/Madrid","modification_date":"2012-03-04"},{"geonameid":"2513885","name":"Miguelturra","asciiname":"Miguelturra","alternatenames":["Migel'turra","Miguelturra","mi ge er tu la","myghwyltwra","Мигельтурра","Мігельтурра","ميغويلتورا","米格尔图拉"],"latitude":"38.96442","longitude":"-3.89047","feature_class":"P","feature_code":"PPL","country_code":"ES","cc2":"","admin1_code":"54","admin2_code":"CR","admin3_code":"13013","admin4_code":"","population":"13986","elevation":"","dem":"631","timezone":"Europe/Madrid","modification_date":"2012-01-19"},{"geonameid":"2513886","name":"Miguel Esteban","asciiname":"Miguel Esteban","alternatenames":["Miguel Esteban"],"latitude":"39.52448","longitude":"-3.07618","feature_class":"P","feature_code":"PPLA3","country_code":"ES","cc2":"","admin1_code":"54","admin2_code":"TO","admin3_code":"45101","admin4_code":"","population":"5170","elevation":"","dem":"681","timezone":"Europe/Madrid","modification_date":"2012-03-04"},{"geonameid":"2513902","name":"Mestanza","asciiname":"Mestanza","alternatenames":["Mestanza"],"latitude":"38.57616","longitude":"-4.07096","feature_class":"P","feature_code":"PPLA3","country_code":"ES","cc2":"","admin1_code":"54","admin2_code":"CR","admin3_code":"13055","admin4_code":"","population":"801","elevation":"","dem":"736","timezone":"Europe/Madrid","modification_date":"2012-03-04"},{"geonameid":"2513935","name":"Menasalbas","asciiname":"Menasalbas","alternatenames":["Menasalbas"],"latitude":"39.63954","longitude":"-4.28418","feature_class":"P","feature_code":"PPL","country_code":"ES","cc2":"","admin1_code":"54","admin2_code":"TO","admin3_code":"45182","admin4_code":"","population":"2978","elevation":"","dem":"709","timezone":"Europe/Madrid","modification_date":"2012-01-19"},{"geonameid":"2513944","name":"Membrilla","asciiname":"Membrilla","alternatenames":["Membrilla"],"latitude":"38.97198","longitude":"-3.3433","feature_class":"P","feature_code":"PPL","country_code":"ES","cc2":"","admin1_code":"54","admin2_code":"CR","admin3_code":"13053","admin4_code":"","population":"6466","elevation":"","dem":"671","timezone":"Europe/Madrid","modification_date":"2012-01-19"},{"geonameid":"2513985","name":"Mazarambroz","asciiname":"Mazarambroz","alternatenames":[""],"latitude":"39.69411","longitude":"-4.01962","feature_class":"P","feature_code":"PPLA3","country_code":"ES","cc2":"","admin1_code":"54","admin2_code":"TO","admin3_code":"45096","admin4_code":"","population":"1331","elevation":"","dem":"778","timezone":"Europe/Madrid","modification_date":"2012-03-04"},{"geonameid":"2514052","name":"Masegoso","asciiname":"Masegoso","alternatenames":["Masegoso"],"latitude":"38.71833","longitude":"-2.3161","feature_class":"P","feature_code":"PPLA3","country_code":"ES","cc2":"","admin1_code":"54","admin2_code":"AB","admin3_code":"02047","admin4_code":"","population":"127","elevation":"","dem":"1107","timezone":"Europe/Madrid","modification_date":"2012-03-04"},{"geonameid":"2514061","name":"Mascaraque","asciiname":"Mascaraque","alternatenames":["Mascaraque"],"latitude":"39.71643","longitude":"-3.81254","feature_class":"P","feature_code":"PPLA3","country_code":"ES","cc2":"","admin1_code":"54","admin2_code":"TO","admin3_code":"45094","admin4_code":"","population":"475","elevation":"","dem":"714","timezone":"Europe/Madrid","modification_date":"2012-03-04"},{"geonameid":"2514111","name":"Marjaliza","asciiname":"Marjaliza","alternatenames":[""],"latitude":"39.56329","longitude":"-3.93499","feature_class":"P","feature_code":"PPLA3","country_code":"ES","cc2":"","admin1_code":"54","admin2_code":"TO","admin3_code":"45092","admin4_code":"","population":"300","elevation":"","dem":"857","timezone":"Europe/Madrid","modification_date":"2012-03-04"},{"geonameid":"2514189","name":"Manzaneque","asciiname":"Manzaneque","alternatenames":["Manzaneque"],"latitude":"39.63549","longitude":"-3.79249","feature_class":"P","feature_code":"PPLA3","country_code":"ES","cc2":"","admin1_code":"54","admin2_code":"TO","admin3_code":"45090","admin4_code":"","population":"523","elevation":"","dem":"719","timezone":"Europe/Madrid","modification_date":"2012-03-04"},{"geonameid":"2514190","name":"Manzanares","asciiname":"Manzanares","alternatenames":["Manzanares","Manzanarre"],"latitude":"38.99915","longitude":"-3.36991","feature_class":"P","feature_code":"PPLA3","country_code":"ES","cc2":"","admin1_code":"54","admin2_code":"CR","admin3_code":"13053","admin4_code":"","population":"19186","elevation":"","dem":"666","timezone":"Europe/Madrid","modification_date":"2012-03-04"},{"geonameid":"2514219","name":"Malpica","asciiname":"Malpica","alternatenames":["Malpica"],"latitude":"39.89746","longitude":"-4.54988","feature_class":"P","feature_code":"PPL","country_code":"ES","cc2":"","admin1_code":"54","admin2_code":"TO","admin3_code":"45037","admin4_code":"","population":"1971","elevation":"","dem":"398","timezone":"Europe/Madrid","modification_date":"2012-02-02"},{"geonameid":"2514252","name":"Malagón","asciiname":"Malagon","alternatenames":["Malagon","Malagón","ma la gong","malajwn  sywdad ryal","Малагон","مالاجون، سيوداد ريال","马拉贡"],"latitude":"39.16668","longitude":"-3.85419","feature_class":"P","feature_code":"PPLA3","country_code":"ES","cc2":"","admin1_code":"54","admin2_code":"CR","admin3_code":"13052","admin4_code":"","population":"7923","elevation":"","dem":"638","timezone":"Europe/Madrid","modification_date":"2012-03-04"},{"geonameid":"2514297","name":"Mahora","asciiname":"Mahora","alternatenames":["Mahora"],"latitude":"39.21667","longitude":"-1.73333","feature_class":"P","feature_code":"PPLA3","country_code":"ES","cc2":"","admin1_code":"54","admin2_code":"AB","admin3_code":"02046","admin4_code":"","population":"1346","elevation":"","dem":"669","timezone":"Europe/Madrid","modification_date":"2012-03-04"},{"geonameid":"2514314","name":"Magán","asciiname":"Magan","alternatenames":["Magan","Magán"],"latitude":"39.96138","longitude":"-3.93164","feature_class":"P","feature_code":"PPLA3","country_code":"ES","cc2":"","admin1_code":"54","admin2_code":"TO","admin3_code":"45088","admin4_code":"","population":"1668","elevation":"","dem":"488","timezone":"Europe/Madrid","modification_date":"2012-03-04"},{"geonameid":"2514332","name":"Madrigueras","asciiname":"Madrigueras","alternatenames":["Madriguera","Madrigueras"],"latitude":"39.23333","longitude":"-1.8","feature_class":"P","feature_code":"PPLA3","country_code":"ES","cc2":"","admin1_code":"54","admin2_code":"AB","admin3_code":"02045","admin4_code":"","population":"4606","elevation":"","dem":"690","timezone":"Europe/Madrid","modification_date":"2012-03-04"},{"geonameid":"2514334","name":"Madridejos","asciiname":"Madridejos","alternatenames":["Madridejos","Madridekhos","ma de li de huo si","Мадридехос","Мадрідехос","马德里德霍斯"],"latitude":"39.46823","longitude":"-3.53196","feature_class":"P","feature_code":"PPLA3","country_code":"ES","cc2":"","admin1_code":"54","admin2_code":"TO","admin3_code":"45087","admin4_code":"","population":"11404","elevation":"","dem":"693","timezone":"Europe/Madrid","modification_date":"2012-03-04"},{"geonameid":"2514383","name":"Lucillos","asciiname":"Lucillos","alternatenames":["Luc Villos","Lucillos"],"latitude":"39.9851","longitude":"-4.61279","feature_class":"P","feature_code":"PPLA3","country_code":"ES","cc2":"","admin1_code":"54","admin2_code":"TO","admin3_code":"45086","admin4_code":"","population":"483","elevation":"","dem":"481","timezone":"Europe/Madrid","modification_date":"2012-03-04"},{"geonameid":"2514406","name":"Los Yébenes","asciiname":"Los Yebenes","alternatenames":["Los Yebenes","Los Yébenes","Yebenes","Yébenes"],"latitude":"39.58158","longitude":"-3.87058","feature_class":"P","feature_code":"PPL","country_code":"ES","cc2":"","admin1_code":"54","admin2_code":"TO","admin3_code":"45200","admin4_code":"","population":"6224","elevation":"","dem":"823","timezone":"Europe/Madrid","modification_date":"2010-05-23"},{"geonameid":"2514573","name":"Los Navalucillos","asciiname":"Los Navalucillos","alternatenames":["Los Navalucillos"],"latitude":"39.66665","longitude":"-4.64205","feature_class":"P","feature_code":"PPL","country_code":"ES","cc2":"","admin1_code":"54","admin2_code":"TO","admin3_code":"45113","admin4_code":"","population":"2748","elevation":"","dem":"747","timezone":"Europe/Madrid","modification_date":"2012-01-19"},{"geonameid":"2514574","name":"Los Navalmorales","asciiname":"Los Navalmorales","alternatenames":["Los Navalmorales"],"latitude":"39.72526","longitude":"-4.64227","feature_class":"P","feature_code":"PPL","country_code":"ES","cc2":"","admin1_code":"54","admin2_code":"TO","admin3_code":"45112","admin4_code":"","population":"2759","elevation":"","dem":"667","timezone":"Europe/Madrid","modification_date":"2012-01-19"},{"geonameid":"2514687","name":"Los Hinojosos","asciiname":"Los Hinojosos","alternatenames":["Los Hinojosos"],"latitude":"39.60417","longitude":"-2.82572","feature_class":"P","feature_code":"PPL","country_code":"ES","cc2":"","admin1_code":"54","admin2_code":"CU","admin3_code":"16100","admin4_code":"","population":"1098","elevation":"","dem":"772","timezone":"Europe/Madrid","modification_date":"2012-01-19"},{"geonameid":"2515055","name":"Lillo","asciiname":"Lillo","alternatenames":["Lillo"],"latitude":"39.72331","longitude":"-3.30618","feature_class":"P","feature_code":"PPLA3","country_code":"ES","cc2":"","admin1_code":"54","admin2_code":"TO","admin3_code":"45084","admin4_code":"","population":"2615","elevation":"","dem":"687","timezone":"Europe/Madrid","modification_date":"2012-03-04"},{"geonameid":"2515058","name":"Liétor","asciiname":"Lietor","alternatenames":["Lieto","Lietor","Liéto","Liétor"],"latitude":"38.54267","longitude":"-1.95367","feature_class":"P","feature_code":"PPLA3","country_code":"ES","cc2":"","admin1_code":"54","admin2_code":"AB","admin3_code":"02044","admin4_code":"","population":"1557","elevation":"","dem":"672","timezone":"Europe/Madrid","modification_date":"2012-03-04"},{"geonameid":"2515064","name":"Lezuza","asciiname":"Lezuza","alternatenames":["Lezuza"],"latitude":"38.9497","longitude":"-2.35419","feature_class":"P","feature_code":"PPLA3","country_code":"ES","cc2":"","admin1_code":"54","admin2_code":"AB","admin3_code":"02043","admin4_code":"","population":"1696","elevation":"","dem":"927","timezone":"Europe/Madrid","modification_date":"2012-03-04"},{"geonameid":"2515070","name":"Letur","asciiname":"Letur","alternatenames":["Letur"],"latitude":"38.36626","longitude":"-2.10206","feature_class":"P","feature_code":"PPLA3","country_code":"ES","cc2":"","admin1_code":"54","admin2_code":"AB","admin3_code":"02042","admin4_code":"","population":"1206","elevation":"","dem":"735","timezone":"Europe/Madrid","modification_date":"2012-03-04"},{"geonameid":"2515093","name":"Ledaña","asciiname":"Ledana","alternatenames":["Ledana","Ledaña"],"latitude":"39.36667","longitude":"-1.7","feature_class":"P","feature_code":"PPLA3","country_code":"ES","cc2":"","admin1_code":"54","admin2_code":"CU","admin3_code":"16118","admin4_code":"","population":"1913","elevation":"","dem":"734","timezone":"Europe/Madrid","modification_date":"2012-03-04"},{"geonameid":"2515108","name":"Layos","asciiname":"Layos","alternatenames":["Layos"],"latitude":"39.77703","longitude":"-4.06448","feature_class":"P","feature_code":"PPLA3","country_code":"ES","cc2":"","admin1_code":"54","admin2_code":"TO","admin3_code":"45083","admin4_code":"","population":"365","elevation":"","dem":"652","timezone":"Europe/Madrid","modification_date":"2012-03-04"},{"geonameid":"2515261","name":"Las Pedroñeras","asciiname":"Las Pedroneras","alternatenames":["Las Pedroneras","Las Pedroñeras"],"latitude":"39.44997","longitude":"-2.67394","feature_class":"P","feature_code":"PPL","country_code":"ES","cc2":"","admin1_code":"54","admin2_code":"CU","admin3_code":"16154","admin4_code":"","population":"6986","elevation":"","dem":"706","timezone":"Europe/Madrid","modification_date":"2012-01-19"},{"geonameid":"2515284","name":"La Solana","asciiname":"La Solana","alternatenames":["La Solana"],"latitude":"38.94422","longitude":"-3.2381","feature_class":"P","feature_code":"PPL","country_code":"ES","cc2":"","admin1_code":"54","admin2_code":"CR","admin3_code":"13079","admin4_code":"","population":"16511","elevation":"","dem":"765","timezone":"Europe/Madrid","modification_date":"2012-01-19"},{"geonameid":"2515319","name":"Las Mesas","asciiname":"Las Mesas","alternatenames":["Las Mesas"],"latitude":"39.38871","longitude":"-2.76524","feature_class":"P","feature_code":"PPL","country_code":"ES","cc2":"","admin1_code":"54","admin2_code":"CU","admin3_code":"16124","admin4_code":"","population":"2544","elevation":"","dem":"684","timezone":"Europe/Madrid","modification_date":"2012-01-19"},{"geonameid":"2515555","name":"La Roda","asciiname":"La Roda","alternatenames":["La Roda","La-Roda","Roda","la luo da","la rda","la rwda","Ла-Рода","لا ردا","لا رودا","拉罗达"],"latitude":"39.20735","longitude":"-2.15723","feature_class":"P","feature_code":"PPL","country_code":"ES","cc2":"","admin1_code":"54","admin2_code":"AB","admin3_code":"02069","admin4_code":"","population":"16060","elevation":"","dem":"713","timezone":"Europe/Madrid","modification_date":"2015-06-15"},{"geonameid":"2515618","name":"La Pueblanueva","asciiname":"La Pueblanueva","alternatenames":["La Pueblanueva"],"latitude":"39.91208","longitude":"-4.67933","feature_class":"P","feature_code":"PPL","country_code":"ES","cc2":"","admin1_code":"54","admin2_code":"TO","admin3_code":"45137","admin4_code":"","population":"2097","elevation":"","dem":"482","timezone":"Europe/Madrid","modification_date":"2012-01-19"},{"geonameid":"2515619","name":"La Puebla de Montalbán","asciiname":"La Puebla de Montalban","alternatenames":["Aebura","La Puebla de Montalban","La Puebla de Montalbán","Puebla de Montalban","Puebla de Montalbán"],"latitude":"39.86297","longitude":"-4.35917","feature_class":"P","feature_code":"PPL","country_code":"ES","cc2":"","admin1_code":"54","admin2_code":"TO","admin3_code":"45133","admin4_code":"","population":"7695","elevation":"","dem":"490","timezone":"Europe/Madrid","modification_date":"2012-04-01"},{"geonameid":"2515623","name":"La Puebla de Almoradiel","asciiname":"La Puebla de Almoradiel","alternatenames":["La Puebla de Almoradiel","La Puebla de Almordier","Puebla de Almoradiel"],"latitude":"39.59862","longitude":"-3.11782","feature_class":"P","feature_code":"PPL","country_code":"ES","cc2":"","admin1_code":"54","admin2_code":"TO","admin3_code":"45135","admin4_code":"","population":"5629","elevation":"","dem":"695","timezone":"Europe/Madrid","modification_date":"2012-01-19"},{"geonameid":"2515709","name":"Landete","asciiname":"Landete","alternatenames":["Landete"],"latitude":"39.9","longitude":"-1.36667","feature_class":"P","feature_code":"PPLA3","country_code":"ES","cc2":"","admin1_code":"54","admin2_code":"CU","admin3_code":"16117","admin4_code":"","population":"1398","elevation":"","dem":"977","timezone":"Europe/Madrid","modification_date":"2012-03-04"},{"geonameid":"2515909","name":"La Guardia","asciiname":"La Guardia","alternatenames":["La Guardia"],"latitude":"39.78795","longitude":"-3.47604","feature_class":"P","feature_code":"PPL","country_code":"ES","cc2":"","admin1_code":"54","admin2_code":"TO","admin3_code":"45071","admin4_code":"","population":"2329","elevation":"","dem":"704","timezone":"Europe/Madrid","modification_date":"2015-06-22"},{"geonameid":"2515922","name":"La Gineta","asciiname":"La Gineta","alternatenames":["La Gineta"],"latitude":"39.11452","longitude":"-1.99603","feature_class":"P","feature_code":"PPL","country_code":"ES","cc2":"","admin1_code":"54","admin2_code":"AB","admin3_code":"02035","admin4_code":"","population":"2137","elevation":"","dem":"690","timezone":"Europe/Madrid","modification_date":"2012-01-19"},{"geonameid":"2515928","name":"Lagartera","asciiname":"Lagartera","alternatenames":["Lagartera"],"latitude":"39.90557","longitude":"-5.20143","feature_class":"P","feature_code":"PPL","country_code":"ES","cc2":"","admin1_code":"54","admin2_code":"TO","admin3_code":"45125","admin4_code":"","population":"1607","elevation":"","dem":"396","timezone":"Europe/Madrid","modification_date":"2012-01-19"},{"geonameid":"2516122","name":"La Calzada de Calatrava","asciiname":"La Calzada de Calatrava","alternatenames":["Calzada de Calatrava","La Calzada","La Calzada de Calatrava"],"latitude":"38.70339","longitude":"-3.77561","feature_class":"P","feature_code":"PPL","country_code":"ES","cc2":"","admin1_code":"54","admin2_code":"CR","admin3_code":"13027","admin4_code":"","population":"4633","elevation":"","dem":"651","timezone":"Europe/Madrid","modification_date":"2012-01-19"},