{"region_data":{"countryId":"6252001","adminCode1":"KY","countryName":"United States","fclName":"country, state, region,...","countryCode":"US","lng":"-84.87762","fcodeName":"first-order administrative division","toponymName":"Kentucky","fcl":"A","numberOfChildren":120,"name":"Kentucky","fcode":"ADM1","geonameId":6254925,"lat":"38.20042","adminName1":"Kentucky","population":4206074},"country_data":{"ISO":"US","ISO3":"USA","ISO_Numeric":"840","fips":"US","country":"United States","capital":"Washington","area":"9629091","Population":"310232863","Continent":"NA","tld":".us","CurrencyCode":"USD","CurrencyName":"Dollar","Phone":"1","Postal_Code_Format":"#####-####","Postal_Code_Regex":"^\\d{5}(-\\d{4})?$","Languages":"en-US,es-US,haw,fr","geonameid":"6252001","neighbours":"CA,MX,CU","EquivalentFipsCode":""},"cities":[{"geonameid":"4282305","name":"Albany","asciiname":"Albany","alternatenames":["Olbani","Олбани"],"latitude":"36.6909","longitude":"-85.13468","feature_class":"P","feature_code":"PPLA2","country_code":"US","cc2":"","admin1_code":"KY","admin2_code":"053","admin3_code":"","admin4_code":"","population":"2033","elevation":"293","dem":"292","timezone":"America/Chicago","modification_date":"2011-05-14"},{"geonameid":"4282342","name":"Alexandria","asciiname":"Alexandria","alternatenames":["Aleksandrija","alaskndryt  kntaky","alksandrya  kntaky","ya li shan de li ya","Александрия","Александрија","آلکساندریا، کنتاکی","الإسكندرية، كنتاكي","亚历山德里亚"],"latitude":"38.95951","longitude":"-84.38799","feature_class":"P","feature_code":"PPL","country_code":"US","cc2":"","admin1_code":"KY","admin2_code":"037","admin3_code":"","admin4_code":"","population":"8477","elevation":"269","dem":"264","timezone":"America/New_York","modification_date":"2011-05-14"},{"geonameid":"4282497","name":"Anchorage","asciiname":"Anchorage","alternatenames":["Ankoridzh","Enkoridz","an ke lei qi","ankryj  kntaky","Анкоридж","Енкориџ","آنکریج، کنتاکی","安克雷奇"],"latitude":"38.26674","longitude":"-85.53302","feature_class":"P","feature_code":"PPL","country_code":"US","cc2":"","admin1_code":"KY","admin2_code":"111","admin3_code":"","admin4_code":"","population":"2348","elevation":"217","dem":"222","timezone":"America/Kentucky/Louisville","modification_date":"2011-05-14"},{"geonameid":"4282563","name":"Annville","asciiname":"Annville","alternatenames":[""],"latitude":"37.31925","longitude":"-83.97048","feature_class":"P","feature_code":"PPL","country_code":"US","cc2":"","admin1_code":"KY","admin2_code":"109","admin3_code":"","admin4_code":"","population":"1095","elevation":"336","dem":"339","timezone":"America/New_York","modification_date":"2011-05-14"},{"geonameid":"4282757","name":"Ashland","asciiname":"Ashland","alternatenames":["Ehshland","Eshland","aesyullaendeu","ai xu lan","ashlnd  kntaky","ashurando","Ешланд","Эшланд","اشلند، کنتاکی","アシュランド","愛許蘭","애슐랜드"],"latitude":"38.47841","longitude":"-82.63794","feature_class":"P","feature_code":"PPL","country_code":"US","cc2":"","admin1_code":"KY","admin2_code":"019","admin3_code":"","admin4_code":"","population":"21684","elevation":"168","dem":"171","timezone":"America/New_York","modification_date":"2011-05-14"},{"geonameid":"4282812","name":"Auburn","asciiname":"Auburn","alternatenames":[""],"latitude":"36.86421","longitude":"-86.71027","feature_class":"P","feature_code":"PPL","country_code":"US","cc2":"","admin1_code":"KY","admin2_code":"141","admin3_code":"","admin4_code":"","population":"1340","elevation":"195","dem":"197","timezone":"America/Chicago","modification_date":"2011-05-14"},{"geonameid":"4282818","name":"Audubon Park","asciiname":"Audubon Park","alternatenames":[""],"latitude":"38.20396","longitude":"-85.72524","feature_class":"P","feature_code":"PPL","country_code":"US","cc2":"","admin1_code":"KY","admin2_code":"111","admin3_code":"","admin4_code":"","population":"1473","elevation":"156","dem":"166","timezone":"America/Kentucky/Louisville","modification_date":"2011-05-14"},{"geonameid":"4282836","name":"Augusta","asciiname":"Augusta","alternatenames":["Augusta","Ogasta","Огаста"],"latitude":"38.77174","longitude":"-84.00576","feature_class":"P","feature_code":"PPL","country_code":"US","cc2":"","admin1_code":"KY","admin2_code":"023","admin3_code":"","admin4_code":"","population":"1190","elevation":"157","dem":"160","timezone":"America/New_York","modification_date":"2014-10-07"},{"geonameid":"4283127","name":"Barbourmeade","asciiname":"Barbourmeade","alternatenames":[""],"latitude":"38.29729","longitude":"-85.60329","feature_class":"P","feature_code":"PPL","country_code":"US","cc2":"","admin1_code":"KY","admin2_code":"111","admin3_code":"","admin4_code":"","population":"1218","elevation":"192","dem":"195","timezone":"America/Kentucky/Louisville","modification_date":"2011-05-14"},{"geonameid":"4283128","name":"Barbourville","asciiname":"Barbourville","alternatenames":[""],"latitude":"36.86648","longitude":"-83.88881","feature_class":"P","feature_code":"PPLA2","country_code":"US","cc2":"","admin1_code":"KY","admin2_code":"121","admin3_code":"","admin4_code":"","population":"3165","elevation":"299","dem":"301","timezone":"America/New_York","modification_date":"2011-05-14"},{"geonameid":"4283133","name":"Bardstown","asciiname":"Bardstown","alternatenames":["BRY","Bardstaun","Bardstoun","ba ci dui","badeuseutaun","bardastawn  kntaky","Бардстаун","Бардстоун","بارداستاون، کنتاکی","巴兹敦","바드스타운"],"latitude":"37.80923","longitude":"-85.4669","feature_class":"P","feature_code":"PPLA2","country_code":"US","cc2":"","admin1_code":"KY","admin2_code":"179","admin3_code":"","admin4_code":"","population":"11700","elevation":"197","dem":"201","timezone":"America/New_York","modification_date":"2011-05-14"},{"geonameid":"4283138","name":"Bardwell","asciiname":"Bardwell","alternatenames":[""],"latitude":"36.87061","longitude":"-89.00979","feature_class":"P","feature_code":"PPLA2","country_code":"US","cc2":"","admin1_code":"KY","admin2_code":"039","admin3_code":"","admin4_code":"","population":"723","elevation":"110","dem":"107","timezone":"America/Chicago","modification_date":"2011-05-14"},{"geonameid":"4283541","name":"Beattyville","asciiname":"Beattyville","alternatenames":[""],"latitude":"37.57175","longitude":"-83.70686","feature_class":"P","feature_code":"PPLA2","country_code":"US","cc2":"","admin1_code":"KY","admin2_code":"129","admin3_code":"","admin4_code":"","population":"1307","elevation":"204","dem":"203","timezone":"America/New_York","modification_date":"2011-05-14"},{"geonameid":"4283557","name":"Beaver Dam","asciiname":"Beaver Dam","alternatenames":[""],"latitude":"37.40199","longitude":"-86.87583","feature_class":"P","feature_code":"PPL","country_code":"US","cc2":"","admin1_code":"KY","admin2_code":"183","admin3_code":"","admin4_code":"","population":"3409","elevation":"125","dem":"124","timezone":"America/Chicago","modification_date":"2011-05-14"},{"geonameid":"4283606","name":"Bedford","asciiname":"Bedford","alternatenames":["Bedford","Бедфорд"],"latitude":"38.59256","longitude":"-85.31773","feature_class":"P","feature_code":"PPLA2","country_code":"US","cc2":"","admin1_code":"KY","admin2_code":"223","admin3_code":"","admin4_code":"","population":"599","elevation":"275","dem":"276","timezone":"America/New_York","modification_date":"2011-05-14"},{"geonameid":"4283760","name":"Beechwood Village","asciiname":"Beechwood Village","alternatenames":[""],"latitude":"38.25479","longitude":"-85.63135","feature_class":"P","feature_code":"PPL","country_code":"US","cc2":"","admin1_code":"KY","admin2_code":"111","admin3_code":"","admin4_code":"","population":"1324","elevation":"162","dem":"167","timezone":"America/Kentucky/Louisville","modification_date":"2011-05-14"},{"geonameid":"4283845","name":"Bellevue","asciiname":"Bellevue","alternatenames":[""],"latitude":"39.10645","longitude":"-84.47883","feature_class":"P","feature_code":"PPL","country_code":"US","cc2":"","admin1_code":"KY","admin2_code":"037","admin3_code":"","admin4_code":"","population":"5955","elevation":"167","dem":"169","timezone":"America/New_York","modification_date":"2011-05-14"},{"geonameid":"4283953","name":"Benton","asciiname":"Benton","alternatenames":["Benton","Бентон"],"latitude":"36.85728","longitude":"-88.35031","feature_class":"P","feature_code":"PPLA2","country_code":"US","cc2":"","admin1_code":"KY","admin2_code":"157","admin3_code":"","admin4_code":"","population":"4349","elevation":"130","dem":"132","timezone":"America/Chicago","modification_date":"2011-05-14"},{"geonameid":"4283974","name":"Berea","asciiname":"Berea","alternatenames":["Berea","Berija","bo li ya","brya  kntaky","Береа","Берија","بریا، کنتاکی","伯里亚"],"latitude":"37.56869","longitude":"-84.29632","feature_class":"P","feature_code":"PPL","country_code":"US","cc2":"","admin1_code":"KY","admin2_code":"151","admin3_code":"","admin4_code":"","population":"13561","elevation":"312","dem":"314","timezone":"America/New_York","modification_date":"2011-05-14"},{"geonameid":"4285190","name":"Booneville","asciiname":"Booneville","alternatenames":[""],"latitude":"37.4762","longitude":"-83.67491","feature_class":"P","feature_code":"PPLA2","country_code":"US","cc2":"","admin1_code":"KY","admin2_code":"189","admin3_code":"","admin4_code":"","population":"81","elevation":"216","dem":"214","timezone":"America/New_York","modification_date":"2011-05-14"},{"geonameid":"4285268","name":"Bowling Green","asciiname":"Bowling Green","alternatenames":["BWG","Bouling Grin","Bouling-Grin","bao ling ge lin","bolling-geulin","boringugurin","bwwlyng gryn  kntaky","Боулинг Грин","Боулинг-Грин","بوولینگ گرین، کنتاکی","ボーリンググリーン","鮑靈格林","볼링그린"],"latitude":"36.99032","longitude":"-86.4436","feature_class":"P","feature_code":"PPLA2","country_code":"US","cc2":"","admin1_code":"KY","admin2_code":"227","admin3_code":"","admin4_code":"","population":"58067","elevation":"161","dem":"163","timezone":"America/Chicago","modification_date":"2011-05-14"},{"geonameid":"4285380","name":"Brandenburg","asciiname":"Brandenburg","alternatenames":["Brandenberg","Brehndenburg","bo lan deng bao","brndnbrg  kntaky","Бранденберг","Брэнденбург","برندنبرگ، کنتاکی","勃兰登堡"],"latitude":"37.99896","longitude":"-86.16941","feature_class":"P","feature_code":"PPLA2","country_code":"US","cc2":"","admin1_code":"KY","admin2_code":"163","admin3_code":"","admin4_code":"","population":"2643","elevation":"173","dem":"171","timezone":"America/New_York","modification_date":"2011-05-14"},{"geonameid":"4285427","name":"Breckinridge Center","asciiname":"Breckinridge Center","alternatenames":[""],"latitude":"37.68282","longitude":"-87.86308","feature_class":"P","feature_code":"PPL","country_code":"US","cc2":"","admin1_code":"KY","admin2_code":"225","admin3_code":"","admin4_code":"","population":"2080","elevation":"132","dem":"130","timezone":"America/Chicago","modification_date":"2011-05-14"},{"geonameid":"4285573","name":"Brodhead","asciiname":"Brodhead","alternatenames":[""],"latitude":"37.40425","longitude":"-84.41383","feature_class":"P","feature_code":"PPL","country_code":"US","cc2":"","admin1_code":"KY","admin2_code":"203","admin3_code":"","admin4_code":"","population":"1211","elevation":"285","dem":"289","timezone":"America/New_York","modification_date":"2011-05-14"},{"geonameid":"4285588","name":"Brooks","asciiname":"Brooks","alternatenames":[""],"latitude":"38.06118","longitude":"-85.70968","feature_class":"P","feature_code":"PPL","country_code":"US","cc2":"","admin1_code":"KY","admin2_code":"029","admin3_code":"","admin4_code":"","population":"2401","elevation":"155","dem":"158","timezone":"America/New_York","modification_date":"2011-05-14"},{"geonameid":"4285607","name":"Brooksville","asciiname":"Brooksville","alternatenames":[""],"latitude":"38.68257","longitude":"-84.06576","feature_class":"P","feature_code":"PPLA2","country_code":"US","cc2":"","admin1_code":"KY","admin2_code":"023","admin3_code":"","admin4_code":"","population":"642","elevation":"285","dem":"287","timezone":"America/New_York","modification_date":"2011-05-14"},{"geonameid":"4285708","name":"Brownsville","asciiname":"Brownsville","alternatenames":[""],"latitude":"37.19255","longitude":"-86.26775","feature_class":"P","feature_code":"PPLA2","country_code":"US","cc2":"","admin1_code":"KY","admin2_code":"061","admin3_code":"","admin4_code":"","population":"836","elevation":"166","dem":"169","timezone":"America/Chicago","modification_date":"2011-05-14"},{"geonameid":"4286037","name":"Buckner","asciiname":"Buckner","alternatenames":[""],"latitude":"38.38368","longitude":"-85.43996","feature_class":"P","feature_code":"PPL","country_code":"US","cc2":"","admin1_code":"KY","admin2_code":"185","admin3_code":"","admin4_code":"","population":"5837","elevation":"251","dem":"251","timezone":"America/New_York","modification_date":"2011-05-14"},{"geonameid":"4286054","name":"Buechel","asciiname":"Buechel","alternatenames":[""],"latitude":"38.19507","longitude":"-85.6519","feature_class":"P","feature_code":"PPL","country_code":"US","cc2":"","admin1_code":"KY","admin2_code":"111","admin3_code":"","admin4_code":"","population":"7287","elevation":"152","dem":"153","timezone":"America/Kentucky/Louisville","modification_date":"2006-01-17"},{"geonameid":"4286280","name":"Burkesville","asciiname":"Burkesville","alternatenames":[""],"latitude":"36.79034","longitude":"-85.37052","feature_class":"P","feature_code":"PPLA2","country_code":"US","cc2":"","admin1_code":"KY","admin2_code":"057","admin3_code":"","admin4_code":"","population":"1521","elevation":"177","dem":"176","timezone":"America/Chicago","modification_date":"2011-05-14"},{"geonameid":"4286281","name":"Burlington","asciiname":"Burlington","alternatenames":["Berlington","Берлингтон"],"latitude":"39.02756","longitude":"-84.72411","feature_class":"P","feature_code":"PPLA2","country_code":"US","cc2":"","admin1_code":"KY","admin2_code":"015","admin3_code":"","admin4_code":"","population":"15926","elevation":"256","dem":"255","timezone":"America/New_York","modification_date":"2011-05-14"},{"geonameid":"4286479","name":"Cadiz","asciiname":"Cadiz","alternatenames":[""],"latitude":"36.86505","longitude":"-87.8353","feature_class":"P","feature_code":"PPLA2","country_code":"US","cc2":"","admin1_code":"KY","admin2_code":"221","admin3_code":"","admin4_code":"","population":"2558","elevation":"129","dem":"137","timezone":"America/Chicago","modification_date":"2011-05-14"},{"geonameid":"4286519","name":"Calhoun","asciiname":"Calhoun","alternatenames":[""],"latitude":"37.53894","longitude":"-87.25833","feature_class":"P","feature_code":"PPLA2","country_code":"US","cc2":"","admin1_code":"KY","admin2_code":"149","admin3_code":"","admin4_code":"","population":"763","elevation":"120","dem":"121","timezone":"America/Chicago","modification_date":"2011-05-14"},{"geonameid":"4286581","name":"Calvert City","asciiname":"Calvert City","alternatenames":[""],"latitude":"37.03339","longitude":"-88.35004","feature_class":"P","feature_code":"PPL","country_code":"US","cc2":"","admin1_code":"KY","admin2_code":"157","admin3_code":"","admin4_code":"","population":"2566","elevation":"104","dem":"105","timezone":"America/Chicago","modification_date":"2011-05-14"},{"geonameid":"4286590","name":"Camargo","asciiname":"Camargo","alternatenames":[""],"latitude":"37.99425","longitude":"-83.8877","feature_class":"P","feature_code":"PPL","country_code":"US","cc2":"","admin1_code":"KY","admin2_code":"173","admin3_code":"","admin4_code":"","population":"1081","elevation":"281","dem":"283","timezone":"America/New_York","modification_date":"2011-05-14"},{"geonameid":"4286717","name":"Campbellsville","asciiname":"Campbellsville","alternatenames":["Kampbehlsvill","Kampbelsvil","kan bei er si wei er","kmpblswyl  kntaky","Кампбелсвил","Кампбэлсвилл","کمپبلسویل، کنتاکی","坎贝尔斯威尔"],"latitude":"37.3434","longitude":"-85.34191","feature_class":"P","feature_code":"PPLA2","country_code":"US","cc2":"","admin1_code":"KY","admin2_code":"217","admin3_code":"","admin4_code":"","population":"9108","elevation":"248","dem":"250","timezone":"America/New_York","modification_date":"2011-05-14"},{"geonameid":"4286728","name":"Campton","asciiname":"Campton","alternatenames":[""],"latitude":"37.73425","longitude":"-83.54741","feature_class":"P","feature_code":"PPLA2","country_code":"US","cc2":"","admin1_code":"KY","admin2_code":"237","admin3_code":"","admin4_code":"","population":"441","elevation":"293","dem":"293","timezone":"America/New_York","modification_date":"2011-05-14"},{"geonameid":"4286981","name":"Carlisle","asciiname":"Carlisle","alternatenames":[""],"latitude":"38.31202","longitude":"-84.02743","feature_class":"P","feature_code":"PPLA2","country_code":"US","cc2":"","admin1_code":"KY","admin2_code":"181","admin3_code":"","admin4_code":"","population":"2010","elevation":"262","dem":"259","timezone":"America/New_York","modification_date":"2011-05-14"},{"geonameid":"4287050","name":"Carrollton","asciiname":"Carrollton","alternatenames":["Karolton","Karrolton","ka luo er dun","krltn  kntaky","Каролтон","Карролтон","کرلتن، کنتاکی","卡罗尔顿"],"latitude":"38.6809","longitude":"-85.1794","feature_class":"P","feature_code":"PPLA2","country_code":"US","cc2":"","admin1_code":"KY","admin2_code":"041","admin3_code":"","admin4_code":"","population":"3938","elevation":"147","dem":"149","timezone":"America/New_York","modification_date":"2011-05-14"},{"geonameid":"4287192","name":"Catlettsburg","asciiname":"Catlettsburg","alternatenames":["Katlitsberg","Kehtlettsburg","ka te li ci bao","ktltsbwrg  kntaky","Катлитсберг","Кэтлеттсбург","کتلتسبورگ، کنتاکی","卡特利茨堡"],"latitude":"38.4048","longitude":"-82.60044","feature_class":"P","feature_code":"PPLA2","country_code":"US","cc2":"","admin1_code":"KY","admin2_code":"019","admin3_code":"","admin4_code":"","population":"1856","elevation":"169","dem":"171","timezone":"America/New_York","modification_date":"2011-05-14"},{"geonameid":"4287235","name":"Cave City","asciiname":"Cave City","alternatenames":[""],"latitude":"37.13672","longitude":"-85.95692","feature_class":"P","feature_code":"PPL","country_code":"US","cc2":"","admin1_code":"KY","admin2_code":"009","admin3_code":"","admin4_code":"","population":"2240","elevation":"193","dem":"195","timezone":"America/Chicago","modification_date":"2011-05-14"},{"geonameid":"4287450","name":"Central City","asciiname":"Central City","alternatenames":["Cehntral Siti","Sentral Siti","sntral syty  kntaky","zhong yang shi","Сентрал Сити","Цэнтрал Сити","سنترال سیتی، کنتاکی","中央市"],"latitude":"37.29393","longitude":"-87.12333","feature_class":"P","feature_code":"PPL","country_code":"US","cc2":"","admin1_code":"KY","admin2_code":"177","admin3_code":"","admin4_code":"","population":"5978","elevation":"133","dem":"136","timezone":"America/Chicago","modification_date":"2011-05-14"},{"geonameid":"4287872","name":"Claryville","asciiname":"Claryville","alternatenames":[""],"latitude":"38.91923","longitude":"-84.39549","feature_class":"P","feature_code":"PPL","country_code":"US","cc2":"","admin1_code":"KY","admin2_code":"037","admin3_code":"","admin4_code":"","population":"2355","elevation":"210","dem":"209","timezone":"America/New_York","modification_date":"2011-05-14"},{"geonameid":"4287874","name":"Clay","asciiname":"Clay","alternatenames":[""],"latitude":"37.47671","longitude":"-87.82002","feature_class":"P","feature_code":"PPL","country_code":"US","cc2":"","admin1_code":"KY","admin2_code":"233","admin3_code":"","admin4_code":"","population":"1181","elevation":"116","dem":"115","timezone":"America/Chicago","modification_date":"2011-05-14"},{"geonameid":"4287881","name":"Clay City","asciiname":"Clay City","alternatenames":[""],"latitude":"37.85925","longitude":"-83.91853","feature_class":"P","feature_code":"PPL","country_code":"US","cc2":"","admin1_code":"KY","admin2_code":"197","admin3_code":"","admin4_code":"","population":"1077","elevation":"189","dem":"192","timezone":"America/New_York","modification_date":"2011-05-14"},{"geonameid":"4288062","name":"Clinton","asciiname":"Clinton","alternatenames":["Klinton","Клинтон"],"latitude":"36.66728","longitude":"-88.9934","feature_class":"P","feature_code":"PPLA2","country_code":"US","cc2":"","admin1_code":"KY","admin2_code":"105","admin3_code":"","admin4_code":"","population":"1388","elevation":"113","dem":"114","timezone":"America/Chicago","modification_date":"2011-05-14"},{"geonameid":"4288101","name":"Cloverport","asciiname":"Cloverport","alternatenames":[""],"latitude":"37.83339","longitude":"-86.63276","feature_class":"P","feature_code":"PPL","country_code":"US","cc2":"","admin1_code":"KY","admin2_code":"027","admin3_code":"","admin4_code":"","population":"1152","elevation":"149","dem":"154","timezone":"America/Chicago","modification_date":"2011-05-14"},{"geonameid":"4288140","name":"Coal Run Village","asciiname":"Coal Run Village","alternatenames":[""],"latitude":"37.51316","longitude":"-82.55849","feature_class":"P","feature_code":"PPL","country_code":"US","cc2":"","admin1_code":"KY","admin2_code":"195","admin3_code":"","admin4_code":"","population":"1706","elevation":"201","dem":"207","timezone":"America/New_York","modification_date":"2011-05-14"},{"geonameid":"4288230","name":"Cold Spring","asciiname":"Cold Spring","alternatenames":[""],"latitude":"39.02173","longitude":"-84.43994","feature_class":"P","feature_code":"PPL","country_code":"US","cc2":"","admin1_code":"KY","admin2_code":"037","admin3_code":"","admin4_code":"","population":"5912","elevation":"264","dem":"262","timezone":"America/New_York","modification_date":"2011-05-14"},{"geonameid":"4288250","name":"Coldstream","asciiname":"Coldstream","alternatenames":[""],"latitude":"38.31479","longitude":"-85.52385","feature_class":"P","feature_code":"PPL","country_code":"US","cc2":"","admin1_code":"KY","admin2_code":"111","admin3_code":"","admin4_code":"","population":"1100","elevation":"230","dem":"232","timezone":"America/Kentucky/Louisville","modification_date":"2011-05-14"},{"geonameid":"4288366","name":"Columbia","asciiname":"Columbia","alternatenames":["Kolambija","Kolumbija","ge lun bi ya","klmbya  kntaky","Коламбија","Колумбия","کلمبیا، کنتاکی","哥伦比亚"],"latitude":"37.10284","longitude":"-85.30635","feature_class":"P","feature_code":"PPLA2","country_code":"US","cc2":"","admin1_code":"KY","admin2_code":"001","admin3_code":"","admin4_code":"","population":"4452","elevation":"228","dem":"231","timezone":"America/Chicago","modification_date":"2011-05-14"},{"geonameid":"4288656","name":"Corbin","asciiname":"Corbin","alternatenames":["Korbin","ke er bin","krbyn  kntaky","Корбин","کربین، کنتاکی","科尔宾"],"latitude":"36.9487","longitude":"-84.09688","feature_class":"P","feature_code":"PPL","country_code":"US","cc2":"","admin1_code":"KY","admin2_code":"235","admin3_code":"","admin4_code":"","population":"7304","elevation":"329","dem":"331","timezone":"America/New_York","modification_date":"2011-05-14"},{"geonameid":"4288809","name":"Covington","asciiname":"Covington","alternatenames":["Kavington","Kovington","ka wen dun","kawyngtn  kntaky","keobingteon","kobinton","Кавингтон","Ковингтон","Ковінгтон","کاوینگتن، کنتاکی","コビントン","卡温顿","커빙턴"],"latitude":"39.08367","longitude":"-84.50855","feature_class":"P","feature_code":"PPL","country_code":"US","cc2":"","admin1_code":"KY","admin2_code":"117","admin3_code":"","admin4_code":"","population":"40640","elevation":"155","dem":"157","timezone":"America/New_York","modification_date":"2011-05-14"},{"geonameid":"4289028","name":"Crescent Springs","asciiname":"Crescent Springs","alternatenames":[""],"latitude":"39.05145","longitude":"-84.58161","feature_class":"P","feature_code":"PPL","country_code":"US","cc2":"","admin1_code":"KY","admin2_code":"117","admin3_code":"","admin4_code":"","population":"3801","elevation":"251","dem":"251","timezone":"America/New_York","modification_date":"2011-05-14"},{"geonameid":"4289040","name":"Crestview Hills","asciiname":"Crestview Hills","alternatenames":[""],"latitude":"39.02728","longitude":"-84.58494","feature_class":"P","feature_code":"PPL","country_code":"US","cc2":"","admin1_code":"KY","admin2_code":"117","admin3_code":"","admin4_code":"","population":"3148","elevation":"262","dem":"263","timezone":"America/New_York","modification_date":"2011-05-14"},{"geonameid":"4289042","name":"Crestwood","asciiname":"Crestwood","alternatenames":[""],"latitude":"38.32424","longitude":"-85.47246","feature_class":"P","feature_code":"PPL","country_code":"US","cc2":"","admin1_code":"KY","admin2_code":"185","admin3_code":"","admin4_code":"","population":"4531","elevation":"239","dem":"240","timezone":"America/New_York","modification_date":"2011-05-14"},{"geonameid":"4289072","name":"Crittenden","asciiname":"Crittenden","alternatenames":[""],"latitude":"38.78284","longitude":"-84.60522","feature_class":"P","feature_code":"PPL","country_code":"US","cc2":"","admin1_code":"KY","admin2_code":"081","admin3_code":"","admin4_code":"","population":"3815","elevation":"284","dem":"285","timezone":"America/New_York","modification_date":"2011-05-14"},{"geonameid":"4289232","name":"Cumberland","asciiname":"Cumberland","alternatenames":["Kamberlend","Камберленд"],"latitude":"36.97815","longitude":"-82.9885","feature_class":"P","feature_code":"PPL","country_code":"US","cc2":"","admin1_code":"KY","admin2_code":"095","admin3_code":"","admin4_code":"","population":"2237","elevation":"440","dem":"438","timezone":"America/New_York","modification_date":"2011-05-14"},{"geonameid":"4289323","name":"Cynthiana","asciiname":"Cynthiana","alternatenames":["Kinziana","Sintijana","synsyana  kntaky","xin xi ya na","Кинзиана","Синтијана","سینسیانا، کنتاکی","辛西亚纳"],"latitude":"38.39035","longitude":"-84.2941","feature_class":"P","feature_code":"PPLA2","country_code":"US","cc2":"","admin1_code":"KY","admin2_code":"097","admin3_code":"","admin4_code":"","population":"6402","elevation":"224","dem":"222","timezone":"America/New_York","modification_date":"2011-05-14"},{"geonameid":"4289445","name":"Danville","asciiname":"Danville","alternatenames":["Danvil","Dehnvill","daenbil","dan wei er","dnwyl  kntaky","Данвил","Дэнвилл","دنویل، کنتاکی","丹維爾","댄빌"],"latitude":"37.64563","longitude":"-84.77217","feature_class":"P","feature_code":"PPLA2","country_code":"US","cc2":"","admin1_code":"KY","admin2_code":"021","admin3_code":"","admin4_code":"","population":"16218","elevation":"300","dem":"305","timezone":"America/New_York","modification_date":"2011-05-14"},{"geonameid":"4289606","name":"Dawson Springs","asciiname":"Dawson Springs","alternatenames":[""],"latitude":"37.16727","longitude":"-87.69251","feature_class":"P","feature_code":"PPL","country_code":"US","cc2":"","admin1_code":"KY","admin2_code":"107","admin3_code":"","admin4_code":"","population":"2764","elevation":"128","dem":"130","timezone":"America/Chicago","modification_date":"2011-05-14"},{"geonameid":"4289629","name":"Dayton","asciiname":"Dayton","alternatenames":["Dejton","Дейтон"],"latitude":"39.11284","longitude":"-84.47272","feature_class":"P","feature_code":"PPL","country_code":"US","cc2":"","admin1_code":"KY","admin2_code":"037","admin3_code":"","admin4_code":"","population":"5338","elevation":"157","dem":"159","timezone":"America/New_York","modification_date":"2011-05-14"},{"geonameid":"4289966","name":"Dixon","asciiname":"Dixon","alternatenames":[""],"latitude":"37.51782","longitude":"-87.69029","feature_class":"P","feature_code":"PPLA2","country_code":"US","cc2":"","admin1_code":"KY","admin2_code":"233","admin3_code":"","admin4_code":"","population":"786","elevation":"162","dem":"164","timezone":"America/Chicago","modification_date":"2011-05-14"},{"geonameid":"4290181","name":"Douglass Hills","asciiname":"Douglass Hills","alternatenames":[""],"latitude":"38.23785","longitude":"-85.55274","feature_class":"P","feature_code":"PPL","country_code":"US","cc2":"","admin1_code":"KY","admin2_code":"111","admin3_code":"","admin4_code":"","population":"5484","elevation":"216","dem":"219","timezone":"America/Kentucky/Louisville","modification_date":"2011-05-14"},{"geonameid":"4290421","name":"Dry Ridge","asciiname":"Dry Ridge","alternatenames":[""],"latitude":"38.68201","longitude":"-84.58994","feature_class":"P","feature_code":"PPL","country_code":"US","cc2":"","admin1_code":"KY","admin2_code":"081","admin3_code":"","admin4_code":"","population":"2191","elevation":"290","dem":"290","timezone":"America/New_York","modification_date":"2011-05-14"},{"geonameid":"4290685","name":"Earlington","asciiname":"Earlington","alternatenames":[""],"latitude":"37.27421","longitude":"-87.51194","feature_class":"P","feature_code":"PPL","country_code":"US","cc2":"","admin1_code":"KY","admin2_code":"107","admin3_code":"","admin4_code":"","population":"1413","elevation":"129","dem":"132","timezone":"America/Chicago","modification_date":"2011-05-14"},{"geonameid":"4290859","name":"Eddyville","asciiname":"Eddyville","alternatenames":[""],"latitude":"37.0945","longitude":"-88.0803","feature_class":"P","feature_code":"PPLA2","country_code":"US","cc2":"","admin1_code":"KY","admin2_code":"143","admin3_code":"","admin4_code":"","population":"2554","elevation":"155","dem":"155","timezone":"America/Chicago","modification_date":"2011-05-14"},{"geonameid":"4290873","name":"Edgewood","asciiname":"Edgewood","alternatenames":[""],"latitude":"39.01867","longitude":"-84.58189","feature_class":"P","feature_code":"PPL","country_code":"US","cc2":"","admin1_code":"KY","admin2_code":"117","admin3_code":"","admin4_code":"","population":"8575","elevation":"263","dem":"265","timezone":"America/New_York","modification_date":"2011-05-14"},{"geonameid":"4290886","name":"Edmonton","asciiname":"Edmonton","alternatenames":[""],"latitude":"36.98006","longitude":"-85.61219","feature_class":"P","feature_code":"PPLA2","country_code":"US","cc2":"","admin1_code":"KY","admin2_code":"169","admin3_code":"","admin4_code":"","population":"1595","elevation":"252","dem":"255","timezone":"America/Chicago","modification_date":"2011-05-14"},{"geonameid":"4290988","name":"Elizabethtown","asciiname":"Elizabethtown","alternatenames":["EKX","Ehlizabettaun","Elizabettaun","alyzabttawn  kntaky","yi li sha bai","Елизабеттаун","Элизабеттаун","الیزابتتاون، کنتاکی","伊丽莎白"],"latitude":"37.69395","longitude":"-85.85913","feature_class":"P","feature_code":"PPLA2","country_code":"US","cc2":"","admin1_code":"KY","admin2_code":"093","admin3_code":"","admin4_code":"","population":"28531","elevation":"221","dem":"222","timezone":"America/New_York","modification_date":"2011-05-14"},{"geonameid":"4291056","name":"Elkfork","asciiname":"Elkfork","alternatenames":[""],"latitude":"37.96481","longitude":"-83.13295","feature_class":"P","feature_code":"PPL","country_code":"US","cc2":"","admin1_code":"KY","admin2_code":"175","admin3_code":"","admin4_code":"","population":"1539","elevation":"261","dem":"263","timezone":"America/New_York","modification_date":"2011-05-14"},{"geonameid":"4291079","name":"Elkton","asciiname":"Elkton","alternatenames":[""],"latitude":"36.81004","longitude":"-87.15417","feature_class":"P","feature_code":"PPLA2","country_code":"US","cc2":"","admin1_code":"KY","admin2_code":"219","admin3_code":"","admin4_code":"","population":"2062","elevation":"190","dem":"190","timezone":"America/Chicago","modification_date":"2011-05-14"},{"geonameid":"4291156","name":"Elsmere","asciiname":"Elsmere","alternatenames":[""],"latitude":"39.01256","longitude":"-84.60467","feature_class":"P","feature_code":"PPL","country_code":"US","cc2":"","admin1_code":"KY","admin2_code":"117","admin3_code":"","admin4_code":"","population":"8451","elevation":"280","dem":"280","timezone":"America/New_York","modification_date":"2011-05-14"},{"geonameid":"4291181","name":"Eminence","asciiname":"Eminence","alternatenames":[""],"latitude":"38.37007","longitude":"-85.18051","feature_class":"P","feature_code":"PPL","country_code":"US","cc2":"","admin1_code":"KY","admin2_code":"103","admin3_code":"","admin4_code":"","population":"2498","elevation":"285","dem":"284","timezone":"America/New_York","modification_date":"2011-05-14"},{"geonameid":"4291255","name":"Erlanger","asciiname":"Erlanger","alternatenames":[""],"latitude":"39.01673","longitude":"-84.60078","feature_class":"P","feature_code":"PPL","country_code":"US","cc2":"","admin1_code":"KY","admin2_code":"117","admin3_code":"","admin4_code":"","population":"18082","elevation":"278","dem":"279","timezone":"America/New_York","modification_date":"2011-05-14"},{"geonameid":"4291373","name":"Fairdale","asciiname":"Fairdale","alternatenames":[""],"latitude":"38.10507","longitude":"-85.75885","feature_class":"P","feature_code":"PPL","country_code":"US","cc2":"","admin1_code":"KY","admin2_code":"111","admin3_code":"","admin4_code":"","population":"8148","elevation":"145","dem":"145","timezone":"America/Kentucky/Louisville","modification_date":"2006-01-17"},{"geonameid":"4291501","name":"Falmouth","asciiname":"Falmouth","alternatenames":[""],"latitude":"38.67674","longitude":"-84.33021","feature_class":"P","feature_code":"PPLA2","country_code":"US","cc2":"","admin1_code":"KY","admin2_code":"191","admin3_code":"","admin4_code":"","population":"2169","elevation":"168","dem":"170","timezone":"America/New_York","modification_date":"2011-05-14"},{"geonameid":"4291620","name":"Fern Creek","asciiname":"Fern Creek","alternatenames":[""],"latitude":"38.15979","longitude":"-85.58774","feature_class":"P","feature_code":"PPL","country_code":"US","cc2":"","admin1_code":"KY","admin2_code":"111","admin3_code":"","admin4_code":"","population":"18409","elevation":"216","dem":"221","timezone":"America/Kentucky/Louisville","modification_date":"2006-01-17"},{"geonameid":"4291884","name":"Flatwoods","asciiname":"Flatwoods","alternatenames":[""],"latitude":"38.52258","longitude":"-82.71711","feature_class":"P","feature_code":"PPL","country_code":"US","cc2":"","admin1_code":"KY","admin2_code":"089","admin3_code":"","admin4_code":"","population":"7423","elevation":"208","dem":"210","timezone":"America/New_York","modification_date":"2011-05-14"},{"geonameid":"4291905","name":"Flemingsburg","asciiname":"Flemingsburg","alternatenames":[""],"latitude":"38.4223","longitude":"-83.73381","feature_class":"P","feature_code":"PPLA2","country_code":"US","cc2":"","admin1_code":"KY","admin2_code":"069","admin3_code":"","admin4_code":"","population":"2658","elevation":"248","dem":"253","timezone":"America/New_York","modification_date":"2011-05-14"},{"geonameid":"4291945","name":"Florence","asciiname":"Florence","alternatenames":["Florencija","Florens","flwrns  kntaky","fu luo lun sa","Флоренс","Флоренция","فلورنس، کنتاکی","佛羅倫薩"],"latitude":"38.99895","longitude":"-84.62661","feature_class":"P","feature_code":"PPL","country_code":"US","cc2":"","admin1_code":"KY","admin2_code":"015","admin3_code":"","admin4_code":"","population":"29951","elevation":"282","dem":"282","timezone":"America/New_York","modification_date":"2011-05-14"},{"geonameid":"4292067","name":"Fort Mitchell","asciiname":"Fort Mitchell","alternatenames":[""],"latitude":"39.0595","longitude":"-84.54744","feature_class":"P","feature_code":"PPL","country_code":"US","cc2":"","admin1_code":"KY","admin2_code":"117","admin3_code":"","admin4_code":"","population":"8207","elevation":"260","dem":"266","timezone":"America/New_York","modification_date":"2011-05-14"},{"geonameid":"4292071","name":"Fort Thomas","asciiname":"Fort Thomas","alternatenames":[""],"latitude":"39.07506","longitude":"-84.44716","feature_class":"P","feature_code":"PPL","country_code":"US","cc2":"","admin1_code":"KY","admin2_code":"037","admin3_code":"","admin4_code":"","population":"16325","elevation":"262","dem":"264","timezone":"America/New_York","modification_date":"2011-05-14"},{"geonameid":"4292072","name":"Fort Wright","asciiname":"Fort Wright","alternatenames":[""],"latitude":"39.05173","longitude":"-84.53411","feature_class":"P","feature_code":"PPL","country_code":"US","cc2":"","admin1_code":"KY","admin2_code":"117","admin3_code":"","admin4_code":"","population":"5723","elevation":"258","dem":"261","timezone":"America/New_York","modification_date":"2011-05-14"},{"geonameid":"4292182","name":"Francisville","asciiname":"Francisville","alternatenames":[""],"latitude":"39.10506","longitude":"-84.72439","feature_class":"P","feature_code":"PPL","country_code":"US","cc2":"","admin1_code":"KY","admin2_code":"015","admin3_code":"","admin4_code":"","population":"7944","elevation":"248","dem":"248","timezone":"America/New_York","modification_date":"2011-05-14"},{"geonameid":"4292188","name":"Frankfort","asciiname":"Frankfort","alternatenames":["FFT","Fran'kfort","Frankfort","Frankforta","Frankfortas","Frankforts","Frankfurt","Frehnkfort","Frenkfort","Gorad Frankfart","fa lan ke fu","frankfwrt  kntaky","furankufoto","peulaengkeupeoteu","phramkaphorta","phrankapharta","piranport","prnqpwrt","Φράνκφορτ","Горад Франкфарт","Франкфорт","Франкфурт","Френкфорт","Фрэнкфорт","Ֆրանկֆորտ","פרנקפורט","فرانكفورت، كنتاكي","فرانکفورت، کنتاکی","فرینکفورٹ","फ्रँकफोर्ट","फ्राङ्कफर्त","பிராங்போர்ட்","แฟรงก์เฟิร์ต","フランクフォート","法兰克福","프랭크퍼트"],"latitude":"38.20091","longitude":"-84.87328","feature_class":"P","feature_code":"PPLA","country_code":"US","cc2":"","admin1_code":"KY","admin2_code":"073","admin3_code":"","admin4_code":"","population":"25527","elevation":"155","dem":"154","timezone":"America/New_York","modification_date":"2011-05-14"},{"geonameid":"4292193","name":"Franklin","asciiname":"Franklin","alternatenames":["Franklin","Frehnklin","franklyn  kntaky","fu lan ke lin","Франклин","Фрэнклин","فرانکلین، کنتاکی","富兰克林"],"latitude":"36.72226","longitude":"-86.57722","feature_class":"P","feature_code":"PPLA2","country_code":"US","cc2":"","admin1_code":"KY","admin2_code":"213","admin3_code":"","admin4_code":"","population":"8408","elevation":"216","dem":"219","timezone":"America/Chicago","modification_date":"2011-05-14"},{"geonameid":"4292308","name":"Frenchburg","asciiname":"Frenchburg","alternatenames":[""],"latitude":"37.95092","longitude":"-83.62575","feature_class":"P","feature_code":"PPLA2","country_code":"US","cc2":"","admin1_code":"KY","admin2_code":"165","admin3_code":"","admin4_code":"","population":"486","elevation":"266","dem":"274","timezone":"America/New_York","modification_date":"2011-05-14"},{"geonameid":"4292424","name":"Fulton","asciiname":"Fulton","alternatenames":[""],"latitude":"36.50423","longitude":"-88.87423","feature_class":"P","feature_code":"PPL","country_code":"US","cc2":"","admin1_code":"KY","admin2_code":"075","admin3_code":"","admin4_code":"","population":"2445","elevation":"110","dem":"112","timezone":"America/Chicago","modification_date":"2011-05-14"},{"geonameid":"4292686","name":"Georgetown","asciiname":"Georgetown","alternatenames":["Dzhorzhtaun","Dzordztaun","jojitaun","jrjtawn  kntaky","qiao zhi dui","Џорџтаун","Джоржтаун","جرجتاون، کنتاکی","ジョージタウン","乔治敦","조지타운"],"latitude":"38.2098","longitude":"-84.55883","feature_class":"P","feature_code":"PPLA2","country_code":"US","cc2":"","admin1_code":"KY","admin2_code":"209","admin3_code":"","admin4_code":"","population":"29098","elevation":"258","dem":"259","timezone":"America/New_York","modification_date":"2011-05-14"},{"geonameid":"4292826","name":"Glasgow","asciiname":"Glasgow","alternatenames":["GLW","Glazgou","ge la si ge","glsgww  kntaky","Глазгоу","گلسگوو، کنتاکی","格拉斯哥"],"latitude":"36.99588","longitude":"-85.91192","feature_class":"P","feature_code":"PPLA2","country_code":"US","cc2":"","admin1_code":"KY","admin2_code":"009","admin3_code":"","admin4_code":"","population":"14028","elevation":"230","dem":"228","timezone":"America/Chicago","modification_date":"2011-05-14"},{"geonameid":"4293284","name":"Graymoor-Devondale","asciiname":"Graymoor-Devondale","alternatenames":[""],"latitude":"38.27313","longitude":"-85.62302","feature_class":"P","feature_code":"PPL","country_code":"US","cc2":"","admin1_code":"KY","admin2_code":"111","admin3_code":"","admin4_code":"","population":"2870","elevation":"179","dem":"185","timezone":"America/Kentucky/Louisville","modification_date":"2011-05-14"},{"geonameid":"4293311","name":"Grayson","asciiname":"Grayson","alternatenames":[""],"latitude":"38.33258","longitude":"-82.9485","feature_class":"P","feature_code":"PPLA2","country_code":"US","cc2":"","admin1_code":"KY","admin2_code":"043","admin3_code":"","admin4_code":"","population":"4217","elevation":"193","dem":"193","timezone":"America/New_York","modification_date":"2011-05-14"},{"geonameid":"4293470","name":"Greensburg","asciiname":"Greensburg","alternatenames":["Grinsburg","ge lin","grynzbrg  kntaky","Гринсбург","گرینزبرگ، کنتاکی","格林"],"latitude":"37.26089","longitude":"-85.49885","feature_class":"P","feature_code":"PPLA2","country_code":"US","cc2":"","admin1_code":"KY","admin2_code":"087","admin3_code":"","admin4_code":"","population":"2163","elevation":"183","dem":"183","timezone":"America/Chicago","modification_date":"2011-05-14"},{"geonameid":"4293473","name":"Greenup","asciiname":"Greenup","alternatenames":["Grinap","Grinup","ge li na pu","grynap  kntaky","Гринап","Гринуп","گریناپ، کنتاکی","格里纳普"],"latitude":"38.57313","longitude":"-82.83017","feature_class":"P","feature_code":"PPLA2","country_code":"US","cc2":"","admin1_code":"KY","admin2_code":"089","admin3_code":"","admin4_code":"","population":"1188","elevation":"160","dem":"163","timezone":"America/New_York","modification_date":"2011-05-14"},{"geonameid":"4293477","name":"Greenville","asciiname":"Greenville","alternatenames":["Grinvil","Grinvill","ge lin wei er","grynwyl  kntaky","Гринвил","Гринвилл","گرینویل، کنتاکی","格林维尔"],"latitude":"37.20115","longitude":"-87.17889","feature_class":"P","feature_code":"PPLA2","country_code":"US","cc2":"","admin1_code":"KY","admin2_code":"177","admin3_code":"","admin4_code":"","population":"4312","elevation":"160","dem":"164","timezone":"America/Chicago","modification_date":"2011-05-14"},{"geonameid":"4293704","name":"Guthrie","asciiname":"Guthrie","alternatenames":[""],"latitude":"36.64838","longitude":"-87.16639","feature_class":"P","feature_code":"PPL","country_code":"US","cc2":"","admin1_code":"KY","admin2_code":"219","admin3_code":"","admin4_code":"","population":"1419","elevation":"167","dem":"168","timezone":"America/Chicago","modification_date":"2011-05-14"},{"geonameid":"4294044","name":"Hardinsburg","asciiname":"Hardinsburg","alternatenames":[""],"latitude":"37.78006","longitude":"-86.46053","feature_class":"P","feature_code":"PPLA2","country_code":"US","cc2":"","admin1_code":"KY","admin2_code":"027","admin3_code":"","admin4_code":"","population":"2343","elevation":"216","dem":"216","timezone":"America/Chicago","modification_date":"2011-05-14"},{"geonameid":"4294072","name":"Harlan","asciiname":"Harlan","alternatenames":[""],"latitude":"36.84314","longitude":"-83.32185","feature_class":"P","feature_code":"PPLA2","country_code":"US","cc2":"","admin1_code":"KY","admin2_code":"095","admin3_code":"","admin4_code":"","population":"1745","elevation":"363","dem":"363","timezone":"America/New_York","modification_date":"2011-05-14"},{"geonameid":"4294180","name":"Harrodsburg","asciiname":"Harrodsburg","alternatenames":["Kharodsburg","Kharrodsburg","ha luo ci bai ge","harwdsbwrg","Хародсбург","Харродсбург","هارودسبورگ","哈洛兹柏格"],"latitude":"37.7623","longitude":"-84.84329","feature_class":"P","feature_code":"PPLA2","country_code":"US","cc2":"","admin1_code":"KY","admin2_code":"167","admin3_code":"","admin4_code":"","population":"8340","elevation":"259","dem":"260","timezone":"America/New_York","modification_date":"2011-05-14"},{"geonameid":"4294195","name":"Hartford","asciiname":"Hartford","alternatenames":["Khartford","Хартфорд"],"latitude":"37.45116","longitude":"-86.90916","feature_class":"P","feature_code":"PPLA2","country_code":"US","cc2":"","admin1_code":"KY","admin2_code":"183","admin3_code":"","admin4_code":"","population":"2672","elevation":"127","dem":"127","timezone":"America/Chicago","modification_date":"2011-05-14"},{"geonameid":"4294267","name":"Hawesville","asciiname":"Hawesville","alternatenames":[""],"latitude":"37.90006","longitude":"-86.75499","feature_class":"P","feature_code":"PPLA2","country_code":"US","cc2":"","admin1_code":"KY","admin2_code":"091","admin3_code":"","admin4_code":"","population":"945","elevation":"158","dem":"163","timezone":"America/Chicago","modification_date":"2011-05-14"},{"geonameid":"4294349","name":"Hazard","asciiname":"Hazard","alternatenames":["Khazard","ha ze de","haejeodeu","hzrd  kntaky","Хазард","هزرد، کنتاکی","哈泽德","해저드"],"latitude":"37.24954","longitude":"-83.19323","feature_class":"P","feature_code":"PPLA2","country_code":"US","cc2":"","admin1_code":"KY","admin2_code":"193","admin3_code":"","admin4_code":"","population":"4456","elevation":"283","dem":"279","timezone":"America/New_York","modification_date":"2011-05-14"},{"geonameid":"4294425","name":"Hebron","asciiname":"Hebron","alternatenames":[""],"latitude":"39.06589","longitude":"-84.70106","feature_class":"P","feature_code":"PPL","country_code":"US","cc2":"","admin1_code":"KY","admin2_code":"015","admin3_code":"","admin4_code":"","population":"5929","elevation":"268","dem":"270","timezone":"America/New_York","modification_date":"2011-05-14"},{"geonameid":"4294433","name":"Hebron Estates","asciiname":"Hebron Estates","alternatenames":[""],"latitude":"38.04951","longitude":"-85.66607","feature_class":"P","feature_code":"PPL","country_code":"US","cc2":"","admin1_code":"KY","admin2_code":"029","admin3_code":"","admin4_code":"","population":"1087","elevation":"157","dem":"158","timezone":"America/New_York","modification_date":"2011-05-14"},{"geonameid":"4294494","name":"Henderson","asciiname":"Henderson","alternatenames":["Khenderson","heng de sen","hndrsn  kntaky","Хендерсон","هندرسن، کنتاکی","亨德森"],"latitude":"37.83615","longitude":"-87.59001","feature_class":"P","feature_code":"PPLA2","country_code":"US","cc2":"","admin1_code":"KY","admin2_code":"101","admin3_code":"","admin4_code":"","population":"28757","elevation":"124","dem":"123","timezone":"America/Chicago","modification_date":"2011-05-14"},{"geonameid":"4294526","name":"Hendron","asciiname":"Hendron","alternatenames":[""],"latitude":"37.0395","longitude":"-88.62922","feature_class":"P","feature_code":"PPL","country_code":"US","cc2":"","admin1_code":"KY","admin2_code":"145","admin3_code":"","admin4_code":"","population":"4687","elevation":"112","dem":"114","timezone":"America/Chicago","modification_date":"2011-05-14"},{"geonameid":"4294625","name":"Hickman","asciiname":"Hickman","alternatenames":[""],"latitude":"36.57117","longitude":"-89.18618","feature_class":"P","feature_code":"PPLA2","country_code":"US","cc2":"","admin1_code":"KY","admin2_code":"075","admin3_code":"","admin4_code":"","population":"2395","elevation":"142","dem":"144","timezone":"America/Chicago","modification_date":"2011-05-14"},{"geonameid":"4294788","name":"Highland Heights","asciiname":"Highland Heights","alternatenames":[""],"latitude":"39.03312","longitude":"-84.45189","feature_class":"P","feature_code":"PPL","country_code":"US","cc2":"","admin1_code":"KY","admin2_code":"037","admin3_code":"","admin4_code":"","population":"6923","elevation":"260","dem":"260","timezone":"America/New_York","modification_date":"2011-05-14"},{"geonameid":"4294799","name":"Highview","asciiname":"Highview","alternatenames":[""],"latitude":"38.14285","longitude":"-85.62413","feature_class":"P","feature_code":"PPL","country_code":"US","cc2":"","admin1_code":"KY","admin2_code":"111","admin3_code":"","admin4_code":"","population":"15167","elevation":"205","dem":"208","timezone":"America/Kentucky/Louisville","modification_date":"2006-01-17"},{"geonameid":"4294858","name":"Hillview","asciiname":"Hillview","alternatenames":[""],"latitude":"38.06979","longitude":"-85.68551","feature_class":"P","feature_code":"PPL","country_code":"US","cc2":"","admin1_code":"KY","admin2_code":"029","admin3_code":"","admin4_code":"","population":"8172","elevation":"165","dem":"167","timezone":"America/New_York","modification_date":"2011-05-14"},{"geonameid":"4294872","name":"Hindman","asciiname":"Hindman","alternatenames":[""],"latitude":"37.33593","longitude":"-82.98044","feature_class":"P","feature_code":"PPLA2","country_code":"US","cc2":"","admin1_code":"KY","admin2_code":"119","admin3_code":"","admin4_code":"","population":"777","elevation":"340","dem":"322","timezone":"America/New_York","modification_date":"2011-05-14"},{"geonameid":"4294937","name":"Hodgenville","asciiname":"Hodgenville","alternatenames":["Khodzenvil","Khodzhenvill","hajnwyl  kntaky","Ходженвилл","Хоџенвил","هاجنویل، کنتاکی"],"latitude":"37.57395","longitude":"-85.73996","feature_class":"P","feature_code":"PPLA2","country_code":"US","cc2":"","admin1_code":"KY","admin2_code":"123","admin3_code":"","admin4_code":"","population":"3206","elevation":"222","dem":"222","timezone":"America/New_York","modification_date":"2011-05-14"},{"geonameid":"4295251","name":"Hopkinsville","asciiname":"Hopkinsville","alternatenames":["Khopkinsvil","Khopkinsvill","Khopkinsville","hapkynzwyl","huo pu jin si","Хопкинсвил","Хопкинсвилл","Хопкинсвилле","هاپکینزویل","霍普金斯"],"latitude":"36.86561","longitude":"-87.49117","feature_class":"P","feature_code":"PPLA2","country_code":"US","cc2":"","admin1_code":"KY","admin2_code":"047","admin3_code":"","admin4_code":"","population":"31577","elevation":"161","dem":"159","timezone":"America/Chicago","modification_date":"2014-08-24"},{"geonameid":"4295288","name":"Horse Cave","asciiname":"Horse Cave","alternatenames":[""],"latitude":"37.1795","longitude":"-85.90692","feature_class":"P","feature_code":"PPL","country_code":"US","cc2":"","admin1_code":"KY","admin2_code":"099","admin3_code":"","admin4_code":"","population":"2311","elevation":"193","dem":"194","timezone":"America/Chicago","modification_date":"2011-05-14"},{"geonameid":"4295686","name":"Hurstbourne Acres","asciiname":"Hurstbourne Acres","alternatenames":[""],"latitude":"38.22118","longitude":"-85.58913","feature_class":"P","feature_code":"PPL","country_code":"US","cc2":"","admin1_code":"KY","admin2_code":"111","admin3_code":"","admin4_code":"","population":"1811","elevation":"203","dem":"200","timezone":"America/Kentucky/Louisville","modification_date":"2011-05-14"},{"geonameid":"4295689","name":"Hurstbourne","asciiname":"Hurstbourne","alternatenames":[""],"latitude":"38.23813","longitude":"-85.58829","feature_class":"P","feature_code":"PPL","country_code":"US","cc2":"","admin1_code":"KY","admin2_code":"111","admin3_code":"","admin4_code":"","population":"4216","elevation":"191","dem":"194","timezone":"America/Kentucky/Louisville","modification_date":"2011-05-14"},{"geonameid":"4295712","name":"Hyden","asciiname":"Hyden","alternatenames":[""],"latitude":"37.16093","longitude":"-83.37324","feature_class":"P","feature_code":"PPLA2","country_code":"US","cc2":"","admin1_code":"KY","admin2_code":"131","admin3_code":"","admin4_code":"","population":"365","elevation":"281","dem":"278","timezone":"America/New_York","modification_date":"2011-05-14"},{"geonameid":"4295776","name":"Independence","asciiname":"Independence","alternatenames":[""],"latitude":"38.94312","longitude":"-84.54411","feature_class":"P","feature_code":"PPL","country_code":"US","cc2":"","admin1_code":"KY","admin2_code":"117","admin3_code":"","admin4_code":"","population":"24757","elevation":"274","dem":"274","timezone":"America/New_York","modification_date":"2011-05-14"},{"geonameid":"4295852","name":"Indian Hills","asciiname":"Indian Hills","alternatenames":[""],"latitude":"38.27257","longitude":"-85.66274","feature_class":"P","feature_code":"PPL","country_code":"US","cc2":"","admin1_code":"KY","admin2_code":"111","admin3_code":"","admin4_code":"","population":"2868","elevation":"160","dem":"170","timezone":"America/Kentucky/Louisville","modification_date":"2011-05-14"},{"geonameid":"4295856","name":"Indian Hills Cherokee Section","asciiname":"Indian Hills Cherokee Section","alternatenames":[""],"latitude":"38.27951","longitude":"-85.64996","feature_class":"P","feature_code":"PPL","country_code":"US","cc2":"","admin1_code":"KY","admin2_code":"111","admin3_code":"","admin4_code":"","population":"1011","elevation":"180","dem":"184","timezone":"America/Kentucky/Louisville","modification_date":"2006-01-15"},{"geonameid":"4295878","name":"Inez","asciiname":"Inez","alternatenames":[""],"latitude":"37.86648","longitude":"-82.53876","feature_class":"P","feature_code":"PPLA2","country_code":"US","cc2":"","admin1_code":"KY","admin2_code":"159","admin3_code":"","admin4_code":"","population":"717","elevation":"194","dem":"198","timezone":"America/New_York","modification_date":"2011-05-14"},{"geonameid":"4295940","name":"Ironville","asciiname":"Ironville","alternatenames":[""],"latitude":"38.45647","longitude":"-82.69238","feature_class":"P","feature_code":"PPL","country_code":"US","cc2":"","admin1_code":"KY","admin2_code":"019","admin3_code":"","admin4_code":"","population":"288649","elevation":"219","dem":"221","timezone":"America/New_York","modification_date":"2012-07-14"},{"geonameid":"4295954","name":"Irvine","asciiname":"Irvine","alternatenames":["Irvin","Ирвин"],"latitude":"37.70064","longitude":"-83.97381","feature_class":"P","feature_code":"PPLA2","country_code":"US","cc2":"","admin1_code":"KY","admin2_code":"065","admin3_code":"","admin4_code":"","population":"2715","elevation":"207","dem":"208","timezone":"America/New_York","modification_date":"2011-05-14"},{"geonameid":"4295960","name":"Irvington","asciiname":"Irvington","alternatenames":[""],"latitude":"37.88034","longitude":"-86.28386","feature_class":"P","feature_code":"PPL","country_code":"US","cc2":"","admin1_code":"KY","admin2_code":"027","admin3_code":"","admin4_code":"","population":"1181","elevation":"189","dem":"192","timezone":"America/Chicago","modification_date":"2011-05-14"},{"geonameid":"4296081","name":"Jackson","asciiname":"Jackson","alternatenames":["Dzekson","Dzhehkson","Dzhekson","jakuson","jie ke xun","jksn  kntaky","Џексон","Джексон","Джэксон","جکسن، کنتاکی","ジャクソン","杰克逊"],"latitude":"37.55315","longitude":"-83.38351","feature_class":"P","feature_code":"PPLA2","country_code":"US","cc2":"","admin1_code":"KY","admin2_code":"025","admin3_code":"","admin4_code":"","population":"2231","elevation":"236","dem":"240","timezone":"America/New_York","modification_date":"2011-05-14"},{"geonameid":"4296173","name":"Jamestown","asciiname":"Jamestown","alternatenames":[""],"latitude":"36.98479","longitude":"-85.06301","feature_class":"P","feature_code":"PPLA2","country_code":"US","cc2":"","admin1_code":"KY","admin2_code":"207","admin3_code":"","admin4_code":"","population":"1794","elevation":"296","dem":"294","timezone":"America/Chicago","modification_date":"2011-05-14"},{"geonameid":"4296218","name":"Jeffersontown","asciiname":"Jeffersontown","alternatenames":["Dzefersontaun","Dzhehfferstoun","jfrsntawn  kntaky","Џеферсонтаун","Джэфферстоун","جفرسنتاون، کنتاکی"],"latitude":"38.19424","longitude":"-85.5644","feature_class":"P","feature_code":"PPL","country_code":"US","cc2":"","admin1_code":"KY","admin2_code":"111","admin3_code":"","admin4_code":"","population":"26595","elevation":"214","dem":"215","timezone":"America/Kentucky/Louisville","modification_date":"2011-05-14"},{"geonameid":"4296219","name":"Jeffersonville","asciiname":"Jeffersonville","alternatenames":[""],"latitude":"37.97369","longitude":"-83.84186","feature_class":"P","feature_code":"PPL","country_code":"US","cc2":"","admin1_code":"KY","admin2_code":"173","admin3_code":"","admin4_code":"","population":"1506","elevation":"249","dem":"249","timezone":"America/New_York","modification_date":"2011-05-14"},{"geonameid":"4296229","name":"Jenkins","asciiname":"Jenkins","alternatenames":[""],"latitude":"37.17344","longitude":"-82.63099","feature_class":"P","feature_code":"PPL","country_code":"US","cc2":"","admin1_code":"KY","admin2_code":"133","admin3_code":"","admin4_code":"","population":"2203","elevation":"469","dem":"474","timezone":"America/New_York","modification_date":"2011-05-14"},{"geonameid":"4296734","name":"Junction City","asciiname":"Junction City","alternatenames":[""],"latitude":"37.58674","longitude":"-84.79384","feature_class":"P","feature_code":"PPL","country_code":"US","cc2":"","admin1_code":"KY","admin2_code":"021","admin3_code":"","admin4_code":"","population":"2241","elevation":"302","dem":"302","timezone":"America/New_York","modification_date":"2011-05-14"},{"geonameid":"4297184","name":"Knottsville","asciiname":"Knottsville","alternatenames":[""],"latitude":"37.77172","longitude":"-86.90416","feature_class":"P","feature_code":"PPL","country_code":"US","cc2":"","admin1_code":"KY","admin2_code":"059","admin3_code":"","admin4_code":"","population":"6270","elevation":"173","dem":"170","timezone":"America/Chicago","modification_date":"2013-05-05"},{"geonameid":"4297236","name":"La Center","asciiname":"La Center","alternatenames":[""],"latitude":"37.07672","longitude":"-88.97368","feature_class":"P","feature_code":"PPL","country_code":"US","cc2":"","admin1_code":"KY","admin2_code":"007","admin3_code":"","admin4_code":"","population":"1009","elevation":"112","dem":"113","timezone":"America/Chicago","modification_date":"2011-05-14"},{"geonameid":"4297238","name":"La Grange","asciiname":"La Grange","alternatenames":[""],"latitude":"38.40757","longitude":"-85.37885","feature_class":"P","feature_code":"PPLA2","country_code":"US","cc2":"","admin1_code":"KY","admin2_code":"185","admin3_code":"","admin4_code":"","population":"8082","elevation":"263","dem":"265","timezone":"America/New_York","modification_date":"2011-05-14"},{"geonameid":"4297318","name":"Lakeside Park","asciiname":"Lakeside Park","alternatenames":[""],"latitude":"39.03562","longitude":"-84.56911","feature_class":"P","feature_code":"PPL","country_code":"US","cc2":"","admin1_code":"KY","admin2_code":"117","admin3_code":"","admin4_code":"","population":"2668","elevation":"259","dem":"260","timezone":"America/New_York","modification_date":"2011-05-14"},{"geonameid":"4297354","name":"Lancaster","asciiname":"Lancaster","alternatenames":["Lankaster","lan kai si te","lnkstr  kntaky","Ланкастер","لنکستر، کنتاکی","兰开斯特"],"latitude":"37.61952","longitude":"-84.578","feature_class":"P","feature_code":"PPLA2","country_code":"US","cc2":"","admin1_code":"KY","admin2_code":"079","admin3_code":"","admin4_code":"","population":"3442","elevation":"313","dem":"316","timezone":"America/New_York","modification_date":"2011-05-14"},{"geonameid":"4297581","name":"Lawrenceburg","asciiname":"Lawrenceburg","alternatenames":["Laurensburg","Lorensburg","lao lun si bao","larnsbrg  kntaky","lolenseubeogeu","rorensubagu","Лауренсбург","Лоренсбург","لارنسبرگ، کنتاکی","ローレンスバーグ","劳伦斯堡","로렌스버그"],"latitude":"38.0373","longitude":"-84.89662","feature_class":"P","feature_code":"PPLA2","country_code":"US","cc2":"","admin1_code":"KY","admin2_code":"005","admin3_code":"","admin4_code":"","population":"10505","elevation":"240","dem":"240","timezone":"America/New_York","modification_date":"2011-05-14"},{"geonameid":"4297653","name":"Lebanon","asciiname":"Lebanon","alternatenames":["Lebanon","lbnan  kntaky","li ba nen","Лебанон","لبنان، کنتاکی","黎巴嫩"],"latitude":"37.56979","longitude":"-85.25274","feature_class":"P","feature_code":"PPLA2","country_code":"US","cc2":"","admin1_code":"KY","admin2_code":"155","admin3_code":"","admin4_code":"","population":"5539","elevation":"241","dem":"241","timezone":"America/New_York","modification_date":"2011-05-14"},{"geonameid":"4297664","name":"Lebanon Junction","asciiname":"Lebanon Junction","alternatenames":[""],"latitude":"37.83451","longitude":"-85.7319","feature_class":"P","feature_code":"PPL","country_code":"US","cc2":"","admin1_code":"KY","admin2_code":"029","admin3_code":"","admin4_code":"","population":"1813","elevation":"140","dem":"141","timezone":"America/New_York","modification_date":"2011-05-14"},{"geonameid":"4297673","name":"Ledbetter","asciiname":"Ledbetter","alternatenames":[""],"latitude":"37.04756","longitude":"-88.47699","feature_class":"P","feature_code":"PPL","country_code":"US","cc2":"","admin1_code":"KY","admin2_code":"139","admin3_code":"","admin4_code":"","population":"1683","elevation":"106","dem":"108","timezone":"America/Chicago","modification_date":"2011-05-14"},{"geonameid":"4297882","name":"Leitchfield","asciiname":"Leitchfield","alternatenames":[""],"latitude":"37.48005","longitude":"-86.29386","feature_class":"P","feature_code":"PPLA2","country_code":"US","cc2":"","admin1_code":"KY","admin2_code":"085","admin3_code":"","admin4_code":"","population":"6699","elevation":"227","dem":"229","timezone":"America/Chicago","modification_date":"2011-05-14"},{"geonameid":"4297979","name":"Lewisport","asciiname":"Lewisport","alternatenames":[""],"latitude":"37.937","longitude":"-86.90221","feature_class":"P","feature_code":"PPL","country_code":"US","cc2":"","admin1_code":"KY","admin2_code":"091","admin3_code":"","admin4_code":"","population":"1670","elevation":"121","dem":"120","timezone":"America/Chicago","modification_date":"2011-05-14"},{"geonameid":"4297983","name":"Lexington","asciiname":"Lexington","alternatenames":["LEX","Leksington","Leksingtonas","Leksingtono","Leksingtun","Leksinqton","Lexington","Lexington-Fayette","Lexintonia","legsingteon","lie ke xing dui","lkzyngtwn  kntaky","lqsyngtwn","lyksynghtwn  kntaky","rekishinton","Лексингтон","Лексингтън","לקסינגטון","ليكسينغتون، كنتاكي","لکزینگتون، کنتاکی","ലെക്സിങ്ടൺ","ლექსინგტონი","レキシントン","列克星敦","렉싱턴"],"latitude":"37.98869","longitude":"-84.47772","feature_class":"P","feature_code":"PPLA2","country_code":"US","cc2":"","admin1_code":"KY","admin2_code":"067","admin3_code":"","admin4_code":"","population":"225366","elevation":"295","dem":"298","timezone":"America/New_York","modification_date":"2011-03-02"},{"geonameid":"4297999","name":"Lexington-Fayette","asciiname":"Lexington-Fayette","alternatenames":[""],"latitude":"38.0498","longitude":"-84.45855","feature_class":"P","feature_code":"PPL","country_code":"US","cc2":"","admin1_code":"KY","admin2_code":"067","admin3_code":"","admin4_code":"","population":"295803","elevation":"305","dem":"304","timezone":"America/New_York","modification_date":"2011-05-14"},{"geonameid":"4298003","name":"Liberty","asciiname":"Liberty","alternatenames":[""],"latitude":"37.31841","longitude":"-84.9394","feature_class":"P","feature_code":"PPLA2","country_code":"US","cc2":"","admin1_code":"KY","admin2_code":"045","admin3_code":"","admin4_code":"","population":"2168","elevation":"247","dem":"248","timezone":"America/New_York","modification_date":"2011-05-14"},{"geonameid":"4298805","name":"Livermore","asciiname":"Livermore","alternatenames":["Livurmor","Ливърмор"],"latitude":"37.4931","longitude":"-87.13194","feature_class":"P","feature_code":"PPL","country_code":"US","cc2":"","admin1_code":"KY","admin2_code":"149","admin3_code":"","admin4_code":"","population":"1365","elevation":"124","dem":"127","timezone":"America/Chicago","modification_date":"2011-05-14"},{"geonameid":"4298960","name":"London","asciiname":"London","alternatenames":["LOZ","Landon","London","lndn  kntaky","lun dui","Ландон","Лондон","لندن، کنتاکی","伦敦"],"latitude":"37.12898","longitude":"-84.08326","feature_class":"P","feature_code":"PPLA2","country_code":"US","cc2":"","admin1_code":"KY","admin2_code":"125","admin3_code":"","admin4_code":"","population":"7993","elevation":"378","dem":"379","timezone":"America/New_York","modification_date":"2014-04-21"},{"geonameid":"4299275","name":"Louisa","asciiname":"Louisa","alternatenames":[""],"latitude":"38.11425","longitude":"-82.60321","feature_class":"P","feature_code":"PPLA2","country_code":"US","cc2":"","admin1_code":"KY","admin2_code":"127","admin3_code":"","admin4_code":"","population":"2467","elevation":"178","dem":"176","timezone":"America/New_York","modification_date":"2011-05-14"},{"geonameid":"4299276","name":"Louisville","asciiname":"Louisville","alternatenames":["Gorad Luisvil","Louisvil","Louisville","Louisville-Jefferson County","Ludovicopolis","Luisvil","Luisvila","Luisvilis","Luisvill","Luivil","Lujzvill","SDF","lu yi wei er","lu'ivhila","lu-ibil","luisvili","luizvili","luy s will","luyivil","lwyfyl  kntaky","lwyywyl","ruibiru","Λούισβιλ","Горад Луісвіл","Луивил","Луисвил","Луисвилл","Луйзвилл","Луїсвілл","Լուիսվիլ","לואיוויל","لويفيل، كنتاكي","لوییویل","लुईव्हिल","லூயிவில்","ลุยส์วิลล์","ლუიზვილი","ლუისვილი","ルイビル","路易維爾","루이빌"],"latitude":"38.25424","longitude":"-85.75941","feature_class":"P","feature_code":"PPLA2","country_code":"US","cc2":"","admin1_code":"KY","admin2_code":"111","admin3_code":"","admin4_code":"","population":"243639","elevation":"142","dem":"143","timezone":"America/Kentucky/Louisville","modification_date":"2014-10-27"},{"geonameid":"4299510","name":"Loyall","asciiname":"Loyall","alternatenames":[""],"latitude":"36.85203","longitude":"-83.35407","feature_class":"P","feature_code":"PPL","country_code":"US","cc2":"","admin1_code":"KY","admin2_code":"095","admin3_code":"","admin4_code":"","population":"1461","elevation":"358","dem":"355","timezone":"America/New_York","modification_date":"2011-05-14"},{"geonameid":"4299531","name":"Ludlow","asciiname":"Ludlow","alternatenames":[""],"latitude":"39.09256","longitude":"-84.54744","feature_class":"P","feature_code":"PPL","country_code":"US","cc2":"","admin1_code":"KY","admin2_code":"117","admin3_code":"","admin4_code":"","population":"4407","elevation":"164","dem":"165","timezone":"America/New_York","modification_date":"2011-05-14"},{"geonameid":"4299562","name":"Lyndon","asciiname":"Lyndon","alternatenames":["Lindon","lin deng","lyndn  kntaky","Линдон","لیندن، کنتاکی","林登"],"latitude":"38.25674","longitude":"-85.60163","feature_class":"P","feature_code":"PPL","country_code":"US","cc2":"","admin1_code":"KY","admin2_code":"111","admin3_code":"","admin4_code":"","population":"11002","elevation":"177","dem":"180","timezone":"America/Kentucky/Louisville","modification_date":"2011-05-14"},{"geonameid":"4299670","name":"Madisonville","asciiname":"Madisonville","alternatenames":["Medisonvil","Mehdisonvil'","mai di xun wei er","mdsnwyl  kntaky","medisanavhila","Медисонвил","Мэдисонвиль","مدسنویل، کنتاکی","मॅडिसनव्हिल","麦迪逊维尔"],"latitude":"37.3281","longitude":"-87.49889","feature_class":"P","feature_code":"PPLA2","country_code":"US","cc2":"","admin1_code":"KY","admin2_code":"107","admin3_code":"","admin4_code":"","population":"19591","elevation":"144","dem":"144","timezone":"America/Chicago","modification_date":"2011-05-14"},{"geonameid":"4299741","name":"Manchester","asciiname":"Manchester","alternatenames":["Manchester","Манчестер"],"latitude":"37.1537","longitude":"-83.76186","feature_class":"P","feature_code":"PPLA2","country_code":"US","cc2":"","admin1_code":"KY","admin2_code":"051","admin3_code":"","admin4_code":"","population":"1255","elevation":"265","dem":"278","timezone":"America/New_York","modification_date":"2011-05-14"},{"geonameid":"4299842","name":"Marion","asciiname":"Marion","alternatenames":["Mehrion","Мэрион"],"latitude":"37.33283","longitude":"-88.08113","feature_class":"P","feature_code":"PPLA2","country_code":"US","cc2":"","admin1_code":"KY","admin2_code":"055","admin3_code":"","admin4_code":"","population":"3039","elevation":"181","dem":"181","timezone":"America/Chicago","modification_date":"2011-05-14"},{"geonameid":"4300024","name":"Masonville","asciiname":"Masonville","alternatenames":[""],"latitude":"37.67505","longitude":"-87.03472","feature_class":"P","feature_code":"PPL","country_code":"US","cc2":"","admin1_code":"KY","admin2_code":"059","admin3_code":"","admin4_code":"","population":"1014","elevation":"129","dem":"129","timezone":"America/Chicago","modification_date":"2011-05-14"},{"geonameid":"4300026","name":"Massac","asciiname":"Massac","alternatenames":[""],"latitude":"37.01672","longitude":"-88.73061","feature_class":"P","feature_code":"PPL","country_code":"US","cc2":"","admin1_code":"KY","admin2_code":"145","admin3_code":"","admin4_code":"","population":"4505","elevation":"140","dem":"145","timezone":"America/Chicago","modification_date":"2011-05-14"},{"geonameid":"4300105","name":"Mayfield","asciiname":"Mayfield","alternatenames":["Mehjfild","Mejfild","mei fei er de","myfyld  kntaky","Мејфилд","Мэйфилд","میفیلد، کنتاکی","梅菲尔德"],"latitude":"36.74172","longitude":"-88.63672","feature_class":"P","feature_code":"PPLA2","country_code":"US","cc2":"","admin1_code":"KY","admin2_code":"083","admin3_code":"","admin4_code":"","population":"10024","elevation":"145","dem":"146","timezone":"America/Chicago","modification_date":"2011-05-14"},{"geonameid":"4300152","name":"Maysville","asciiname":"Maysville","alternatenames":["Mehjsvil","Mejsvil","mayzwyl  kntaky","mei si wei er","Мејсвил","Мэйсвил","مایزویل، کنتاکی","梅斯维尔"],"latitude":"38.64119","longitude":"-83.74437","feature_class":"P","feature_code":"PPLA2","country_code":"US","cc2":"","admin1_code":"KY","admin2_code":"161","admin3_code":"","admin4_code":"","population":"9011","elevation":"165","dem":"162","timezone":"America/New_York","modification_date":"2011-05-14"},{"geonameid":"4300339","name":"McKee","asciiname":"McKee","alternatenames":[""],"latitude":"37.43036","longitude":"-83.99798","feature_class":"P","feature_code":"PPLA2","country_code":"US","cc2":"","admin1_code":"KY","admin2_code":"109","admin3_code":"","admin4_code":"","population":"800","elevation":"314","dem":"315","timezone":"America/New_York","modification_date":"2011-05-14"},{"geonameid":"4300488","name":"Meads","asciiname":"Meads","alternatenames":[""],"latitude":"38.41258","longitude":"-82.70905","feature_class":"P","feature_code":"PPL","country_code":"US","cc2":"","admin1_code":"KY","admin2_code":"019","admin3_code":"","admin4_code":"","population":"288649","elevation":"185","dem":"188","timezone":"America/New_York","modification_date":"2012-07-14"},{"geonameid":"4300717","name":"Middlesboro","asciiname":"Middlesboro","alternatenames":[""],"latitude":"36.60842","longitude":"-83.71658","feature_class":"P","feature_code":"PPL","country_code":"US","cc2":"","admin1_code":"KY","admin2_code":"013","admin3_code":"","admin4_code":"","population":"10730","elevation":"348","dem":"352","timezone":"America/New_York","modification_date":"2006-01-15"},{"geonameid":"4300725","name":"Middletown","asciiname":"Middletown","alternatenames":[""],"latitude":"38.24535","longitude":"-85.53885","feature_class":"P","feature_code":"PPL","country_code":"US","cc2":"","admin1_code":"KY","admin2_code":"111","admin3_code":"","admin4_code":"","population":"7218","elevation":"221","dem":"221","timezone":"America/Kentucky/Louisville","modification_date":"2011-05-14"},{"geonameid":"4300739","name":"Midway","asciiname":"Midway","alternatenames":["Miduehj","Midvej","mi de wei","mydwy  kntaky","Мидвеј","Мидуэй","میدوی، کنتاکی","米德韦"],"latitude":"38.15091","longitude":"-84.68383","feature_class":"P","feature_code":"PPL","country_code":"US","cc2":"","admin1_code":"KY","admin2_code":"239","admin3_code":"","admin4_code":"","population":"1641","elevation":"252","dem":"253","timezone":"America/New_York","modification_date":"2011-05-14"},{"geonameid":"4301094","name":"Heritage Creek","asciiname":"Heritage Creek","alternatenames":[""],"latitude":"38.12368","longitude":"-85.71968","feature_class":"P","feature_code":"PPL","country_code":"US","cc2":"","admin1_code":"KY","admin2_code":"111","admin3_code":"","admin4_code":"","population":"1076","elevation":"143","dem":"146","timezone":"America/Kentucky/Louisville","modification_date":"2011-05-14"},{"geonameid":"4301224","name":"Monticello","asciiname":"Monticello","alternatenames":[""],"latitude":"36.82979","longitude":"-84.84911","feature_class":"P","feature_code":"PPLA2","country_code":"US","cc2":"","admin1_code":"KY","admin2_code":"231","admin3_code":"","admin4_code":"","population":"6188","elevation":"281","dem":"281","timezone":"America/Kentucky/Monticello","modification_date":"2011-05-14"},{"geonameid":"4301307","name":"Morehead","asciiname":"Morehead","alternatenames":["Morkhid","mo er hei de","mwrhd  kntaky","Морхид","مورهد، کنتاکی","莫尔黑德"],"latitude":"38.18397","longitude":"-83.43268","feature_class":"P","feature_code":"PPLA2","country_code":"US","cc2":"","admin1_code":"KY","admin2_code":"205","admin3_code":"","admin4_code":"","population":"6845","elevation":"225","dem":"226","timezone":"America/New_York","modification_date":"2011-05-14"},{"geonameid":"4301345","name":"Morganfield","asciiname":"Morganfield","alternatenames":[""],"latitude":"37.68338","longitude":"-87.91669","feature_class":"P","feature_code":"PPLA2","country_code":"US","cc2":"","admin1_code":"KY","admin2_code":"225","admin3_code":"","admin4_code":"","population":"3285","elevation":"133","dem":"131","timezone":"America/Chicago","modification_date":"2011-05-14"},{"geonameid":"4301349","name":"Morgantown","asciiname":"Morgantown","alternatenames":[""],"latitude":"37.2256","longitude":"-86.6836","feature_class":"P","feature_code":"PPLA2","country_code":"US","cc2":"","admin1_code":"KY","admin2_code":"031","admin3_code":"","admin4_code":"","population":"2394","elevation":"172","dem":"173","timezone":"America/Chicago","modification_date":"2011-05-14"},{"geonameid":"4301603","name":"Mount Olivet","asciiname":"Mount Olivet","alternatenames":[""],"latitude":"38.53146","longitude":"-84.03687","feature_class":"P","feature_code":"PPLA2","country_code":"US","cc2":"","admin1_code":"KY","admin2_code":"201","admin3_code":"","admin4_code":"","population":"299","elevation":"285","dem":"289","timezone":"America/New_York","modification_date":"2011-05-14"},{"geonameid":"4301683","name":"Mount Sterling","asciiname":"Mount Sterling","alternatenames":[""],"latitude":"38.05647","longitude":"-83.94326","feature_class":"P","feature_code":"PPLA2","country_code":"US","cc2":"","admin1_code":"KY","admin2_code":"173","admin3_code":"","admin4_code":"","population":"6895","elevation":"297","dem":"302","timezone":"America/New_York","modification_date":"2011-05-14"},{"geonameid":"4301702","name":"Mount Vernon","asciiname":"Mount Vernon","alternatenames":[""],"latitude":"38.02563","longitude":"-84.49522","feature_class":"P","feature_code":"PPL","country_code":"US","cc2":"","admin1_code":"KY","admin2_code":"067","admin3_code":"","admin4_code":"","population":"2583","elevation":"308","dem":"309","timezone":"America/New_York","modification_date":"2006-01-17"},{"geonameid":"4301732","name":"Mount Washington","asciiname":"Mount Washington","alternatenames":[""],"latitude":"38.05006","longitude":"-85.54579","feature_class":"P","feature_code":"PPL","country_code":"US","cc2":"","admin1_code":"KY","admin2_code":"029","admin3_code":"","admin4_code":"","population":"9117","elevation":"215","dem":"214","timezone":"America/New_York","modification_date":"2011-05-14"},{"geonameid":"4302012","name":"Munfordville","asciiname":"Munfordville","alternatenames":[""],"latitude":"37.27228","longitude":"-85.89108","feature_class":"P","feature_code":"PPLA2","country_code":"US","cc2":"","admin1_code":"KY","admin2_code":"099","admin3_code":"","admin4_code":"","population":"1615","elevation":"187","dem":"191","timezone":"America/Chicago","modification_date":"2011-05-14"},{"geonameid":"4302035","name":"Murray","asciiname":"Murray","alternatenames":["CEY","Mari","Mjurrej","Murrehj","meoli","mry  kntaky","mu lei","Мари","Муррэй","Мюррей","مری، کنتاکی","穆雷","머리"],"latitude":"36.61033","longitude":"-88.31476","feature_class":"P","feature_code":"PPLA2","country_code":"US","cc2":"","admin1_code":"KY","admin2_code":"035","admin3_code":"","admin4_code":"","population":"17741","elevation":"163","dem":"164","timezone":"America/Chicago","modification_date":"2013-04-03"},{"geonameid":"4302338","name":"New Castle","asciiname":"New Castle","alternatenames":[""],"latitude":"38.4334","longitude":"-85.16968","feature_class":"P","feature_code":"PPLA2","country_code":"US","cc2":"","admin1_code":"KY","admin2_code":"103","admin3_code":"","admin4_code":"","population":"912","elevation":"254","dem":"256","timezone":"America/New_York","modification_date":"2011-05-14"},{"geonameid":"4302504","name":"Newburg","asciiname":"Newburg","alternatenames":[""],"latitude":"38.16007","longitude":"-85.65968","feature_class":"P","feature_code":"PPL","country_code":"US","cc2":"","admin1_code":"KY","admin2_code":"111","admin3_code":"","admin4_code":"","population":"19967","elevation":"148","dem":"149","timezone":"America/Kentucky/Louisville","modification_date":"2006-01-17"},{"geonameid":"4302529","name":"Newport","asciiname":"Newport","alternatenames":["N'juport","Njuport","niu bo te","nywpwrt  kntaky","Њупорт","Ньюпорт","نیوپورت، کنتاکی","纽波特"],"latitude":"39.09145","longitude":"-84.49578","feature_class":"P","feature_code":"PPLA2","country_code":"US","cc2":"","admin1_code":"KY","admin2_code":"037","admin3_code":"","admin4_code":"","population":"15273","elevation":"156","dem":"158","timezone":"America/New_York","modification_date":"2011-05-14"},{"geonameid":"4302561","name":"Nicholasville","asciiname":"Nicholasville","alternatenames":["Nicholasvill","Nikolasvil","ni gu la si wei er","nyklaswyl  kntaky","Николасвил","Ничоласвилл","نیکلاسویل، کنتاکی","尼古拉斯維爾"],"latitude":"37.88063","longitude":"-84.573","feature_class":"P","feature_code":"PPLA2","country_code":"US","cc2":"","admin1_code":"KY","admin2_code":"113","admin3_code":"","admin4_code":"","population":"28015","elevation":"286","dem":"291","timezone":"America/New_York","modification_date":"2011-05-14"},{"geonameid":"4302681","name":"North Corbin","asciiname":"North Corbin","alternatenames":[""],"latitude":"36.96064","longitude":"-84.09326","feature_class":"P","feature_code":"PPL","country_code":"US","cc2":"","admin1_code":"KY","admin2_code":"125","admin3_code":"","admin4_code":"","population":"1773","elevation":"338","dem":"341","timezone":"America/New_York","modification_date":"2011-05-14"},{"geonameid":"4302761","name":"Northfield","asciiname":"Northfield","alternatenames":[""],"latitude":"38.28701","longitude":"-85.64107","feature_class":"P","feature_code":"PPL","country_code":"US","cc2":"","admin1_code":"KY","admin2_code":"111","admin3_code":"","admin4_code":"","population":"1020","elevation":"178","dem":"181","timezone":"America/Kentucky/Louisville","modification_date":"2011-05-14"},{"geonameid":"4302778","name":"Nortonville","asciiname":"Nortonville","alternatenames":[""],"latitude":"37.19088","longitude":"-87.45278","feature_class":"P","feature_code":"PPL","country_code":"US","cc2":"","admin1_code":"KY","admin2_code":"107","admin3_code":"","admin4_code":"","population":"1204","elevation":"123","dem":"124","timezone":"America/Chicago","modification_date":"2011-05-14"},{"geonameid":"4302827","name":"Oak Grove","asciiname":"Oak Grove","alternatenames":[""],"latitude":"36.66505","longitude":"-87.44279","feature_class":"P","feature_code":"PPL","country_code":"US","cc2":"","admin1_code":"KY","admin2_code":"047","admin3_code":"","admin4_code":"","population":"7489","elevation":"165","dem":"166","timezone":"America/Chicago","modification_date":"2011-05-14"},{"geonameid":"4302910","name":"Oakbrook","asciiname":"Oakbrook","alternatenames":[""],"latitude":"38.99978","longitude":"-84.68522","feature_class":"P","feature_code":"PPL","country_code":"US","cc2":"","admin1_code":"KY","admin2_code":"015","admin3_code":"","admin4_code":"","population":"9036","elevation":"265","dem":"267","timezone":"America/New_York","modification_date":"2011-05-14"},{"geonameid":"4303012","name":"Okolona","asciiname":"Okolona","alternatenames":[""],"latitude":"38.14118","longitude":"-85.68774","feature_class":"P","feature_code":"PPL","country_code":"US","cc2":"","admin1_code":"KY","admin2_code":"111","admin3_code":"","admin4_code":"","population":"17134","elevation":"141","dem":"145","timezone":"America/Kentucky/Louisville","modification_date":"2006-01-17"},{"geonameid":"4303194","name":"Olive Hill","asciiname":"Olive Hill","alternatenames":[""],"latitude":"38.30008","longitude":"-83.17407","feature_class":"P","feature_code":"PPL","country_code":"US","cc2":"","admin1_code":"KY","admin2_code":"043","admin3_code":"","admin4_code":"","population":"1599","elevation":"228","dem":"231","timezone":"America/New_York","modification_date":"2011-05-14"},{"geonameid":"4303297","name":"Orchard Grass Hills","asciiname":"Orchard Grass Hills","alternatenames":[""],"latitude":"38.32368","longitude":"-85.52135","feature_class":"P","feature_code":"PPL","country_code":"US","cc2":"","admin1_code":"KY","admin2_code":"185","admin3_code":"","admin4_code":"","population":"1595","elevation":"192","dem":"202","timezone":"America/New_York","modification_date":"2011-05-14"},{"geonameid":"4303436","name":"Owensboro","asciiname":"Owensboro","alternatenames":["OWB","Ouensboro","Ouensburou","Ounsboro","awwnzbrww  kntaky","o-eonjeubeoleo","oenzuboro","ou wen si bo lei","Оуенсборо","Оуенсбъроу","Оунсборо","اوونزبروو، کنتاکی","オーエンズボロ","欧文斯伯勒","오언즈버러"],"latitude":"37.77422","longitude":"-87.11333","feature_class":"P","feature_code":"PPLA2","country_code":"US","cc2":"","admin1_code":"KY","admin2_code":"059","admin3_code":"","admin4_code":"","population":"57265","elevation":"120","dem":"125","timezone":"America/Chicago","modification_date":"2011-05-14"},{"geonameid":"4303439","name":"Owenton","asciiname":"Owenton","alternatenames":[""],"latitude":"38.53672","longitude":"-84.84338","feature_class":"P","feature_code":"PPLA2","country_code":"US","cc2":"","admin1_code":"KY","admin2_code":"187","admin3_code":"","admin4_code":"","population":"1327","elevation":"295","dem":"296","timezone":"America/New_York","modification_date":"2015-01-20"},{"geonameid":"4303441","name":"Owingsville","asciiname":"Owingsville","alternatenames":[""],"latitude":"38.1448","longitude":"-83.76408","feature_class":"P","feature_code":"PPLA2","country_code":"US","cc2":"","admin1_code":"KY","admin2_code":"011","admin3_code":"","admin4_code":"","population":"1530","elevation":"306","dem":"308","timezone":"America/New_York","modification_date":"2011-05-14"},{"geonameid":"4303543","name":"Paintsville","asciiname":"Paintsville","alternatenames":["Pehjntsvill","Pejnttsvil","pei en ci wei er","pyntswyl  kntaky","Пејнттсвил","Пэйнтсвилл","پینتسویل، کنتاکی","佩恩茨维尔"],"latitude":"37.81454","longitude":"-82.80711","feature_class":"P","feature_code":"PPLA2","country_code":"US","cc2":"","admin1_code":"KY","admin2_code":"115","admin3_code":"","admin4_code":"","population":"3459","elevation":"187","dem":"187","timezone":"America/New_York","modification_date":"2011-05-14"},{"geonameid":"4303595","name":"Park Hills","asciiname":"Park Hills","alternatenames":[""],"latitude":"39.07145","longitude":"-84.53217","feature_class":"P","feature_code":"PPL","country_code":"US","cc2":"","admin1_code":"KY","admin2_code":"117","admin3_code":"","admin4_code":"","population":"2970","elevation":"229","dem":"231","timezone":"America/New_York","modification_date":"2011-05-14"},{"geonameid":"4303602","name":"Paris","asciiname":"Paris","alternatenames":["Paris","Parizh","ba li","parys  kntaky","Париж","Парис","پاریس، کنتاکی","巴黎"],"latitude":"38.2098","longitude":"-84.25299","feature_class":"P","feature_code":"PPLA2","country_code":"US","cc2":"","admin1_code":"KY","admin2_code":"017","admin3_code":"","admin4_code":"","population":"8553","elevation":"257","dem":"258","timezone":"America/New_York","modification_date":"2011-05-14"},{"geonameid":"4304058","name":"Pewee Valley","asciiname":"Pewee Valley","alternatenames":[""],"latitude":"38.31062","longitude":"-85.48746","feature_class":"P","feature_code":"PPL","country_code":"US","cc2":"","admin1_code":"KY","admin2_code":"185","admin3_code":"","admin4_code":"","population":"1456","elevation":"238","dem":"239","timezone":"America/New_York","modification_date":"2011-05-14"},{"geonameid":"4304232","name":"Pikeville","asciiname":"Pikeville","alternatenames":["Pajkvill","Pakjvil","bayksfyl  kntaky","pai ke wei er","pykwyl  kntaky","Пайквилл","Пакјвил","بايكسفيل، كنتاكي","پیکویل، کنتاکی","派克维尔"],"latitude":"37.47927","longitude":"-82.51876","feature_class":"P","feature_code":"PPLA2","country_code":"US","cc2":"","admin1_code":"KY","admin2_code":"195","admin3_code":"","admin4_code":"","population":"6903","elevation":"207","dem":"209","timezone":"America/New_York","modification_date":"2011-05-14"},{"geonameid":"4304361","name":"Pine Knot","asciiname":"Pine Knot","alternatenames":[""],"latitude":"36.65091","longitude":"-84.43855","feature_class":"P","feature_code":"PPL","country_code":"US","cc2":"","admin1_code":"KY","admin2_code":"147","admin3_code":"","admin4_code":"","population":"1621","elevation":"433","dem":"431","timezone":"America/New_York","modification_date":"2011-05-14"},{"geonameid":"4304396","name":"Pineville","asciiname":"Pineville","alternatenames":[""],"latitude":"36.76203","longitude":"-83.69492","feature_class":"P","feature_code":"PPLA2","country_code":"US","cc2":"","admin1_code":"KY","admin2_code":"013","admin3_code":"","admin4_code":"","population":"1732","elevation":"309","dem":"310","timezone":"America/New_York","modification_date":"2011-05-14"},{"geonameid":"4304448","name":"Pioneer Village","asciiname":"Pioneer Village","alternatenames":[""],"latitude":"38.06062","longitude":"-85.67774","feature_class":"P","feature_code":"PPL","country_code":"US","cc2":"","admin1_code":"KY","admin2_code":"029","admin3_code":"","admin4_code":"","population":"2030","elevation":"167","dem":"167","timezone":"America/New_York","modification_date":"2011-05-14"},{"geonameid":"4304523","name":"Plano","asciiname":"Plano","alternatenames":[""],"latitude":"36.88032","longitude":"-86.41832","feature_class":"P","feature_code":"PPL","country_code":"US","cc2":"","admin1_code":"KY","admin2_code":"227","admin3_code":"","admin4_code":"","population":"1117","elevation":"186","dem":"186","timezone":"America/Chicago","modification_date":"2011-05-14"},{"geonameid":"4304713","name":"Pleasure Ridge Park","asciiname":"Pleasure Ridge Park","alternatenames":[""],"latitude":"38.14535","longitude":"-85.8583","feature_class":"P","feature_code":"PPLX","country_code":"US","cc2":"","admin1_code":"KY","admin2_code":"111","admin3_code":"","admin4_code":"","population":"25813","elevation":"139","dem":"139","timezone":"America/Kentucky/Louisville","modification_date":"2006-01-17"},{"geonameid":"4305210","name":"Prestonsburg","asciiname":"Prestonsburg","alternatenames":["Prestonburg","Prestonsberg","prstwnsbwrg  kntaky","pu lei si dun","Престонбург","Престонсберг","پرستونسبورگ، کنتاکی","普勒斯顿"],"latitude":"37.66565","longitude":"-82.77155","feature_class":"P","feature_code":"PPLA2","country_code":"US","cc2":"","admin1_code":"KY","admin2_code":"071","admin3_code":"","admin4_code":"","population":"3255","elevation":"193","dem":"194","timezone":"America/New_York","modification_date":"2011-05-14"},{"geonameid":"4305266","name":"Princeton","asciiname":"Princeton","alternatenames":["Pricton","Prinston","prynstwn  kntaky","pu lin si dun","Принстон","Прицтон","پرینستون، کنتاکی","普林斯顿"],"latitude":"37.10922","longitude":"-87.88196","feature_class":"P","feature_code":"PPLA2","country_code":"US","cc2":"","admin1_code":"KY","admin2_code":"033","admin3_code":"","admin4_code":"","population":"6329","elevation":"147","dem":"148","timezone":"America/Chicago","modification_date":"2011-05-14"},{"geonameid":"4305287","name":"Prospect","asciiname":"Prospect","alternatenames":[""],"latitude":"38.34507","longitude":"-85.61552","feature_class":"P","feature_code":"PPL","country_code":"US","cc2":"","admin1_code":"KY","admin2_code":"111","admin3_code":"","admin4_code":"","population":"4698","elevation":"143","dem":"147","timezone":"America/Kentucky/Louisville","modification_date":"2011-05-14"},{"geonameid":"4305294","name":"Providence","asciiname":"Providence","alternatenames":[""],"latitude":"38.57451","longitude":"-85.22107","feature_class":"P","feature_code":"PPL","country_code":"US","cc2":"","admin1_code":"KY","admin2_code":"223","admin3_code":"","admin4_code":"","population":"3492","elevation":"259","dem":"255","timezone":"America/New_York","modification_date":"2006-01-17"},{"geonameid":"4305500","name":"Raceland","asciiname":"Raceland","alternatenames":[""],"latitude":"38.54008","longitude":"-82.7285","feature_class":"P","feature_code":"PPL","country_code":"US","cc2":"","admin1_code":"KY","admin2_code":"089","admin3_code":"","admin4_code":"","population":"2424","elevation":"166","dem":"169","timezone":"America/New_York","modification_date":"2011-05-14"},{"geonameid":"4305504","name":"Radcliff","asciiname":"Radcliff","alternatenames":["Radklif","Радклиф"],"latitude":"37.84035","longitude":"-85.94913","feature_class":"P","feature_code":"PPL","country_code":"US","cc2":"","admin1_code":"KY","admin2_code":"093","admin3_code":"","admin4_code":"","population":"21688","elevation":"235","dem":"236","timezone":"America/New_York","modification_date":"2011-05-14"},{"geonameid":"4305805","name":"Reidland","asciiname":"Reidland","alternatenames":[""],"latitude":"37.01756","longitude":"-88.53143","feature_class":"P","feature_code":"PPL","country_code":"US","cc2":"","admin1_code":"KY","admin2_code":"145","admin3_code":"","admin4_code":"","population":"4491","elevation":"123","dem":"124","timezone":"America/Chicago","modification_date":"2011-05-14"},{"geonameid":"4305974","name":"Richmond","asciiname":"Richmond","alternatenames":["Richmond","li shi man","lichimeondeu","rychmnd  kntaky","ryzmwnd","Ричмонд","ריצמונד","ریچمند، کنتاکی","里士滿","리치먼드"],"latitude":"37.74786","longitude":"-84.29465","feature_class":"P","feature_code":"PPLA2","country_code":"US","cc2":"","admin1_code":"KY","admin2_code":"151","admin3_code":"","admin4_code":"","population":"31364","elevation":"289","dem":"293","timezone":"America/New_York","modification_date":"2011-05-14"},{"geonameid":"4306972","name":"Russell","asciiname":"Russell","alternatenames":[""],"latitude":"38.5173","longitude":"-82.69766","feature_class":"P","feature_code":"PPL","country_code":"US","cc2":"","admin1_code":"KY","admin2_code":"089","admin3_code":"","admin4_code":"","population":"3380","elevation":"197","dem":"204","timezone":"America/New_York","modification_date":"2011-05-14"},{"geonameid":"4307012","name":"Russell Springs","asciiname":"Russell Springs","alternatenames":[""],"latitude":"37.05618","longitude":"-85.08857","feature_class":"P","feature_code":"PPL","country_code":"US","cc2":"","admin1_code":"KY","admin2_code":"207","admin3_code":"","admin4_code":"","population":"2441","elevation":"331","dem":"332","timezone":"America/Chicago","modification_date":"2011-05-14"},{"geonameid":"4307025","name":"Russellville","asciiname":"Russellville","alternatenames":["Raselvil","Rassellvill","Rasselvil","la sai er wei er","leoselbil","raslwyl  kntaky","Раселвил","Расселвил","Расселлвилл","راسلویل، کنتاکی","拉塞尔维尔","러셀빌"],"latitude":"36.84532","longitude":"-86.88722","feature_class":"P","feature_code":"PPLA2","country_code":"US","cc2":"","admin1_code":"KY","admin2_code":"141","admin3_code":"","admin4_code":"","population":"6960","elevation":"181","dem":"185","timezone":"America/Chicago","modification_date":"2011-05-14"},{"geonameid":"4307052","name":"Ryland Heights","asciiname":"Ryland Heights","alternatenames":[""],"latitude":"38.95756","longitude":"-84.463","feature_class":"P","feature_code":"PPL","country_code":"US","cc2":"","admin1_code":"KY","admin2_code":"117","admin3_code":"","admin4_code":"","population":"1022","elevation":"264","dem":"263","timezone":"America/New_York","modification_date":"2011-05-14"},{"geonameid":"4307238","name":"Saint Matthews","asciiname":"Saint Matthews","alternatenames":[""],"latitude":"38.25285","longitude":"-85.65579","feature_class":"P","feature_code":"PPL","country_code":"US","cc2":"","admin1_code":"KY","admin2_code":"111","admin3_code":"","admin4_code":"","population":"17472","elevation":"168","dem":"168","timezone":"America/Kentucky/Louisville","modification_date":"2011-05-14"},{"geonameid":"4307275","name":"Saint Regis Park","asciiname":"Saint Regis Park","alternatenames":[""],"latitude":"38.22674","longitude":"-85.61663","feature_class":"P","feature_code":"PPL","country_code":"US","cc2":"","admin1_code":"KY","admin2_code":"111","admin3_code":"","admin4_code":"","population":"1454","elevation":"172","dem":"176","timezone":"America/Kentucky/Louisville","modification_date":"2011-05-14"},{"geonameid":"4307447","name":"Salyersville","asciiname":"Salyersville","alternatenames":["Sehliersvill","sa li er si wei er","slyrswyl  kntaky","Сэлиерсвилл","سلیرسویل، کنتاکی","萨利尔斯维尔"],"latitude":"37.75259","longitude":"-83.06878","feature_class":"P","feature_code":"PPLA2","country_code":"US","cc2":"","admin1_code":"KY","admin2_code":"153","admin3_code":"","admin4_code":"","population":"1883","elevation":"260","dem":"259","timezone":"America/New_York","modification_date":"2011-05-14"},{"geonameid":"4307616","name":"Sandy Hook","asciiname":"Sandy Hook","alternatenames":[""],"latitude":"38.08647","longitude":"-83.12628","feature_class":"P","feature_code":"PPLA2","country_code":"US","cc2":"","admin1_code":"KY","admin2_code":"063","admin3_code":"","admin4_code":"","population":"675","elevation":"235","dem":"232","timezone":"America/New_York","modification_date":"2011-05-14"},{"geonameid":"4307837","name":"Scottsville","asciiname":"Scottsville","alternatenames":[""],"latitude":"36.75338","longitude":"-86.19054","feature_class":"P","feature_code":"PPLA2","country_code":"US","cc2":"","admin1_code":"KY","admin2_code":"003","admin3_code":"","admin4_code":"","population":"4226","elevation":"232","dem":"231","timezone":"America/Chicago","modification_date":"2011-05-14"},{"geonameid":"4307879","name":"Sebree","asciiname":"Sebree","alternatenames":[""],"latitude":"37.60699","longitude":"-87.52862","feature_class":"P","feature_code":"PPL","country_code":"US","cc2":"","admin1_code":"KY","admin2_code":"233","admin3_code":"","admin4_code":"","population":"1603","elevation":"118","dem":"119","timezone":"America/Chicago","modification_date":"2011-05-14"},{"geonameid":"4308122","name":"Shelbyville","asciiname":"Shelbyville","alternatenames":["Shelbivil","Shelbivll","shlbywyl  kntaky","xie er bi wei er","Шелбивил","Шелбивлл","شلبیویل، کنتاکی","谢尔比维尔"],"latitude":"38.21201","longitude":"-85.22357","feature_class":"P","feature_code":"PPLA2","country_code":"US","cc2":"","admin1_code":"KY","admin2_code":"211","admin3_code":"","admin4_code":"","population":"14045","elevation":"232","dem":"235","timezone":"America/New_York","modification_date":"2011-05-14"},{"geonameid":"4308163","name":"Shepherdsville","asciiname":"Shepherdsville","alternatenames":[""],"latitude":"37.9884","longitude":"-85.71579","feature_class":"P","feature_code":"PPLA2","country_code":"US","cc2":"","admin1_code":"KY","admin2_code":"029","admin3_code":"","admin4_code":"","population":"11222","elevation":"137","dem":"137","timezone":"America/New_York","modification_date":"2011-05-14"},{"geonameid":"4308225","name":"Shively","asciiname":"Shively","alternatenames":[""],"latitude":"38.20007","longitude":"-85.82274","feature_class":"P","feature_code":"PPL","country_code":"US","cc2":"","admin1_code":"KY","admin2_code":"111","admin3_code":"","admin4_code":"","population":"15264","elevation":"139","dem":"139","timezone":"America/Kentucky/Louisville","modification_date":"2011-05-14"},{"geonameid":"4308401","name":"Silver Grove","asciiname":"Silver Grove","alternatenames":[""],"latitude":"39.03451","longitude":"-84.39022","feature_class":"P","feature_code":"PPL","country_code":"US","cc2":"","admin1_code":"KY","admin2_code":"037","admin3_code":"","admin4_code":"","population":"1102","elevation":"151","dem":"154","timezone":"America/New_York","modification_date":"2011-05-14"},{"geonameid":"4308453","name":"Simpsonville","asciiname":"Simpsonville","alternatenames":[""],"latitude":"38.22257","longitude":"-85.35523","feature_class":"P","feature_code":"PPL","country_code":"US","cc2":"","admin1_code":"KY","admin2_code":"211","admin3_code":"","admin4_code":"","population":"2484","elevation":"243","dem":"245","timezone":"America/New_York","modification_date":"2011-05-14"},{"geonameid":"4308835","name":"Smithland","asciiname":"Smithland","alternatenames":[""],"latitude":"37.13894","longitude":"-88.40337","feature_class":"P","feature_code":"PPLA2","country_code":"US","cc2":"","admin1_code":"KY","admin2_code":"139","admin3_code":"","admin4_code":"","population":"301","elevation":"106","dem":"109","timezone":"America/Chicago","modification_date":"2011-05-14"},{"geonameid":"4308922","name":"Somerset","asciiname":"Somerset","alternatenames":["SME","Samerset","Somerset","sa mo sai te","samrst  kntaky","Самерсет","Сомерсет","سامرست، کنتاکی","萨默塞特"],"latitude":"37.09202","longitude":"-84.60411","feature_class":"P","feature_code":"PPLA2","country_code":"US","cc2":"","admin1_code":"KY","admin2_code":"199","admin3_code":"","admin4_code":"","population":"11196","elevation":"296","dem":"298","timezone":"America/New_York","modification_date":"2011-05-14"},{"geonameid":"4309076","name":"South Shore","asciiname":"South Shore","alternatenames":[""],"latitude":"38.72091","longitude":"-82.95823","feature_class":"P","feature_code":"PPL","country_code":"US","cc2":"","admin1_code":"KY","admin2_code":"089","admin3_code":"","admin4_code":"","population":"1122","elevation":"166","dem":"166","timezone":"America/New_York","modification_date":"2011-05-14"},{"geonameid":"4309097","name":"Southgate","asciiname":"Southgate","alternatenames":[""],"latitude":"39.072","longitude":"-84.47272","feature_class":"P","feature_code":"PPL","country_code":"US","cc2":"","admin1_code":"KY","admin2_code":"037","admin3_code":"","admin4_code":"","population":"3803","elevation":"210","dem":"213","timezone":"America/New_York","modification_date":"2011-05-14"},{"geonameid":"4309329","name":"Springfield","asciiname":"Springfield","alternatenames":["Springfild","aspryngfyld  kntaky","si pu lin fei er de","Спрингфилд","اسپرینگفیلد، کنتاکی","斯普林菲尔德"],"latitude":"37.68534","longitude":"-85.22218","feature_class":"P","feature_code":"PPLA2","country_code":"US","cc2":"","admin1_code":"KY","admin2_code":"229","admin3_code":"","admin4_code":"","population":"2519","elevation":"234","dem":"233","timezone":"America/New_York","modification_date":"2011-05-14"},{"geonameid":"4309414","name":"Saint Dennis","asciiname":"Saint Dennis","alternatenames":[""],"latitude":"38.1884","longitude":"-85.8458","feature_class":"P","feature_code":"PPL","country_code":"US","cc2":"","admin1_code":"KY","admin2_code":"111","admin3_code":"","admin4_code":"","population":"9177","elevation":"134","dem":"135","timezone":"America/Kentucky/Louisville","modification_date":"2007-02-14"},{"geonameid":"4309487","name":"Stanford","asciiname":"Stanford","alternatenames":["Stanford","Станфорд"],"latitude":"37.53119","longitude":"-84.66189","feature_class":"P","feature_code":"PPLA2","country_code":"US","cc2":"","admin1_code":"KY","admin2_code":"137","admin3_code":"","admin4_code":"","population":"3487","elevation":"287","dem":"289","timezone":"America/New_York","modification_date":"2011-05-14"},{"geonameid":"4309498","name":"Stanton","asciiname":"Stanton","alternatenames":["Stehnton","Стэнтон"],"latitude":"37.84564","longitude":"-83.85825","feature_class":"P","feature_code":"PPLA2","country_code":"US","cc2":"","admin1_code":"KY","admin2_code":"197","admin3_code":"","admin4_code":"","population":"2733","elevation":"205","dem":"206","timezone":"America/New_York","modification_date":"2011-05-14"},