{"region_data":{"countryId":"6252001","adminCode1":"MD","countryName":"United States","fclName":"country, state, region,...","countryCode":"US","lng":"-76.74997","fcodeName":"first-order administrative division","toponymName":"Maryland","fcl":"A","numberOfChildren":24,"name":"Maryland","fcode":"ADM1","geonameId":4361885,"lat":"39.00039","adminName1":"Maryland","population":5624246},"country_data":{"ISO":"US","ISO3":"USA","ISO_Numeric":"840","fips":"US","country":"United States","capital":"Washington","area":"9629091","Population":"310232863","Continent":"NA","tld":".us","CurrencyCode":"USD","CurrencyName":"Dollar","Phone":"1","Postal_Code_Format":"#####-####","Postal_Code_Regex":"^\\d{5}(-\\d{4})?$","Languages":"en-US,es-US,haw,fr","geonameid":"6252001","neighbours":"CA,MX,CU","EquivalentFipsCode":""},"cities":[{"geonameid":"4346913","name":"Aberdeen","asciiname":"Aberdeen","alternatenames":["Aberdin","a bo ding","abadin","abrdyn  mrylnd","aebeodin","Абердин","Աբերդին","آبردین، مریلند","アバディーン","阿伯丁","애버딘"],"latitude":"39.50956","longitude":"-76.16412","feature_class":"P","feature_code":"PPL","country_code":"US","cc2":"","admin1_code":"MD","admin2_code":"025","admin3_code":"","admin4_code":"","population":"14959","elevation":"29","dem":"25","timezone":"America/New_York","modification_date":"2011-05-14"},{"geonameid":"4346952","name":"Accokeek","asciiname":"Accokeek","alternatenames":[""],"latitude":"38.66762","longitude":"-77.02831","feature_class":"P","feature_code":"PPL","country_code":"US","cc2":"","admin1_code":"MD","admin2_code":"033","admin3_code":"","admin4_code":"","population":"10573","elevation":"58","dem":"67","timezone":"America/New_York","modification_date":"2011-05-14"},{"geonameid":"4346978","name":"Adamstown","asciiname":"Adamstown","alternatenames":[""],"latitude":"39.31094","longitude":"-77.47471","feature_class":"P","feature_code":"PPL","country_code":"US","cc2":"","admin1_code":"MD","admin2_code":"021","admin3_code":"","admin4_code":"","population":"2372","elevation":"93","dem":"94","timezone":"America/New_York","modification_date":"2011-05-14"},{"geonameid":"4346991","name":"Adelphi","asciiname":"Adelphi","alternatenames":[""],"latitude":"39.00317","longitude":"-76.97192","feature_class":"P","feature_code":"PPL","country_code":"US","cc2":"","admin1_code":"MD","admin2_code":"033","admin3_code":"","admin4_code":"","population":"15086","elevation":"52","dem":"56","timezone":"America/New_York","modification_date":"2011-05-14"},{"geonameid":"4347060","name":"Algonquin","asciiname":"Algonquin","alternatenames":[""],"latitude":"38.5829","longitude":"-76.10577","feature_class":"P","feature_code":"PPL","country_code":"US","cc2":"","admin1_code":"MD","admin2_code":"019","admin3_code":"","admin4_code":"","population":"1241","elevation":"4","dem":"7","timezone":"America/New_York","modification_date":"2011-05-14"},{"geonameid":"4347242","name":"Annapolis","asciiname":"Annapolis","alternatenames":["ANP","Anapoles","Anapoli","Anapolis","Anapolisa","Anapolės","Anapołi","Annapolis","Annapòlis","Gorad Anapalis","an na bo li si","anabwlys  maryland","anapealis","anapolis","anapolliseu","anaporisu","anapwlys","aynapwls","enapolisa","Αννάπολις","Анаполис","Аннаполис","Аннаполіс","Горад Анапаліс","Աննապոլիս","אנאפוליס","آناپولیس","أنابوليس، ماريلاند","ایناپولس","ایناپولس، میری لینڈ","अ‍ॅनापोलिस","एनापोलिस","அனாபொலிஸ்","അനാപൊളിസ്","แอนแนโพลิส","አናፖሊስ","アナポリス","安那波利斯","아나폴리스"],"latitude":"38.97845","longitude":"-76.49218","feature_class":"P","feature_code":"PPLA","country_code":"US","cc2":"","admin1_code":"MD","admin2_code":"003","admin3_code":"","admin4_code":"","population":"38394","elevation":"12","dem":"17","timezone":"America/New_York","modification_date":"2011-05-14"},{"geonameid":"4347371","name":"Arbutus","asciiname":"Arbutus","alternatenames":[""],"latitude":"39.25455","longitude":"-76.69997","feature_class":"P","feature_code":"PPL","country_code":"US","cc2":"","admin1_code":"MD","admin2_code":"005","admin3_code":"","admin4_code":"","population":"20483","elevation":"46","dem":"46","timezone":"America/New_York","modification_date":"2011-05-14"},{"geonameid":"4347392","name":"Arden on the Severn","asciiname":"Arden on the Severn","alternatenames":["Arden-on-the-Severn"],"latitude":"39.06594","longitude":"-76.57885","feature_class":"P","feature_code":"PPL","country_code":"US","cc2":"","admin1_code":"MD","admin2_code":"003","admin3_code":"","admin4_code":"","population":"1953","elevation":"14","dem":"22","timezone":"America/New_York","modification_date":"2011-05-15"},{"geonameid":"4347426","name":"Arnold","asciiname":"Arnold","alternatenames":["Arnol'd","Арнольд"],"latitude":"39.03206","longitude":"-76.50274","feature_class":"P","feature_code":"PPL","country_code":"US","cc2":"","admin1_code":"MD","admin2_code":"003","admin3_code":"","admin4_code":"","population":"23106","elevation":"39","dem":"42","timezone":"America/New_York","modification_date":"2011-05-14"},{"geonameid":"4347553","name":"Aspen Hill","asciiname":"Aspen Hill","alternatenames":[""],"latitude":"39.07955","longitude":"-77.07303","feature_class":"P","feature_code":"PPL","country_code":"US","cc2":"","admin1_code":"MD","admin2_code":"031","admin3_code":"","admin4_code":"","population":"48759","elevation":"100","dem":"99","timezone":"America/New_York","modification_date":"2011-05-14"},{"geonameid":"4347708","name":"Baden","asciiname":"Baden","alternatenames":[""],"latitude":"38.65928","longitude":"-76.77775","feature_class":"P","feature_code":"PPL","country_code":"US","cc2":"","admin1_code":"MD","admin2_code":"033","admin3_code":"","admin4_code":"","population":"2128","elevation":"63","dem":"64","timezone":"America/New_York","modification_date":"2011-05-14"},{"geonameid":"4347778","name":"Baltimore","asciiname":"Baltimore","alternatenames":["BWI","Baltimor","Baltimora","Baltimore","Baltimorė","Gorad Baltymar","Valtimori","ba er de mo","baltimor","baltimora","baltimori","baltymwr","baltymwr  maryland","boltimo-eo","boltimora","boruchimoa","bwltymwr","bxl thim xr","palttimor","Βαλτιμόρη","Балтимор","Горад Балтымар","Բալթիմոր","באלטימאר","בולטימור","بالتيمور، ماريلاند","بالتیمور","بالٹیمور","बाल्टीमोर","बॉल्टिमोर","বাল্টিমোর","பால்ட்டிமோர்","ಬಾಲ್ಟಿಮೋರ್","ബാൾട്ടിമോർ","บอลทิมอร์","བྷལ་ཏྲི་མོར།","ဘော်လ်တီမိုးမြို့","ბალთიმორი","ბალტიმორი","ボルチモア","巴爾的摩","볼티모어"],"latitude":"39.29038","longitude":"-76.61219","feature_class":"P","feature_code":"PPLA2","country_code":"US","cc2":"","admin1_code":"MD","admin2_code":"510","admin3_code":"","admin4_code":"","population":"620961","elevation":"10","dem":"35","timezone":"America/New_York","modification_date":"2014-10-27"},{"geonameid":"4347800","name":"Baltimore Highlands","asciiname":"Baltimore Highlands","alternatenames":[""],"latitude":"39.23316","longitude":"-76.63663","feature_class":"P","feature_code":"PPL","country_code":"US","cc2":"","admin1_code":"MD","admin2_code":"005","admin3_code":"","admin4_code":"","population":"7019","elevation":"11","dem":"12","timezone":"America/New_York","modification_date":"2011-05-14"},{"geonameid":"4347839","name":"Ballenger Creek","asciiname":"Ballenger Creek","alternatenames":[""],"latitude":"39.3726","longitude":"-77.43526","feature_class":"P","feature_code":"PPL","country_code":"US","cc2":"","admin1_code":"MD","admin2_code":"021","admin3_code":"","admin4_code":"","population":"18274","elevation":"92","dem":"90","timezone":"America/New_York","modification_date":"2011-05-14"},{"geonameid":"4347947","name":"Bartonsville","asciiname":"Bartonsville","alternatenames":[""],"latitude":"39.3926","longitude":"-77.35804","feature_class":"P","feature_code":"PPL","country_code":"US","cc2":"","admin1_code":"MD","admin2_code":"021","admin3_code":"","admin4_code":"","population":"1451","elevation":"125","dem":"124","timezone":"America/New_York","modification_date":"2011-05-14"},{"geonameid":"4348240","name":"Bel Air","asciiname":"Bel Air","alternatenames":[""],"latitude":"39.53594","longitude":"-76.34829","feature_class":"P","feature_code":"PPLA2","country_code":"US","cc2":"","admin1_code":"MD","admin2_code":"025","admin3_code":"","admin4_code":"","population":"10120","elevation":"118","dem":"121","timezone":"America/New_York","modification_date":"2011-05-14"},{"geonameid":"4348353","name":"Beltsville","asciiname":"Beltsville","alternatenames":["Behltsvill","Beltsvil","ZFE","bltswyl  mrylnd","Белтсвил","Бэлтсвилл","بلتسویل، مریلند"],"latitude":"39.03483","longitude":"-76.90747","feature_class":"P","feature_code":"PPL","country_code":"US","cc2":"","admin1_code":"MD","admin2_code":"033","admin3_code":"","admin4_code":"","population":"16772","elevation":"41","dem":"43","timezone":"America/New_York","modification_date":"2011-05-14"},{"geonameid":"4348418","name":"Bennsville","asciiname":"Bennsville","alternatenames":[""],"latitude":"38.60929","longitude":"-77.0122","feature_class":"P","feature_code":"PPL","country_code":"US","cc2":"","admin1_code":"MD","admin2_code":"017","admin3_code":"","admin4_code":"","population":"11923","elevation":"60","dem":"57","timezone":"America/New_York","modification_date":"2011-05-14"},{"geonameid":"4348460","name":"Berlin","asciiname":"Berlin","alternatenames":["Berlin","brlyn  mrylnd","Берлин","برلین، مریلند"],"latitude":"38.32262","longitude":"-75.21769","feature_class":"P","feature_code":"PPL","country_code":"US","cc2":"","admin1_code":"MD","admin2_code":"047","admin3_code":"","admin4_code":"","population":"4485","elevation":"11","dem":"13","timezone":"America/New_York","modification_date":"2011-05-14"},{"geonameid":"4348485","name":"Berwyn Heights","asciiname":"Berwyn Heights","alternatenames":[""],"latitude":"38.994","longitude":"-76.91053","feature_class":"P","feature_code":"PPL","country_code":"US","cc2":"","admin1_code":"MD","admin2_code":"033","admin3_code":"","admin4_code":"","population":"3123","elevation":"33","dem":"36","timezone":"America/New_York","modification_date":"2011-05-14"},{"geonameid":"4348599","name":"Bethesda","asciiname":"Bethesda","alternatenames":["Betesda","Budezda","bei sai si da","beseoseuda","besesuda","btzda  mrylnd","bythysda  maryland","Бетесда","Бъдезда","بتزدا، مریلند","بيثيسدا، ماريلاند","ベセスダ","贝塞斯达","베서스다"],"latitude":"38.98067","longitude":"-77.10026","feature_class":"P","feature_code":"PPL","country_code":"US","cc2":"","admin1_code":"MD","admin2_code":"031","admin3_code":"","admin4_code":"","population":"60858","elevation":"97","dem":"97","timezone":"America/New_York","modification_date":"2011-05-14"},{"geonameid":"4348888","name":"Bladensburg","asciiname":"Bladensburg","alternatenames":["Bladensburg","Blejdensburg","bladnsbwrg  mrylnd","Бладенсбург","Блејденсбург","بلادنسبورگ، مریلند"],"latitude":"38.93928","longitude":"-76.93386","feature_class":"P","feature_code":"PPL","country_code":"US","cc2":"","admin1_code":"MD","admin2_code":"033","admin3_code":"","admin4_code":"","population":"9148","elevation":"15","dem":"16","timezone":"America/New_York","modification_date":"2011-05-14"},{"geonameid":"4349107","name":"Boonsboro","asciiname":"Boonsboro","alternatenames":[""],"latitude":"39.50621","longitude":"-77.65249","feature_class":"P","feature_code":"PPL","country_code":"US","cc2":"","admin1_code":"MD","admin2_code":"043","admin3_code":"","admin4_code":"","population":"3336","elevation":"165","dem":"165","timezone":"America/New_York","modification_date":"2011-05-14"},{"geonameid":"4349159","name":"Bowie","asciiname":"Bowie","alternatenames":["Boui","Bovi","Bui","bwwy  mrylnd","Бови","Боуи","Буи","بووی، مریلند"],"latitude":"38.94278","longitude":"-76.73028","feature_class":"P","feature_code":"PPL","country_code":"US","cc2":"","admin1_code":"MD","admin2_code":"033","admin3_code":"","admin4_code":"","population":"54727","elevation":"42","dem":"43","timezone":"America/New_York","modification_date":"2011-12-11"},{"geonameid":"4349175","name":"Bowleys Quarters","asciiname":"Bowleys Quarters","alternatenames":[""],"latitude":"39.33539","longitude":"-76.39024","feature_class":"P","feature_code":"PPL","country_code":"US","cc2":"","admin1_code":"MD","admin2_code":"005","admin3_code":"","admin4_code":"","population":"6755","elevation":"14","dem":"20","timezone":"America/New_York","modification_date":"2011-05-14"},{"geonameid":"4349180","name":"Bowling Green","asciiname":"Bowling Green","alternatenames":[""],"latitude":"39.6237","longitude":"-78.80446","feature_class":"P","feature_code":"PPL","country_code":"US","cc2":"","admin1_code":"MD","admin2_code":"001","admin3_code":"","admin4_code":"","population":"1077","elevation":"201","dem":"203","timezone":"America/New_York","modification_date":"2011-05-14"},{"geonameid":"4349228","name":"Braddock Heights","asciiname":"Braddock Heights","alternatenames":[""],"latitude":"39.41871","longitude":"-77.5036","feature_class":"P","feature_code":"PPL","country_code":"US","cc2":"","admin1_code":"MD","admin2_code":"021","admin3_code":"","admin4_code":"","population":"2608","elevation":"278","dem":"281","timezone":"America/New_York","modification_date":"2011-05-14"},{"geonameid":"4349283","name":"Brandywine","asciiname":"Brandywine","alternatenames":[""],"latitude":"38.69678","longitude":"-76.84775","feature_class":"P","feature_code":"PPL","country_code":"US","cc2":"","admin1_code":"MD","admin2_code":"033","admin3_code":"","admin4_code":"","population":"6719","elevation":"70","dem":"72","timezone":"America/New_York","modification_date":"2011-05-14"},{"geonameid":"4349337","name":"Brentwood","asciiname":"Brentwood","alternatenames":[""],"latitude":"38.94317","longitude":"-76.95664","feature_class":"P","feature_code":"PPL","country_code":"US","cc2":"","admin1_code":"MD","admin2_code":"033","admin3_code":"","admin4_code":"","population":"3046","elevation":"8","dem":"8","timezone":"America/New_York","modification_date":"2011-05-14"},{"geonameid":"4349551","name":"Brock Hall","asciiname":"Brock Hall","alternatenames":[""],"latitude":"38.85011","longitude":"-76.76108","feature_class":"P","feature_code":"PPL","country_code":"US","cc2":"","admin1_code":"MD","admin2_code":"033","admin3_code":"","admin4_code":"","population":"9552","elevation":"35","dem":"37","timezone":"America/New_York","modification_date":"2011-05-14"},{"geonameid":"4349599","name":"Brooklyn Park","asciiname":"Brooklyn Park","alternatenames":[""],"latitude":"39.22844","longitude":"-76.61636","feature_class":"P","feature_code":"PPL","country_code":"US","cc2":"","admin1_code":"MD","admin2_code":"003","admin3_code":"","admin4_code":"","population":"14373","elevation":"34","dem":"36","timezone":"America/New_York","modification_date":"2011-05-14"},{"geonameid":"4349611","name":"Brookmont","asciiname":"Brookmont","alternatenames":[""],"latitude":"38.94206","longitude":"-77.12026","feature_class":"P","feature_code":"PPL","country_code":"US","cc2":"","admin1_code":"MD","admin2_code":"031","admin3_code":"","admin4_code":"","population":"3468","elevation":"37","dem":"42","timezone":"America/New_York","modification_date":"2011-05-14"},{"geonameid":"4349706","name":"Brunswick","asciiname":"Brunswick","alternatenames":["Braunshvejg","Брауншвейг"],"latitude":"39.31427","longitude":"-77.62777","feature_class":"P","feature_code":"PPL","country_code":"US","cc2":"","admin1_code":"MD","admin2_code":"021","admin3_code":"","admin4_code":"","population":"5870","elevation":"90","dem":"86","timezone":"America/New_York","modification_date":"2011-05-14"},{"geonameid":"4349727","name":"Bryans Road","asciiname":"Bryans Road","alternatenames":[""],"latitude":"38.62706","longitude":"-77.07303","feature_class":"P","feature_code":"PPL","country_code":"US","cc2":"","admin1_code":"MD","admin2_code":"017","admin3_code":"","admin4_code":"","population":"7244","elevation":"54","dem":"50","timezone":"America/New_York","modification_date":"2011-05-14"},{"geonameid":"4349755","name":"Buckeystown","asciiname":"Buckeystown","alternatenames":[""],"latitude":"39.33482","longitude":"-77.43165","feature_class":"P","feature_code":"PPL","country_code":"US","cc2":"","admin1_code":"MD","admin2_code":"021","admin3_code":"","admin4_code":"","population":"1019","elevation":"83","dem":"87","timezone":"America/New_York","modification_date":"2011-05-14"},{"geonameid":"4349903","name":"Burtonsville","asciiname":"Burtonsville","alternatenames":[""],"latitude":"39.11122","longitude":"-76.93248","feature_class":"P","feature_code":"PPL","country_code":"US","cc2":"","admin1_code":"MD","admin2_code":"031","admin3_code":"","admin4_code":"","population":"8323","elevation":"149","dem":"150","timezone":"America/New_York","modification_date":"2011-05-14"},{"geonameid":"4350013","name":"Cabin John","asciiname":"Cabin John","alternatenames":[""],"latitude":"38.97539","longitude":"-77.15803","feature_class":"P","feature_code":"PPL","country_code":"US","cc2":"","admin1_code":"MD","admin2_code":"031","admin3_code":"","admin4_code":"","population":"2280","elevation":"52","dem":"54","timezone":"America/New_York","modification_date":"2011-05-14"},{"geonameid":"4350049","name":"California","asciiname":"California","alternatenames":[""],"latitude":"38.3004","longitude":"-76.50745","feature_class":"P","feature_code":"PPL","country_code":"US","cc2":"","admin1_code":"MD","admin2_code":"037","admin3_code":"","admin4_code":"","population":"11857","elevation":"30","dem":"36","timezone":"America/New_York","modification_date":"2011-05-14"},{"geonameid":"4350160","name":"Calverton","asciiname":"Calverton","alternatenames":[""],"latitude":"39.05761","longitude":"-76.93581","feature_class":"P","feature_code":"PPL","country_code":"US","cc2":"","admin1_code":"MD","admin2_code":"033","admin3_code":"","admin4_code":"","population":"17724","elevation":"84","dem":"86","timezone":"America/New_York","modification_date":"2011-05-14"},{"geonameid":"4350175","name":"Cambridge","asciiname":"Cambridge","alternatenames":["CGE","Kehmbridzh","Kembridz","Kembridzh","jian qiao","kymbryj  mrylnd","Кембридж","Кембриџ","Кэмбридж","کیمبریج، مریلند","劍橋"],"latitude":"38.56317","longitude":"-76.07883","feature_class":"P","feature_code":"PPLA2","country_code":"US","cc2":"","admin1_code":"MD","admin2_code":"019","admin3_code":"","admin4_code":"","population":"12326","elevation":"6","dem":"6","timezone":"America/New_York","modification_date":"2011-05-14"},{"geonameid":"4350288","name":"Camp Springs","asciiname":"Camp Springs","alternatenames":["ADW"],"latitude":"38.804","longitude":"-76.90664","feature_class":"P","feature_code":"PPL","country_code":"US","cc2":"","admin1_code":"MD","admin2_code":"033","admin3_code":"","admin4_code":"","population":"19096","elevation":"81","dem":"80","timezone":"America/New_York","modification_date":"2013-05-09"},{"geonameid":"4350348","name":"Cape Saint Claire","asciiname":"Cape Saint Claire","alternatenames":["Cape St. Claire"],"latitude":"39.04317","longitude":"-76.44496","feature_class":"P","feature_code":"PPL","country_code":"US","cc2":"","admin1_code":"MD","admin2_code":"003","admin3_code":"","admin4_code":"","population":"8747","elevation":"26","dem":"28","timezone":"America/New_York","modification_date":"2011-05-15"},{"geonameid":"4350359","name":"Capitol Heights","asciiname":"Capitol Heights","alternatenames":[""],"latitude":"38.88511","longitude":"-76.91581","feature_class":"P","feature_code":"PPLX","country_code":"US","cc2":"","admin1_code":"MD","admin2_code":"033","admin3_code":"","admin4_code":"","population":"4337","elevation":"38","dem":"37","timezone":"America/New_York","modification_date":"2011-05-14"},{"geonameid":"4350413","name":"Carney","asciiname":"Carney","alternatenames":["Karni","Карни"],"latitude":"39.39427","longitude":"-76.52358","feature_class":"P","feature_code":"PPL","country_code":"US","cc2":"","admin1_code":"MD","admin2_code":"005","admin3_code":"","admin4_code":"","population":"29941","elevation":"108","dem":"109","timezone":"America/New_York","modification_date":"2011-05-14"},{"geonameid":"4350635","name":"Catonsville","asciiname":"Catonsville","alternatenames":["Katonsvil","Katonsvill","kytnzwyl  mrylnd","Катонсвил","Катонсвилл","کیتنزویل، مریلند"],"latitude":"39.27205","longitude":"-76.73192","feature_class":"P","feature_code":"PPL","country_code":"US","cc2":"","admin1_code":"MD","admin2_code":"005","admin3_code":"","admin4_code":"","population":"41567","elevation":"146","dem":"146","timezone":"America/New_York","modification_date":"2011-05-14"},{"geonameid":"4350675","name":"Cavetown","asciiname":"Cavetown","alternatenames":[""],"latitude":"39.64426","longitude":"-77.58582","feature_class":"P","feature_code":"PPL","country_code":"US","cc2":"","admin1_code":"MD","admin2_code":"043","admin3_code":"","admin4_code":"","population":"1473","elevation":"222","dem":"220","timezone":"America/New_York","modification_date":"2011-05-14"},{"geonameid":"4350878","name":"Centreville","asciiname":"Centreville","alternatenames":["Sentervil","Sentrvill","shen te wei","sntrwyl  mrylnd","Сентервил","Сентрвилл","سنترویل، مریلند","申特維"],"latitude":"39.04178","longitude":"-76.06633","feature_class":"P","feature_code":"PPLA2","country_code":"US","cc2":"","admin1_code":"MD","admin2_code":"035","admin3_code":"","admin4_code":"","population":"4285","elevation":"15","dem":"19","timezone":"America/New_York","modification_date":"2011-05-14"},{"geonameid":"4351037","name":"Charlestown","asciiname":"Charlestown","alternatenames":[""],"latitude":"39.26816","longitude":"-76.70525","feature_class":"P","feature_code":"PPL","country_code":"US","cc2":"","admin1_code":"MD","admin2_code":"005","admin3_code":"","admin4_code":"","population":"1116","elevation":"98","dem":"97","timezone":"America/New_York","modification_date":"2006-01-17"},{"geonameid":"4351048","name":"Charlotte Hall","asciiname":"Charlotte Hall","alternatenames":[""],"latitude":"38.48096","longitude":"-76.77802","feature_class":"P","feature_code":"PPL","country_code":"US","cc2":"","admin1_code":"MD","admin2_code":"037","admin3_code":"","admin4_code":"","population":"1420","elevation":"51","dem":"54","timezone":"America/New_York","modification_date":"2011-05-14"},{"geonameid":"4351184","name":"Chesapeake Beach","asciiname":"Chesapeake Beach","alternatenames":[""],"latitude":"38.68623","longitude":"-76.53468","feature_class":"P","feature_code":"PPL","country_code":"US","cc2":"","admin1_code":"MD","admin2_code":"009","admin3_code":"","admin4_code":"","population":"5753","elevation":"15","dem":"18","timezone":"America/New_York","modification_date":"2011-05-14"},{"geonameid":"4351228","name":"Chesapeake Ranch Estates","asciiname":"Chesapeake Ranch Estates","alternatenames":[""],"latitude":"38.34624","longitude":"-76.41773","feature_class":"P","feature_code":"PPL","country_code":"US","cc2":"","admin1_code":"MD","admin2_code":"009","admin3_code":"","admin4_code":"","population":"10519","elevation":"30","dem":"34","timezone":"America/New_York","modification_date":"2011-05-14"},{"geonameid":"4351248","name":"Chester","asciiname":"Chester","alternatenames":["Chester","Честер"],"latitude":"38.97539","longitude":"-76.2894","feature_class":"P","feature_code":"PPL","country_code":"US","cc2":"","admin1_code":"MD","admin2_code":"035","admin3_code":"","admin4_code":"","population":"4167","elevation":"2","dem":"4","timezone":"America/New_York","modification_date":"2011-05-14"},{"geonameid":"4351264","name":"Chestertown","asciiname":"Chestertown","alternatenames":["Chestehrtaun","Chestertaun","chstrtwwn  mrylnd","qie si te dun","Честертаун","Честэртаун","چسترتوون، مریلند","切斯特頓"],"latitude":"39.209","longitude":"-76.06661","feature_class":"P","feature_code":"PPLA2","country_code":"US","cc2":"","admin1_code":"MD","admin2_code":"029","admin3_code":"","admin4_code":"","population":"5252","elevation":"4","dem":"7","timezone":"America/New_York","modification_date":"2011-05-14"},{"geonameid":"4351327","name":"Cheverly","asciiname":"Cheverly","alternatenames":[""],"latitude":"38.92817","longitude":"-76.91581","feature_class":"P","feature_code":"PPL","country_code":"US","cc2":"","admin1_code":"MD","admin2_code":"033","admin3_code":"","admin4_code":"","population":"6173","elevation":"54","dem":"58","timezone":"America/New_York","modification_date":"2011-05-14"},{"geonameid":"4351335","name":"Chevy Chase","asciiname":"Chevy Chase","alternatenames":["Chevi Chehjs","Chevi Chejs","chwy chys  mrylnd","Чеви Чејс","Чеви Чэйс","چوی چیس، مریلند"],"latitude":"38.97122","longitude":"-77.07637","feature_class":"P","feature_code":"PPL","country_code":"US","cc2":"","admin1_code":"MD","admin2_code":"031","admin3_code":"","admin4_code":"","population":"9545","elevation":"109","dem":"112","timezone":"America/New_York","modification_date":"2011-05-14"},{"geonameid":"4351352","name":"Chevy Chase Village","asciiname":"Chevy Chase Village","alternatenames":[""],"latitude":"38.96928","longitude":"-77.07887","feature_class":"P","feature_code":"PPL","country_code":"US","cc2":"","admin1_code":"MD","admin2_code":"031","admin3_code":"","admin4_code":"","population":"1953","elevation":"104","dem":"108","timezone":"America/New_York","modification_date":"2011-05-14"},{"geonameid":"4351383","name":"Chillum","asciiname":"Chillum","alternatenames":[""],"latitude":"38.96372","longitude":"-76.99081","feature_class":"P","feature_code":"PPL","country_code":"US","cc2":"","admin1_code":"MD","admin2_code":"033","admin3_code":"","admin4_code":"","population":"33513","elevation":"45","dem":"48","timezone":"America/New_York","modification_date":"2011-05-14"},{"geonameid":"4351708","name":"Clarksburg","asciiname":"Clarksburg","alternatenames":[""],"latitude":"39.23872","longitude":"-77.27943","feature_class":"P","feature_code":"PPL","country_code":"US","cc2":"","admin1_code":"MD","admin2_code":"031","admin3_code":"","admin4_code":"","population":"13766","elevation":"202","dem":"206","timezone":"America/New_York","modification_date":"2011-05-14"},{"geonameid":"4351840","name":"Clover Hill","asciiname":"Clover Hill","alternatenames":[""],"latitude":"39.45621","longitude":"-77.42887","feature_class":"P","feature_code":"PPL","country_code":"US","cc2":"","admin1_code":"MD","admin2_code":"021","admin3_code":"","admin4_code":"","population":"3542","elevation":"114","dem":"111","timezone":"America/New_York","modification_date":"2006-01-17"},{"geonameid":"4351851","name":"Cloverly","asciiname":"Cloverly","alternatenames":[""],"latitude":"39.10816","longitude":"-76.99775","feature_class":"P","feature_code":"PPL","country_code":"US","cc2":"","admin1_code":"MD","admin2_code":"031","admin3_code":"","admin4_code":"","population":"15126","elevation":"159","dem":"155","timezone":"America/New_York","modification_date":"2011-05-14"},{"geonameid":"4351871","name":"Clinton","asciiname":"Clinton","alternatenames":["Klinton","Клинтон"],"latitude":"38.76511","longitude":"-76.89831","feature_class":"P","feature_code":"PPL","country_code":"US","cc2":"","admin1_code":"MD","admin2_code":"033","admin3_code":"","admin4_code":"","population":"35970","elevation":"76","dem":"76","timezone":"America/New_York","modification_date":"2011-05-14"},{"geonameid":"4351887","name":"Cockeysville","asciiname":"Cockeysville","alternatenames":[""],"latitude":"39.48122","longitude":"-76.64386","feature_class":"P","feature_code":"PPL","country_code":"US","cc2":"","admin1_code":"MD","admin2_code":"005","admin3_code":"","admin4_code":"","population":"20776","elevation":"94","dem":"91","timezone":"America/New_York","modification_date":"2011-05-14"},{"geonameid":"4351951","name":"Colesville","asciiname":"Colesville","alternatenames":[""],"latitude":"39.07566","longitude":"-77.00192","feature_class":"P","feature_code":"PPL","country_code":"US","cc2":"","admin1_code":"MD","admin2_code":"031","admin3_code":"","admin4_code":"","population":"14647","elevation":"133","dem":"132","timezone":"America/New_York","modification_date":"2011-05-14"},{"geonameid":"4351977","name":"College Park","asciiname":"College Park","alternatenames":["CGS","Koledz Park","Kolledzh Park","Saeptum Collegii","da xue gong yuan shi","kallijipakeu","kalyj park  mrylnd","khxllec phar k","Колеџ Парк","Колледж Парк","کالیج پارک، مریلند","คอลเลจพาร์ก","大學公園市","칼리지파크"],"latitude":"38.98067","longitude":"-76.93692","feature_class":"P","feature_code":"PPL","country_code":"US","cc2":"","admin1_code":"MD","admin2_code":"033","admin3_code":"","admin4_code":"","population":"30413","elevation":"21","dem":"25","timezone":"America/New_York","modification_date":"2011-05-14"},{"geonameid":"4352015","name":"Colmar Manor","asciiname":"Colmar Manor","alternatenames":[""],"latitude":"38.93317","longitude":"-76.94581","feature_class":"P","feature_code":"PPL","country_code":"US","cc2":"","admin1_code":"MD","admin2_code":"033","admin3_code":"","admin4_code":"","population":"1404","elevation":"9","dem":"11","timezone":"America/New_York","modification_date":"2011-05-14"},{"geonameid":"4352053","name":"Columbia","asciiname":"Columbia","alternatenames":["Columbia","Kolambija","Kolumbija","keolleombia","klmbya  mrylnd","koronbia","kwlwmbya  myryland","Коламбија","Колумбия","كولومبيا، ميريلاند","کلمبیا، مریلند","کولمبیا، میریلینڈ","コロンビア","컬럼비아"],"latitude":"39.24038","longitude":"-76.83942","feature_class":"P","feature_code":"PPL","country_code":"US","cc2":"","admin1_code":"MD","admin2_code":"027","admin3_code":"","admin4_code":"","population":"99615","elevation":"124","dem":"122","timezone":"America/New_York","modification_date":"2011-05-14"},{"geonameid":"4352247","name":"Coral Hills","asciiname":"Coral Hills","alternatenames":[""],"latitude":"38.87039","longitude":"-76.92108","feature_class":"P","feature_code":"PPL","country_code":"US","cc2":"","admin1_code":"MD","admin2_code":"033","admin3_code":"","admin4_code":"","population":"9895","elevation":"89","dem":"91","timezone":"America/New_York","modification_date":"2011-05-14"},{"geonameid":"4352287","name":"Cottage City","asciiname":"Cottage City","alternatenames":[""],"latitude":"38.93817","longitude":"-76.94831","feature_class":"P","feature_code":"PPL","country_code":"US","cc2":"","admin1_code":"MD","admin2_code":"033","admin3_code":"","admin4_code":"","population":"1305","elevation":"9","dem":"12","timezone":"America/New_York","modification_date":"2011-05-14"},{"geonameid":"4352502","name":"Cresaptown","asciiname":"Cresaptown","alternatenames":[""],"latitude":"39.59287","longitude":"-78.83335","feature_class":"P","feature_code":"PPL","country_code":"US","cc2":"","admin1_code":"MD","admin2_code":"001","admin3_code":"","admin4_code":"","population":"4592","elevation":"233","dem":"232","timezone":"America/New_York","modification_date":"2011-05-14"},{"geonameid":"4352539","name":"Crofton","asciiname":"Crofton","alternatenames":["Kroftona","Крофтона"],"latitude":"39.00178","longitude":"-76.68747","feature_class":"P","feature_code":"PPL","country_code":"US","cc2":"","admin1_code":"MD","admin2_code":"003","admin3_code":"","admin4_code":"","population":"27348","elevation":"30","dem":"36","timezone":"America/New_York","modification_date":"2011-05-14"},{"geonameid":"4352577","name":"Crisfield","asciiname":"Crisfield","alternatenames":["Krisfild","krysfyld  mrylnd","Крисфилд","کریسفیلد، مریلند"],"latitude":"37.98346","longitude":"-75.85382","feature_class":"P","feature_code":"PPL","country_code":"US","cc2":"","admin1_code":"MD","admin2_code":"039","admin3_code":"","admin4_code":"","population":"2726","elevation":"1","dem":"2","timezone":"America/New_York","modification_date":"2011-05-14"},{"geonameid":"4352582","name":"Croom","asciiname":"Croom","alternatenames":[""],"latitude":"38.75262","longitude":"-76.76386","feature_class":"P","feature_code":"PPL","country_code":"US","cc2":"","admin1_code":"MD","admin2_code":"033","admin3_code":"","admin4_code":"","population":"2631","elevation":"72","dem":"80","timezone":"America/New_York","modification_date":"2011-05-14"},{"geonameid":"4352618","name":"Crownsville","asciiname":"Crownsville","alternatenames":[""],"latitude":"39.02844","longitude":"-76.60135","feature_class":"P","feature_code":"PPL","country_code":"US","cc2":"","admin1_code":"MD","admin2_code":"003","admin3_code":"","admin4_code":"","population":"1757","elevation":"38","dem":"40","timezone":"America/New_York","modification_date":"2011-05-14"},{"geonameid":"4352681","name":"Cumberland","asciiname":"Cumberland","alternatenames":["CBE","Cumbria","Kamberland","Kamberlend","Kjumberland","kan bo lan","keombeollaendeu","Камберланд","Камберленд","Кюмберланд","坎伯蘭","컴벌랜드"],"latitude":"39.65287","longitude":"-78.76252","feature_class":"P","feature_code":"PPLA2","country_code":"US","cc2":"","admin1_code":"MD","admin2_code":"001","admin3_code":"","admin4_code":"","population":"20859","elevation":"191","dem":"190","timezone":"America/New_York","modification_date":"2011-05-14"},{"geonameid":"4352728","name":"Damascus","asciiname":"Damascus","alternatenames":[""],"latitude":"39.28844","longitude":"-77.20387","feature_class":"P","feature_code":"PPL","country_code":"US","cc2":"","admin1_code":"MD","admin2_code":"031","admin3_code":"","admin4_code":"","population":"15257","elevation":"264","dem":"256","timezone":"America/New_York","modification_date":"2011-05-14"},{"geonameid":"4352795","name":"Darnestown","asciiname":"Darnestown","alternatenames":[""],"latitude":"39.10344","longitude":"-77.29082","feature_class":"P","feature_code":"PPL","country_code":"US","cc2":"","admin1_code":"MD","admin2_code":"031","admin3_code":"","admin4_code":"","population":"6802","elevation":"133","dem":"134","timezone":"America/New_York","modification_date":"2011-05-14"},{"geonameid":"4352815","name":"Davidsonville","asciiname":"Davidsonville","alternatenames":[""],"latitude":"38.92289","longitude":"-76.6283","feature_class":"P","feature_code":"PPL","country_code":"US","cc2":"","admin1_code":"MD","admin2_code":"003","admin3_code":"","admin4_code":"","population":"8000","elevation":"54","dem":"51","timezone":"America/New_York","modification_date":"2013-05-05"},{"geonameid":"4352888","name":"Deale","asciiname":"Deale","alternatenames":[""],"latitude":"38.77651","longitude":"-76.55524","feature_class":"P","feature_code":"PPL","country_code":"US","cc2":"","admin1_code":"MD","admin2_code":"003","admin3_code":"","admin4_code":"","population":"4945","elevation":"2","dem":"5","timezone":"America/New_York","modification_date":"2011-05-14"},{"geonameid":"4353035","name":"Delmar","asciiname":"Delmar","alternatenames":[""],"latitude":"38.45595","longitude":"-75.57742","feature_class":"P","feature_code":"PPL","country_code":"US","cc2":"","admin1_code":"MD","admin2_code":"045","admin3_code":"","admin4_code":"","population":"3003","elevation":"17","dem":"17","timezone":"America/New_York","modification_date":"2011-05-14"},{"geonameid":"4353075","name":"Denton","asciiname":"Denton","alternatenames":["Dehnton","Denton","deng dun","dntn  mrylnd","Дентон","Дэнтон","دنتن، مریلند","登頓"],"latitude":"38.88456","longitude":"-75.82716","feature_class":"P","feature_code":"PPLA2","country_code":"US","cc2":"","admin1_code":"MD","admin2_code":"011","admin3_code":"","admin4_code":"","population":"4418","elevation":"13","dem":"14","timezone":"America/New_York","modification_date":"2011-05-14"},{"geonameid":"4353084","name":"Derwood","asciiname":"Derwood","alternatenames":[""],"latitude":"39.11733","longitude":"-77.16109","feature_class":"P","feature_code":"PPL","country_code":"US","cc2":"","admin1_code":"MD","admin2_code":"031","admin3_code":"","admin4_code":"","population":"2381","elevation":"143","dem":"142","timezone":"America/New_York","modification_date":"2011-05-14"},{"geonameid":"4353463","name":"District Heights","asciiname":"District Heights","alternatenames":[""],"latitude":"38.85761","longitude":"-76.88942","feature_class":"P","feature_code":"PPL","country_code":"US","cc2":"","admin1_code":"MD","admin2_code":"033","admin3_code":"","admin4_code":"","population":"5837","elevation":"81","dem":"84","timezone":"America/New_York","modification_date":"2011-05-14"},{"geonameid":"4353667","name":"Drum Point","asciiname":"Drum Point","alternatenames":[""],"latitude":"38.32679","longitude":"-76.42606","feature_class":"P","feature_code":"PPL","country_code":"US","cc2":"","admin1_code":"MD","admin2_code":"009","admin3_code":"","admin4_code":"","population":"2731","elevation":"13","dem":"11","timezone":"America/New_York","modification_date":"2011-05-14"},{"geonameid":"4353765","name":"Dundalk","asciiname":"Dundalk","alternatenames":["Dandalk","Dandok","Dandolk","Dundalk","dandk  mrylnd","Дандалк","Дандок","Дандолк","داندک، مریلند"],"latitude":"39.25066","longitude":"-76.52052","feature_class":"P","feature_code":"PPL","country_code":"US","cc2":"","admin1_code":"MD","admin2_code":"005","admin3_code":"","admin4_code":"","population":"63597","elevation":"5","dem":"10","timezone":"America/New_York","modification_date":"2011-05-14"},{"geonameid":"4353798","name":"Dunkirk","asciiname":"Dunkirk","alternatenames":[""],"latitude":"38.72178","longitude":"-76.66052","feature_class":"P","feature_code":"PPL","country_code":"US","cc2":"","admin1_code":"MD","admin2_code":"009","admin3_code":"","admin4_code":"","population":"2509","elevation":"47","dem":"42","timezone":"America/New_York","modification_date":"2010-02-15"},{"geonameid":"4353805","name":"Dunkirk Town Center","asciiname":"Dunkirk Town Center","alternatenames":[""],"latitude":"38.72039","longitude":"-76.65857","feature_class":"P","feature_code":"PPL","country_code":"US","cc2":"","admin1_code":"MD","admin2_code":"009","admin3_code":"","admin4_code":"","population":"2520","elevation":"36","dem":"40","timezone":"America/New_York","modification_date":"2011-05-14"},{"geonameid":"4353925","name":"East Riverdale","asciiname":"East Riverdale","alternatenames":[""],"latitude":"38.96206","longitude":"-76.92192","feature_class":"P","feature_code":"PPL","country_code":"US","cc2":"","admin1_code":"MD","admin2_code":"033","admin3_code":"","admin4_code":"","population":"15509","elevation":"11","dem":"13","timezone":"America/New_York","modification_date":"2011-05-14"},{"geonameid":"4353962","name":"Easton","asciiname":"Easton","alternatenames":["ESN","Iston","aystn  mrylnd","yi si dun","Истон","ایستن، مریلند","伊斯頓"],"latitude":"38.77428","longitude":"-76.07633","feature_class":"P","feature_code":"PPLA2","country_code":"US","cc2":"","admin1_code":"MD","admin2_code":"041","admin3_code":"","admin4_code":"","population":"15945","elevation":"7","dem":"12","timezone":"America/New_York","modification_date":"2011-05-14"},{"geonameid":"4354060","name":"Edgemere","asciiname":"Edgemere","alternatenames":[""],"latitude":"39.24205","longitude":"-76.44802","feature_class":"P","feature_code":"PPL","country_code":"US","cc2":"","admin1_code":"MD","admin2_code":"005","admin3_code":"","admin4_code":"","population":"8669","elevation":"6","dem":"9","timezone":"America/New_York","modification_date":"2011-05-14"},{"geonameid":"4354072","name":"Edgewater","asciiname":"Edgewater","alternatenames":[""],"latitude":"38.95706","longitude":"-76.54996","feature_class":"P","feature_code":"PPL","country_code":"US","cc2":"","admin1_code":"MD","admin2_code":"003","admin3_code":"","admin4_code":"","population":"9023","elevation":"15","dem":"13","timezone":"America/New_York","modification_date":"2011-05-14"},{"geonameid":"4354087","name":"Edgewood","asciiname":"Edgewood","alternatenames":[""],"latitude":"39.41872","longitude":"-76.2944","feature_class":"P","feature_code":"PPL","country_code":"US","cc2":"","admin1_code":"MD","admin2_code":"025","admin3_code":"","admin4_code":"","population":"25562","elevation":"14","dem":"16","timezone":"America/New_York","modification_date":"2011-05-14"},{"geonameid":"4354121","name":"Edmonston","asciiname":"Edmonston","alternatenames":[""],"latitude":"38.94678","longitude":"-76.93109","feature_class":"P","feature_code":"PPL","country_code":"US","cc2":"","admin1_code":"MD","admin2_code":"033","admin3_code":"","admin4_code":"","population":"1445","elevation":"5","dem":"9","timezone":"America/New_York","modification_date":"2011-05-14"},{"geonameid":"4354163","name":"Eldersburg","asciiname":"Eldersburg","alternatenames":[""],"latitude":"39.40371","longitude":"-76.95026","feature_class":"P","feature_code":"PPL","country_code":"US","cc2":"","admin1_code":"MD","admin2_code":"013","admin3_code":"","admin4_code":"","population":"30531","elevation":"196","dem":"197","timezone":"America/New_York","modification_date":"2011-05-14"},{"geonameid":"4354234","name":"Elkton","asciiname":"Elkton","alternatenames":["Elkton","ai er ke dun","alktwn  mrylnd","Елктон","الکتون، مریلند","埃尔克顿"],"latitude":"39.60678","longitude":"-75.83327","feature_class":"P","feature_code":"PPLA2","country_code":"US","cc2":"","admin1_code":"MD","admin2_code":"015","admin3_code":"","admin4_code":"","population":"15443","elevation":"8","dem":"8","timezone":"America/New_York","modification_date":"2011-05-14"},{"geonameid":"4354256","name":"Elkridge","asciiname":"Elkridge","alternatenames":[""],"latitude":"39.21261","longitude":"-76.71358","feature_class":"P","feature_code":"PPL","country_code":"US","cc2":"","admin1_code":"MD","admin2_code":"027","admin3_code":"","admin4_code":"","population":"15593","elevation":"29","dem":"37","timezone":"America/New_York","modification_date":"2011-05-14"},{"geonameid":"4354265","name":"Ellicott City","asciiname":"Ellicott City","alternatenames":["Ehllikot Siti","Elikot Siti","Ellicott City","ai li ke te cheng","alykt  mrylnd","Еликот Сити","Элликот Сити","الیکت، مریلند","埃利科特城"],"latitude":"39.26733","longitude":"-76.79831","feature_class":"P","feature_code":"PPLA2","country_code":"US","cc2":"","admin1_code":"MD","admin2_code":"027","admin3_code":"","admin4_code":"","population":"65834","elevation":"55","dem":"55","timezone":"America/New_York","modification_date":"2011-05-14"},{"geonameid":"4354352","name":"Emmitsburg","asciiname":"Emmitsburg","alternatenames":["Ehmmitsburg","Emitsberg","amytsbwrg  mrylnd","Емитсберг","Эммитсбург","امیتسبورگ، مریلند"],"latitude":"39.70454","longitude":"-77.32693","feature_class":"P","feature_code":"PPL","country_code":"US","cc2":"","admin1_code":"MD","admin2_code":"021","admin3_code":"","admin4_code":"","population":"2814","elevation":"133","dem":"132","timezone":"America/New_York","modification_date":"2011-05-14"},{"geonameid":"4354428","name":"Essex","asciiname":"Essex","alternatenames":["Ehsseks","Эссекс"],"latitude":"39.30927","longitude":"-76.47496","feature_class":"P","feature_code":"PPL","country_code":"US","cc2":"","admin1_code":"MD","admin2_code":"005","admin3_code":"","admin4_code":"","population":"39262","elevation":"12","dem":"15","timezone":"America/New_York","modification_date":"2011-05-14"},{"geonameid":"4354573","name":"Fairland","asciiname":"Fairland","alternatenames":[""],"latitude":"39.07622","longitude":"-76.95775","feature_class":"P","feature_code":"PPL","country_code":"US","cc2":"","admin1_code":"MD","admin2_code":"031","admin3_code":"","admin4_code":"","population":"23681","elevation":"126","dem":"126","timezone":"America/New_York","modification_date":"2011-05-14"},{"geonameid":"4354593","name":"Fairmount Heights","asciiname":"Fairmount Heights","alternatenames":[""],"latitude":"38.90095","longitude":"-76.91553","feature_class":"P","feature_code":"PPL","country_code":"US","cc2":"","admin1_code":"MD","admin2_code":"033","admin3_code":"","admin4_code":"","population":"1494","elevation":"31","dem":"33","timezone":"America/New_York","modification_date":"2011-05-14"},{"geonameid":"4354708","name":"Fallston","asciiname":"Fallston","alternatenames":[""],"latitude":"39.51455","longitude":"-76.41107","feature_class":"P","feature_code":"PPL","country_code":"US","cc2":"","admin1_code":"MD","admin2_code":"025","admin3_code":"","admin4_code":"","population":"8958","elevation":"142","dem":"138","timezone":"America/New_York","modification_date":"2011-05-14"},{"geonameid":"4354775","name":"Federalsburg","asciiname":"Federalsburg","alternatenames":[""],"latitude":"38.69428","longitude":"-75.77216","feature_class":"P","feature_code":"PPL","country_code":"US","cc2":"","admin1_code":"MD","admin2_code":"011","admin3_code":"","admin4_code":"","population":"2739","elevation":"1","dem":"3","timezone":"America/New_York","modification_date":"2011-05-14"},{"geonameid":"4354821","name":"Ferndale","asciiname":"Ferndale","alternatenames":[""],"latitude":"39.18316","longitude":"-76.64024","feature_class":"P","feature_code":"PPL","country_code":"US","cc2":"","admin1_code":"MD","admin2_code":"003","admin3_code":"","admin4_code":"","population":"16746","elevation":"24","dem":"24","timezone":"America/New_York","modification_date":"2011-05-14"},{"geonameid":"4355214","name":"Forest Glen","asciiname":"Forest Glen","alternatenames":[""],"latitude":"39.01455","longitude":"-77.0547","feature_class":"P","feature_code":"PPL","country_code":"US","cc2":"","admin1_code":"MD","admin2_code":"031","admin3_code":"","admin4_code":"","population":"6582","elevation":"96","dem":"94","timezone":"America/New_York","modification_date":"2011-05-14"},{"geonameid":"4355230","name":"Forest Heights","asciiname":"Forest Heights","alternatenames":[""],"latitude":"38.80956","longitude":"-76.99803","feature_class":"P","feature_code":"PPL","country_code":"US","cc2":"","admin1_code":"MD","admin2_code":"033","admin3_code":"","admin4_code":"","population":"2447","elevation":"48","dem":"55","timezone":"America/New_York","modification_date":"2011-05-14"},{"geonameid":"4355274","name":"Forestville","asciiname":"Forestville","alternatenames":[""],"latitude":"38.84511","longitude":"-76.87497","feature_class":"P","feature_code":"PPL","country_code":"US","cc2":"","admin1_code":"MD","admin2_code":"033","admin3_code":"","admin4_code":"","population":"12353","elevation":"85","dem":"85","timezone":"America/New_York","modification_date":"2011-05-14"},{"geonameid":"4355322","name":"Fort George G Mead Junction","asciiname":"Fort George G Mead Junction","alternatenames":[""],"latitude":"39.12594","longitude":"-76.78914","feature_class":"P","feature_code":"PPL","country_code":"US","cc2":"","admin1_code":"MD","admin2_code":"027","admin3_code":"","admin4_code":"","population":"9505","elevation":"57","dem":"53","timezone":"America/New_York","modification_date":"2010-02-15"},{"geonameid":"4355355","name":"Fort Washington","asciiname":"Fort Washington","alternatenames":["Fort Vashington","Fort Voshington","Ft. Washington","fwrt washyngtn  mrylnd","Форт Вашингтон","Форт Вошингтон","فورت واشینگتن، مریلند"],"latitude":"38.70734","longitude":"-77.02303","feature_class":"P","feature_code":"PPL","country_code":"US","cc2":"","admin1_code":"MD","admin2_code":"033","admin3_code":"","admin4_code":"","population":"23717","elevation":"32","dem":"41","timezone":"America/New_York","modification_date":"2013-07-19"},{"geonameid":"4355400","name":"Four Corners","asciiname":"Four Corners","alternatenames":[""],"latitude":"39.02039","longitude":"-77.01275","feature_class":"P","feature_code":"PPL","country_code":"US","cc2":"","admin1_code":"MD","admin2_code":"031","admin3_code":"","admin4_code":"","population":"7945","elevation":"103","dem":"106","timezone":"America/New_York","modification_date":"2011-05-14"},{"geonameid":"4355585","name":"Frederick","asciiname":"Frederick","alternatenames":["FDK","Frederick i Maryland","Frederik","Frederikas","Frehderik","Fridericus","frdryk  mrylnd","fu lei de li ke","furederikku","peuledeolig","Фредерик","Фрэдерик","فردریک، مریلند","フレデリック","弗雷德里克","프레더릭"],"latitude":"39.41427","longitude":"-77.41054","feature_class":"P","feature_code":"PPLA2","country_code":"US","cc2":"","admin1_code":"MD","admin2_code":"021","admin3_code":"","admin4_code":"","population":"65239","elevation":"87","dem":"90","timezone":"America/New_York","modification_date":"2011-05-14"},{"geonameid":"4355670","name":"Friendly","asciiname":"Friendly","alternatenames":[""],"latitude":"38.75178","longitude":"-76.97859","feature_class":"P","feature_code":"PPL","country_code":"US","cc2":"","admin1_code":"MD","admin2_code":"033","admin3_code":"","admin4_code":"","population":"9250","elevation":"71","dem":"72","timezone":"America/New_York","modification_date":"2011-05-14"},{"geonameid":"4355730","name":"Friendship Village","asciiname":"Friendship Village","alternatenames":[""],"latitude":"38.96289","longitude":"-77.08887","feature_class":"P","feature_code":"PPL","country_code":"US","cc2":"","admin1_code":"MD","admin2_code":"031","admin3_code":"","admin4_code":"","population":"4791","elevation":"93","dem":"105","timezone":"America/New_York","modification_date":"2006-01-17"},{"geonameid":"4355756","name":"Frostburg","asciiname":"Frostburg","alternatenames":["Frostberg","Frostburg","frwstbwrg  mrylnd","Фростберг","Фростбург","فروستبورگ، مریلند"],"latitude":"39.65814","longitude":"-78.92836","feature_class":"P","feature_code":"PPL","country_code":"US","cc2":"","admin1_code":"MD","admin2_code":"001","admin3_code":"","admin4_code":"","population":"9002","elevation":"631","dem":"629","timezone":"America/New_York","modification_date":"2011-05-14"},{"geonameid":"4355780","name":"Fruitland","asciiname":"Fruitland","alternatenames":[""],"latitude":"38.32206","longitude":"-75.6202","feature_class":"P","feature_code":"PPL","country_code":"US","cc2":"","admin1_code":"MD","admin2_code":"045","admin3_code":"","admin4_code":"","population":"4866","elevation":"11","dem":"12","timezone":"America/New_York","modification_date":"2011-05-14"},{"geonameid":"4355809","name":"Fulton","asciiname":"Fulton","alternatenames":[""],"latitude":"39.15094","longitude":"-76.92303","feature_class":"P","feature_code":"PPL","country_code":"US","cc2":"","admin1_code":"MD","admin2_code":"027","admin3_code":"","admin4_code":"","population":"2049","elevation":"138","dem":"140","timezone":"America/New_York","modification_date":"2011-05-14"},{"geonameid":"4355843","name":"Gaithersburg","asciiname":"Gaithersburg","alternatenames":["GAI","Gaithersburgum","Gejtersberg","Gejtersburg","Gejtursburg","Gejzehrsburg","gai se si bao","geideoseubeogeu","geizasubagu","gytrzbrg  mrylnd","Гейзэрсбург","Гейтерсберг","Гейтърсбърг","Гејтерсбург","گیترزبرگ، مریلند","ゲイザースバーグ","盖瑟斯堡","게이더스버그"],"latitude":"39.14344","longitude":"-77.20137","feature_class":"P","feature_code":"PPL","country_code":"US","cc2":"","admin1_code":"MD","admin2_code":"031","admin3_code":"","admin4_code":"","population":"59933","elevation":"153","dem":"153","timezone":"America/New_York","modification_date":"2011-05-14"},{"geonameid":"4355899","name":"Gambrills","asciiname":"Gambrills","alternatenames":[""],"latitude":"39.06705","longitude":"-76.66524","feature_class":"P","feature_code":"PPL","country_code":"US","cc2":"","admin1_code":"MD","admin2_code":"003","admin3_code":"","admin4_code":"","population":"2800","elevation":"46","dem":"47","timezone":"America/New_York","modification_date":"2011-05-14"},{"geonameid":"4355958","name":"Garrison","asciiname":"Garrison","alternatenames":[""],"latitude":"39.40594","longitude":"-76.76053","feature_class":"P","feature_code":"PPL","country_code":"US","cc2":"","admin1_code":"MD","admin2_code":"005","admin3_code":"","admin4_code":"","population":"8823","elevation":"135","dem":"136","timezone":"America/New_York","modification_date":"2011-05-14"},{"geonameid":"4356050","name":"Germantown","asciiname":"Germantown","alternatenames":["Dzermantaun","Dzhermantaun","jrmntawn  mrylnd","Џермантаун","Джермантаун","جرمنتاون، مریلند"],"latitude":"39.17316","longitude":"-77.27165","feature_class":"P","feature_code":"PPL","country_code":"US","cc2":"","admin1_code":"MD","admin2_code":"031","admin3_code":"","admin4_code":"","population":"86395","elevation":"134","dem":"137","timezone":"America/New_York","modification_date":"2011-05-14"},{"geonameid":"4356165","name":"Glassmanor","asciiname":"Glassmanor","alternatenames":[""],"latitude":"38.819","longitude":"-76.99859","feature_class":"P","feature_code":"PPL","country_code":"US","cc2":"","admin1_code":"MD","admin2_code":"033","admin3_code":"","admin4_code":"","population":"17295","elevation":"19","dem":"21","timezone":"America/New_York","modification_date":"2011-05-14"},{"geonameid":"4356188","name":"Glen Burnie","asciiname":"Glen Burnie","alternatenames":["Glehn Bjurni","Glen Berni","ny  mrylnd","Глен Берни","Глэн Бюрни","نی، مریلند"],"latitude":"39.16261","longitude":"-76.62469","feature_class":"P","feature_code":"PPL","country_code":"US","cc2":"","admin1_code":"MD","admin2_code":"003","admin3_code":"","admin4_code":"","population":"67639","elevation":"17","dem":"19","timezone":"America/New_York","modification_date":"2011-05-14"},{"geonameid":"4356242","name":"Glenarden","asciiname":"Glenarden","alternatenames":[""],"latitude":"38.92928","longitude":"-76.86164","feature_class":"P","feature_code":"PPL","country_code":"US","cc2":"","admin1_code":"MD","admin2_code":"033","admin3_code":"","admin4_code":"","population":"6000","elevation":"31","dem":"33","timezone":"America/New_York","modification_date":"2011-05-14"},{"geonameid":"4356280","name":"Glenmont","asciiname":"Glenmont","alternatenames":[""],"latitude":"39.05789","longitude":"-77.0497","feature_class":"P","feature_code":"PPL","country_code":"US","cc2":"","admin1_code":"MD","admin2_code":"031","admin3_code":"","admin4_code":"","population":"13529","elevation":"135","dem":"137","timezone":"America/New_York","modification_date":"2011-05-14"},{"geonameid":"4356289","name":"Glenn Dale","asciiname":"Glenn Dale","alternatenames":[""],"latitude":"38.98761","longitude":"-76.82053","feature_class":"P","feature_code":"PPL","country_code":"US","cc2":"","admin1_code":"MD","admin2_code":"033","admin3_code":"","admin4_code":"","population":"13466","elevation":"35","dem":"42","timezone":"America/New_York","modification_date":"2011-05-14"},{"geonameid":"4356341","name":"Goddard","asciiname":"Goddard","alternatenames":[""],"latitude":"38.98955","longitude":"-76.85331","feature_class":"P","feature_code":"PPL","country_code":"US","cc2":"","admin1_code":"MD","admin2_code":"033","admin3_code":"","admin4_code":"","population":"6177","elevation":"55","dem":"59","timezone":"America/New_York","modification_date":"2006-01-17"},{"geonameid":"4356350","name":"Golden Beach","asciiname":"Golden Beach","alternatenames":[""],"latitude":"38.48985","longitude":"-76.68218","feature_class":"P","feature_code":"PPL","country_code":"US","cc2":"","admin1_code":"MD","admin2_code":"037","admin3_code":"","admin4_code":"","population":"3796","elevation":"2","dem":"7","timezone":"America/New_York","modification_date":"2011-05-14"},{"geonameid":"4356634","name":"Grasonville","asciiname":"Grasonville","alternatenames":[""],"latitude":"38.95817","longitude":"-76.21023","feature_class":"P","feature_code":"PPL","country_code":"US","cc2":"","admin1_code":"MD","admin2_code":"035","admin3_code":"","admin4_code":"","population":"3425","elevation":"3","dem":"4","timezone":"America/New_York","modification_date":"2011-05-14"},{"geonameid":"4356783","name":"Green Haven","asciiname":"Green Haven","alternatenames":[""],"latitude":"39.13955","longitude":"-76.54774","feature_class":"P","feature_code":"PPL","country_code":"US","cc2":"","admin1_code":"MD","admin2_code":"003","admin3_code":"","admin4_code":"","population":"19326","elevation":"15","dem":"15","timezone":"America/New_York","modification_date":"2006-01-17"},{"geonameid":"4356836","name":"Green Valley","asciiname":"Green Valley","alternatenames":[""],"latitude":"39.30927","longitude":"-77.29721","feature_class":"P","feature_code":"PPL","country_code":"US","cc2":"","admin1_code":"MD","admin2_code":"021","admin3_code":"","admin4_code":"","population":"12262","elevation":"121","dem":"120","timezone":"America/New_York","modification_date":"2006-01-15"},{"geonameid":"4356847","name":"Greenbelt","asciiname":"Greenbelt","alternatenames":["Grinbehlt","Grinbelt","Grinbelte","grynblt  mrylnd","Гринбелт","Гринбелте","Гринбэлт","گرینبلت، مریلند"],"latitude":"39.00455","longitude":"-76.87553","feature_class":"P","feature_code":"PPL","country_code":"US","cc2":"","admin1_code":"MD","admin2_code":"033","admin3_code":"","admin4_code":"","population":"23068","elevation":"48","dem":"59","timezone":"America/New_York","modification_date":"2011-05-14"},{"geonameid":"4356953","name":"Greensboro","asciiname":"Greensboro","alternatenames":["Grinsboro","Гринсборо"],"latitude":"38.97372","longitude":"-75.80493","feature_class":"P","feature_code":"PPL","country_code":"US","cc2":"","admin1_code":"MD","admin2_code":"011","admin3_code":"","admin4_code":"","population":"1931","elevation":"5","dem":"8","timezone":"America/New_York","modification_date":"2011-05-14"},{"geonameid":"4357141","name":"Hagerstown","asciiname":"Hagerstown","alternatenames":["HGR","Khagehrtaun","Khagerstaun","hei ge si dui","heigazutaun","heigeoseutaun","hygrztawn  mrylnd","Хагерстаун","Хагэртаун","هیگرزتاون، مریلند","ヘイガーズタウン","黑格斯敦","헤이거스타운"],"latitude":"39.64176","longitude":"-77.71999","feature_class":"P","feature_code":"PPLA2","country_code":"US","cc2":"","admin1_code":"MD","admin2_code":"043","admin3_code":"","admin4_code":"","population":"39662","elevation":"164","dem":"168","timezone":"America/New_York","modification_date":"2011-05-14"},{"geonameid":"4357176","name":"Halfway","asciiname":"Halfway","alternatenames":[""],"latitude":"39.62065","longitude":"-77.75888","feature_class":"P","feature_code":"PPL","country_code":"US","cc2":"","admin1_code":"MD","admin2_code":"043","admin3_code":"","admin4_code":"","population":"10701","elevation":"184","dem":"184","timezone":"America/New_York","modification_date":"2011-05-14"},{"geonameid":"4357279","name":"Hampstead","asciiname":"Hampstead","alternatenames":[""],"latitude":"39.60483","longitude":"-76.84998","feature_class":"P","feature_code":"PPL","country_code":"US","cc2":"","admin1_code":"MD","admin2_code":"013","admin3_code":"","admin4_code":"","population":"6323","elevation":"283","dem":"278","timezone":"America/New_York","modification_date":"2011-05-14"},{"geonameid":"4357289","name":"Hampton","asciiname":"Hampton","alternatenames":["Khehmpton","Хэмптон"],"latitude":"39.42288","longitude":"-76.58469","feature_class":"P","feature_code":"PPL","country_code":"US","cc2":"","admin1_code":"MD","admin2_code":"005","admin3_code":"","admin4_code":"","population":"5052","elevation":"103","dem":"104","timezone":"America/New_York","modification_date":"2011-05-14"},{"geonameid":"4357310","name":"Hancock","asciiname":"Hancock","alternatenames":[""],"latitude":"39.69898","longitude":"-78.17973","feature_class":"P","feature_code":"PPL","country_code":"US","cc2":"","admin1_code":"MD","admin2_code":"043","admin3_code":"","admin4_code":"","population":"1545","elevation":"134","dem":"139","timezone":"America/New_York","modification_date":"2011-05-14"},{"geonameid":"4357340","name":"Hanover","asciiname":"Hanover","alternatenames":["Hanover"],"latitude":"39.19289","longitude":"-76.72414","feature_class":"P","feature_code":"PPL","country_code":"US","cc2":"","admin1_code":"MD","admin2_code":"027","admin3_code":"","admin4_code":"","population":"38088","elevation":"32","dem":"32","timezone":"America/New_York","modification_date":"2012-05-30"},{"geonameid":"4357617","name":"Havre de Grace","asciiname":"Havre de Grace","alternatenames":["Khaver de Grejs","Khavr deh Grehjs","hwr da grys  mrylnd","Хавер де Грејс","Хавр дэ Грэйс","هور دا گریس، مریلند"],"latitude":"39.54928","longitude":"-76.09162","feature_class":"P","feature_code":"PPL","country_code":"US","cc2":"","admin1_code":"MD","admin2_code":"025","admin3_code":"","admin4_code":"","population":"12952","elevation":"17","dem":"14","timezone":"America/New_York","modification_date":"2011-05-14"},{"geonameid":"4357731","name":"Hebron","asciiname":"Hebron","alternatenames":[""],"latitude":"38.42012","longitude":"-75.68771","feature_class":"P","feature_code":"PPL","country_code":"US","cc2":"","admin1_code":"MD","admin2_code":"045","admin3_code":"","admin4_code":"","population":"1084","elevation":"12","dem":"14","timezone":"America/New_York","modification_date":"2011-05-14"},{"geonameid":"4357794","name":"Herald Harbor","asciiname":"Herald Harbor","alternatenames":[""],"latitude":"39.05372","longitude":"-76.56913","feature_class":"P","feature_code":"PPL","country_code":"US","cc2":"","admin1_code":"MD","admin2_code":"003","admin3_code":"","admin4_code":"","population":"2603","elevation":"15","dem":"21","timezone":"America/New_York","modification_date":"2011-05-14"},{"geonameid":"4357991","name":"Highfield-Cascade","asciiname":"Highfield-Cascade","alternatenames":[""],"latitude":"39.71616","longitude":"-77.48282","feature_class":"P","feature_code":"PPL","country_code":"US","cc2":"","admin1_code":"MD","admin2_code":"043","admin3_code":"","admin4_code":"","population":"1112","elevation":"422","dem":"426","timezone":"America/New_York","modification_date":"2011-05-14"},{"geonameid":"4357998","name":"Highland","asciiname":"Highland","alternatenames":[""],"latitude":"39.179","longitude":"-76.95748","feature_class":"P","feature_code":"PPL","country_code":"US","cc2":"","admin1_code":"MD","admin2_code":"027","admin3_code":"","admin4_code":"","population":"1034","elevation":"158","dem":"158","timezone":"America/New_York","modification_date":"2011-05-14"},{"geonameid":"4358066","name":"Hillandale","asciiname":"Hillandale","alternatenames":[""],"latitude":"39.0265","longitude":"-76.97414","feature_class":"P","feature_code":"PPL","country_code":"US","cc2":"","admin1_code":"MD","admin2_code":"031","admin3_code":"","admin4_code":"","population":"6043","elevation":"80","dem":"88","timezone":"America/New_York","modification_date":"2011-05-14"},{"geonameid":"4358082","name":"Hillcrest Heights","asciiname":"Hillcrest Heights","alternatenames":[""],"latitude":"38.83289","longitude":"-76.95942","feature_class":"P","feature_code":"PPL","country_code":"US","cc2":"","admin1_code":"MD","admin2_code":"033","admin3_code":"","admin4_code":"","population":"16469","elevation":"84","dem":"81","timezone":"America/New_York","modification_date":"2011-05-14"},{"geonameid":"4358144","name":"Hillsmere Shores","asciiname":"Hillsmere Shores","alternatenames":[""],"latitude":"38.94011","longitude":"-76.49496","feature_class":"P","feature_code":"PPL","country_code":"US","cc2":"","admin1_code":"MD","admin2_code":"003","admin3_code":"","admin4_code":"","population":"2872","elevation":"16","dem":"21","timezone":"America/New_York","modification_date":"2010-02-15"},{"geonameid":"4358671","name":"Hughesville","asciiname":"Hughesville","alternatenames":[""],"latitude":"38.53262","longitude":"-76.78386","feature_class":"P","feature_code":"PPL","country_code":"US","cc2":"","admin1_code":"MD","admin2_code":"017","admin3_code":"","admin4_code":"","population":"2197","elevation":"54","dem":"53","timezone":"America/New_York","modification_date":"2011-05-14"},{"geonameid":"4358701","name":"Hunt Valley","asciiname":"Hunt Valley","alternatenames":[""],"latitude":"39.49983","longitude":"-76.64108","feature_class":"P","feature_code":"PPL","country_code":"US","cc2":"","admin1_code":"MD","admin2_code":"005","admin3_code":"","admin4_code":"","population":"23915","elevation":"91","dem":"89","timezone":"America/New_York","modification_date":"2012-03-01"},{"geonameid":"4358772","name":"Huntingtown","asciiname":"Huntingtown","alternatenames":[""],"latitude":"38.61595","longitude":"-76.61302","feature_class":"P","feature_code":"PPL","country_code":"US","cc2":"","admin1_code":"MD","admin2_code":"009","admin3_code":"","admin4_code":"","population":"2587","elevation":"49","dem":"47","timezone":"America/New_York","modification_date":"2006-01-17"},{"geonameid":"4358779","name":"Huntingtown Town Center","asciiname":"Huntingtown Town Center","alternatenames":[""],"latitude":"38.62095","longitude":"-76.61607","feature_class":"P","feature_code":"PPL","country_code":"US","cc2":"","admin1_code":"MD","admin2_code":"009","admin3_code":"","admin4_code":"","population":"3311","elevation":"52","dem":"50","timezone":"America/New_York","modification_date":"2011-05-14"},{"geonameid":"4358790","name":"Hurlock","asciiname":"Hurlock","alternatenames":[""],"latitude":"38.62428","longitude":"-75.85438","feature_class":"P","feature_code":"PPL","country_code":"US","cc2":"","admin1_code":"MD","admin2_code":"019","admin3_code":"","admin4_code":"","population":"2092","elevation":"11","dem":"15","timezone":"America/New_York","modification_date":"2011-05-14"},{"geonameid":"4358821","name":"Hyattsville","asciiname":"Hyattsville","alternatenames":["Khiatsvill","haytswyl  mrylnd","Хиатсвилл","هایتسویل، مریلند"],"latitude":"38.95594","longitude":"-76.94553","feature_class":"P","feature_code":"PPL","country_code":"US","cc2":"","admin1_code":"MD","admin2_code":"033","admin3_code":"","admin4_code":"","population":"17557","elevation":"32","dem":"37","timezone":"America/New_York","modification_date":"2011-05-14"},{"geonameid":"4358864","name":"Ilchester","asciiname":"Ilchester","alternatenames":[""],"latitude":"39.25094","longitude":"-76.76469","feature_class":"P","feature_code":"PPL","country_code":"US","cc2":"","admin1_code":"MD","admin2_code":"027","admin3_code":"","admin4_code":"","population":"23476","elevation":"33","dem":"44","timezone":"America/New_York","modification_date":"2011-05-14"},{"geonameid":"4358916","name":"Indian Head","asciiname":"Indian Head","alternatenames":[""],"latitude":"38.60012","longitude":"-77.1622","feature_class":"P","feature_code":"PPL","country_code":"US","cc2":"","admin1_code":"MD","admin2_code":"017","admin3_code":"","admin4_code":"","population":"3844","elevation":"29","dem":"35","timezone":"America/New_York","modification_date":"2011-05-14"},{"geonameid":"4359359","name":"Jarrettsville","asciiname":"Jarrettsville","alternatenames":[""],"latitude":"39.60455","longitude":"-76.47774","feature_class":"P","feature_code":"PPL","country_code":"US","cc2":"","admin1_code":"MD","admin2_code":"025","admin3_code":"","admin4_code":"","population":"2916","elevation":"204","dem":"195","timezone":"America/New_York","modification_date":"2011-05-14"},{"geonameid":"4359377","name":"Jefferson","asciiname":"Jefferson","alternatenames":[""],"latitude":"39.36205","longitude":"-77.53165","feature_class":"P","feature_code":"PPL","country_code":"US","cc2":"","admin1_code":"MD","admin2_code":"021","admin3_code":"","admin4_code":"","population":"2111","elevation":"178","dem":"174","timezone":"America/New_York","modification_date":"2011-05-14"},{"geonameid":"4359619","name":"Joppatowne","asciiname":"Joppatowne","alternatenames":[""],"latitude":"39.45789","longitude":"-76.35524","feature_class":"P","feature_code":"PPL","country_code":"US","cc2":"","admin1_code":"MD","admin2_code":"025","admin3_code":"","admin4_code":"","population":"12616","elevation":"74","dem":"79","timezone":"America/New_York","modification_date":"2011-05-14"},{"geonameid":"4359694","name":"Keedysville","asciiname":"Keedysville","alternatenames":[""],"latitude":"39.48621","longitude":"-77.69971","feature_class":"P","feature_code":"PPL","country_code":"US","cc2":"","admin1_code":"MD","admin2_code":"043","admin3_code":"","admin4_code":"","population":"1152","elevation":"120","dem":"122","timezone":"America/New_York","modification_date":"2011-05-14"},{"geonameid":"4359721","name":"Kemp Mill","asciiname":"Kemp Mill","alternatenames":[""],"latitude":"39.039","longitude":"-77.01914","feature_class":"P","feature_code":"PPL","country_code":"US","cc2":"","admin1_code":"MD","admin2_code":"031","admin3_code":"","admin4_code":"","population":"12564","elevation":"103","dem":"102","timezone":"America/New_York","modification_date":"2011-05-14"},{"geonameid":"4359760","name":"Kensington","asciiname":"Kensington","alternatenames":[""],"latitude":"39.02567","longitude":"-77.07637","feature_class":"P","feature_code":"PPL","country_code":"US","cc2":"","admin1_code":"MD","admin2_code":"031","admin3_code":"","admin4_code":"","population":"2213","elevation":"87","dem":"91","timezone":"America/New_York","modification_date":"2011-05-14"},{"geonameid":"4359858","name":"Kettering","asciiname":"Kettering","alternatenames":["Kettering","Кеттеринг"],"latitude":"38.88456","longitude":"-76.81469","feature_class":"P","feature_code":"PPL","country_code":"US","cc2":"","admin1_code":"MD","admin2_code":"033","admin3_code":"","admin4_code":"","population":"12790","elevation":"42","dem":"47","timezone":"America/New_York","modification_date":"2011-05-14"},{"geonameid":"4359981","name":"Kingstown","asciiname":"Kingstown","alternatenames":[""],"latitude":"39.20483","longitude":"-76.05133","feature_class":"P","feature_code":"PPL","country_code":"US","cc2":"","admin1_code":"MD","admin2_code":"035","admin3_code":"","admin4_code":"","population":"1733","elevation":"5","dem":"3","timezone":"America/New_York","modification_date":"2011-05-14"},{"geonameid":"4359984","name":"Kingsville","asciiname":"Kingsville","alternatenames":[""],"latitude":"39.44872","longitude":"-76.41774","feature_class":"P","feature_code":"PPL","country_code":"US","cc2":"","admin1_code":"MD","admin2_code":"005","admin3_code":"","admin4_code":"","population":"4318","elevation":"83","dem":"83","timezone":"America/New_York","modification_date":"2011-05-14"},{"geonameid":"4360103","name":"La Plata","asciiname":"La Plata","alternatenames":["La Plata","La-Plata","la plata  mrylnd","la pu la ta","Ла Плата","Ла-Плата","لا پلاتا، مریلند","拉普拉塔"],"latitude":"38.52929","longitude":"-76.97525","feature_class":"P","feature_code":"PPLA2","country_code":"US","cc2":"","admin1_code":"MD","admin2_code":"017","admin3_code":"","admin4_code":"","population":"8753","elevation":"57","dem":"55","timezone":"America/New_York","modification_date":"2011-05-14"},{"geonameid":"4360113","name":"La Vale","asciiname":"La Vale","alternatenames":[""],"latitude":"39.65564","longitude":"-78.81058","feature_class":"P","feature_code":"PPL","country_code":"US","cc2":"","admin1_code":"MD","admin2_code":"001","admin3_code":"","admin4_code":"","population":"3551","elevation":"239","dem":"239","timezone":"America/New_York","modification_date":"2011-05-14"},{"geonameid":"4360138","name":"Lake Arbor","asciiname":"Lake Arbor","alternatenames":[""],"latitude":"38.90789","longitude":"-76.82969","feature_class":"P","feature_code":"PPL","country_code":"US","cc2":"","admin1_code":"MD","admin2_code":"033","admin3_code":"","admin4_code":"","population":"9776","elevation":"50","dem":"50","timezone":"America/New_York","modification_date":"2011-05-14"},{"geonameid":"4360201","name":"Lake Shore","asciiname":"Lake Shore","alternatenames":[""],"latitude":"39.10705","longitude":"-76.48496","feature_class":"P","feature_code":"PPL","country_code":"US","cc2":"","admin1_code":"MD","admin2_code":"003","admin3_code":"","admin4_code":"","population":"19477","elevation":"17","dem":"25","timezone":"America/New_York","modification_date":"2011-05-14"},{"geonameid":"4360287","name":"Landover","asciiname":"Landover","alternatenames":["Greater Landover","Landover","landwwr  mrylnd","Ландовер","لاندوور، مریلند"],"latitude":"38.934","longitude":"-76.89664","feature_class":"P","feature_code":"PPL","country_code":"US","cc2":"","admin1_code":"MD","admin2_code":"033","admin3_code":"","admin4_code":"","population":"23078","elevation":"17","dem":"21","timezone":"America/New_York","modification_date":"2011-05-15"},{"geonameid":"4360288","name":"Landover Hills","asciiname":"Landover Hills","alternatenames":[""],"latitude":"38.94317","longitude":"-76.8922","feature_class":"P","feature_code":"PPL","country_code":"US","cc2":"","admin1_code":"MD","admin2_code":"033","admin3_code":"","admin4_code":"","population":"1687","elevation":"50","dem":"54","timezone":"America/New_York","modification_date":"2011-05-14"},{"geonameid":"4360314","name":"Langley Park","asciiname":"Langley Park","alternatenames":[""],"latitude":"38.98872","longitude":"-76.98136","feature_class":"P","feature_code":"PPL","country_code":"US","cc2":"","admin1_code":"MD","admin2_code":"033","admin3_code":"","admin4_code":"","population":"18755","elevation":"46","dem":"49","timezone":"America/New_York","modification_date":"2011-05-14"},{"geonameid":"4360321","name":"Lanham","asciiname":"Lanham","alternatenames":["lanham-sabrwk  mrylnd","لانهام-سابروک، مریلند"],"latitude":"38.96875","longitude":"-76.8634","feature_class":"P","feature_code":"PPL","country_code":"US","cc2":"","admin1_code":"MD","admin2_code":"033","admin3_code":"","admin4_code":"","population":"10157","elevation":"43","dem":"47","timezone":"America/New_York","modification_date":"2015-06-07"},{"geonameid":"4360328","name":"Lansdowne","asciiname":"Lansdowne","alternatenames":[""],"latitude":"39.24511","longitude":"-76.66052","feature_class":"P","feature_code":"PPL","country_code":"US","cc2":"","admin1_code":"MD","admin2_code":"005","admin3_code":"","admin4_code":"","population":"8409","elevation":"26","dem":"25","timezone":"America/New_York","modification_date":"2011-05-14"},{"geonameid":"4360345","name":"Largo","asciiname":"Largo","alternatenames":[""],"latitude":"38.89761","longitude":"-76.83025","feature_class":"P","feature_code":"PPL","country_code":"US","cc2":"","admin1_code":"MD","admin2_code":"033","admin3_code":"","admin4_code":"","population":"10709","elevation":"53","dem":"53","timezone":"America/New_York","modification_date":"2011-05-14"},{"geonameid":"4360369","name":"Laurel","asciiname":"Laurel","alternatenames":["Laurehl","Lorel","loleol","lrl  mrylnd","lwryl","Лаурэл","Лорел","لرل، مریلند","لوريل","로럴"],"latitude":"39.09928","longitude":"-76.84831","feature_class":"P","feature_code":"PPL","country_code":"US","cc2":"","admin1_code":"MD","admin2_code":"033","admin3_code":"","admin4_code":"","population":"25115","elevation":"51","dem":"52","timezone":"America/New_York","modification_date":"2011-05-14"},{"geonameid":"4360443","name":"Layhill","asciiname":"Layhill","alternatenames":[""],"latitude":"39.09233","longitude":"-77.04442","feature_class":"P","feature_code":"PPL","country_code":"US","cc2":"","admin1_code":"MD","admin2_code":"031","admin3_code":"","admin4_code":"","population":"5169","elevation":"134","dem":"133","timezone":"America/New_York","modification_date":"2011-05-14"},{"geonameid":"4360551","name":"Leonardtown","asciiname":"Leonardtown","alternatenames":["LTW","Leonardtown"],"latitude":"38.29124","longitude":"-76.63579","feature_class":"P","feature_code":"PPLA2","country_code":"US","cc2":"","admin1_code":"MD","admin2_code":"037","admin3_code":"","admin4_code":"","population":"2930","elevation":"26","dem":"29","timezone":"America/New_York","modification_date":"2013-05-19"},{"geonameid":"4360592","name":"Lexington Park","asciiname":"Lexington Park","alternatenames":[""],"latitude":"38.26679","longitude":"-76.45384","feature_class":"P","feature_code":"PPL","country_code":"US","cc2":"","admin1_code":"MD","admin2_code":"037","admin3_code":"","admin4_code":"","population":"11626","elevation":"36","dem":"37","timezone":"America/New_York","modification_date":"2011-05-14"},{"geonameid":"4360700","name":"Linganore","asciiname":"Linganore","alternatenames":[""],"latitude":"39.44038","longitude":"-77.20804","feature_class":"P","feature_code":"PPL","country_code":"US","cc2":"","admin1_code":"MD","admin2_code":"021","admin3_code":"","admin4_code":"","population":"8543","elevation":"147","dem":"126","timezone":"America/New_York","modification_date":"2011-05-14"},{"geonameid":"4360713","name":"Linthicum","asciiname":"Linthicum","alternatenames":[""],"latitude":"39.20511","longitude":"-76.65275","feature_class":"P","feature_code":"PPL","country_code":"US","cc2":"","admin1_code":"MD","admin2_code":"003","admin3_code":"","admin4_code":"","population":"10324","elevation":"41","dem":"49","timezone":"America/New_York","modification_date":"2011-05-14"},{"geonameid":"4360954","name":"Lochearn","asciiname":"Lochearn","alternatenames":[""],"latitude":"39.34066","longitude":"-76.72219","feature_class":"P","feature_code":"PPL","country_code":"US","cc2":"","admin1_code":"MD","admin2_code":"005","admin3_code":"","admin4_code":"","population":"25333","elevation":"126","dem":"128","timezone":"America/New_York","modification_date":"2011-05-14"},{"geonameid":"4361085","name":"Lonaconing","asciiname":"Lonaconing","alternatenames":[""],"latitude":"39.56592","longitude":"-78.9803","feature_class":"P","feature_code":"PPL","country_code":"US","cc2":"","admin1_code":"MD","admin2_code":"001","admin3_code":"","admin4_code":"","population":"1214","elevation":"454","dem":"457","timezone":"America/New_York","modification_date":"2011-05-14"},{"geonameid":"4361094","name":"Londontowne","asciiname":"Londontowne","alternatenames":[""],"latitude":"38.93345","longitude":"-76.54941","feature_class":"P","feature_code":"PPL","country_code":"US","cc2":"","admin1_code":"MD","admin2_code":"003","admin3_code":"","admin4_code":"","population":"8018","elevation":"6","dem":"6","timezone":"America/New_York","modification_date":"2010-02-15"},{"geonameid":"4361109","name":"Long Beach","asciiname":"Long Beach","alternatenames":[""],"latitude":"38.46096","longitude":"-76.46884","feature_class":"P","feature_code":"PPL","country_code":"US","cc2":"","admin1_code":"MD","admin2_code":"009","admin3_code":"","admin4_code":"","population":"1821","elevation":"7","dem":"16","timezone":"America/New_York","modification_date":"2011-05-14"},{"geonameid":"4361365","name":"Lusby","asciiname":"Lusby","alternatenames":[""],"latitude":"38.41068","longitude":"-76.45523","feature_class":"P","feature_code":"PPL","country_code":"US","cc2":"","admin1_code":"MD","admin2_code":"009","admin3_code":"","admin4_code":"","population":"1835","elevation":"31","dem":"35","timezone":"America/New_York","modification_date":"2011-05-14"},{"geonameid":"4361379","name":"Lutherville","asciiname":"Lutherville","alternatenames":[""],"latitude":"39.42122","longitude":"-76.62608","feature_class":"P","feature_code":"PPL","country_code":"US","cc2":"","admin1_code":"MD","admin2_code":"005","admin3_code":"","admin4_code":"","population":"6504","elevation":"126","dem":"128","timezone":"America/New_York","modification_date":"2011-05-14"},{"geonameid":"4361547","name":"Manchester","asciiname":"Manchester","alternatenames":["Manchester","Манчестер"],"latitude":"39.66121","longitude":"-76.88498","feature_class":"P","feature_code":"PPL","country_code":"US","cc2":"","admin1_code":"MD","admin2_code":"013","admin3_code":"","admin4_code":"","population":"4808","elevation":"302","dem":"303","timezone":"America/New_York","modification_date":"2011-05-14"},{"geonameid":"4361701","name":"Marlboro Meadows","asciiname":"Marlboro Meadows","alternatenames":[""],"latitude":"38.83622","longitude":"-76.71497","feature_class":"P","feature_code":"PPL","country_code":"US","cc2":"","admin1_code":"MD","admin2_code":"033","admin3_code":"","admin4_code":"","population":"3672","elevation":"30","dem":"34","timezone":"America/New_York","modification_date":"2011-05-14"},{"geonameid":"4361721","name":"Marlow Heights","asciiname":"Marlow Heights","alternatenames":[""],"latitude":"38.83345","longitude":"-76.95164","feature_class":"P","feature_code":"PPL","country_code":"US","cc2":"","admin1_code":"MD","admin2_code":"033","admin3_code":"","admin4_code":"","population":"5618","elevation":"79","dem":"81","timezone":"America/New_York","modification_date":"2011-05-14"},{"geonameid":"4361725","name":"Marlton","asciiname":"Marlton","alternatenames":[""],"latitude":"38.77373","longitude":"-76.78997","feature_class":"P","feature_code":"PPL","country_code":"US","cc2":"","admin1_code":"MD","admin2_code":"033","admin3_code":"","admin4_code":"","population":"9031","elevation":"61","dem":"60","timezone":"America/New_York","modification_date":"2011-05-14"},{"geonameid":"4361831","name":"Maryland City","asciiname":"Maryland City","alternatenames":[""],"latitude":"39.09205","longitude":"-76.81775","feature_class":"P","feature_code":"PPL","country_code":"US","cc2":"","admin1_code":"MD","admin2_code":"003","admin3_code":"","admin4_code":"","population":"16093","elevation":"65","dem":"69","timezone":"America/New_York","modification_date":"2011-05-14"},{"geonameid":"4361969","name":"Maugansville","asciiname":"Maugansville","alternatenames":[""],"latitude":"39.69287","longitude":"-77.74472","feature_class":"P","feature_code":"PPL","country_code":"US","cc2":"","admin1_code":"MD","admin2_code":"043","admin3_code":"","admin4_code":"","population":"3071","elevation":"189","dem":"188","timezone":"America/New_York","modification_date":"2011-05-14"},{"geonameid":"4362001","name":"Mayo","asciiname":"Mayo","alternatenames":[""],"latitude":"38.88761","longitude":"-76.5119","feature_class":"P","feature_code":"PPL","country_code":"US","cc2":"","admin1_code":"MD","admin2_code":"003","admin3_code":"","admin4_code":"","population":"8298","elevation":"4","dem":"6","timezone":"America/New_York","modification_date":"2011-05-14"},{"geonameid":"4362009","name":"Mays Chapel","asciiname":"Mays Chapel","alternatenames":[""],"latitude":"39.43316","longitude":"-76.64941","feature_class":"P","feature_code":"PPL","country_code":"US","cc2":"","admin1_code":"MD","admin2_code":"005","admin3_code":"","admin4_code":"","population":"11420","elevation":"140","dem":"154","timezone":"America/New_York","modification_date":"2011-05-14"},{"geonameid":"4362173","name":"Mechanicsville","asciiname":"Mechanicsville","alternatenames":[""],"latitude":"38.4429","longitude":"-76.74385","feature_class":"P","feature_code":"PPL","country_code":"US","cc2":"","admin1_code":"MD","admin2_code":"037","admin3_code":"","admin4_code":"","population":"1508","elevation":"48","dem":"55","timezone":"America/New_York","modification_date":"2011-05-14"},{"geonameid":"4362197","name":"Mellwood","asciiname":"Mellwood","alternatenames":[""],"latitude":"38.81039","longitude":"-76.82414","feature_class":"P","feature_code":"PPL","country_code":"US","cc2":"","admin1_code":"MD","admin2_code":"033","admin3_code":"","admin4_code":"","population":"3051","elevation":"66","dem":"64","timezone":"America/New_York","modification_date":"2011-05-14"},{"geonameid":"4362344","name":"Middle River","asciiname":"Middle River","alternatenames":[""],"latitude":"39.33427","longitude":"-76.43941","feature_class":"P","feature_code":"PPL","country_code":"US","cc2":"","admin1_code":"MD","admin2_code":"005","admin3_code":"","admin4_code":"","population":"25191","elevation":"8","dem":"12","timezone":"America/New_York","modification_date":"2011-05-14"},{"geonameid":"4362372","name":"Middletown","asciiname":"Middletown","alternatenames":["Middltaun","Midltaun","mydltawn  mrylnd","Миддлтаун","Мидлтаун","میدلتاون، مریلند"],"latitude":"39.44371","longitude":"-77.54471","feature_class":"P","feature_code":"PPL","country_code":"US","cc2":"","admin1_code":"MD","admin2_code":"021","admin3_code":"","admin4_code":"","population":"4136","elevation":"172","dem":"171","timezone":"America/New_York","modification_date":"2011-05-14"},{"geonameid":"4362438","name":"Milford Mill","asciiname":"Milford Mill","alternatenames":[""],"latitude":"39.34788","longitude":"-76.76997","feature_class":"P","feature_code":"PPL","country_code":"US","cc2":"","admin1_code":"MD","admin2_code":"005","admin3_code":"","admin4_code":"","population":"29042","elevation":"151","dem":"155","timezone":"America/New_York","modification_date":"2011-05-14"},{"geonameid":"4362624","name":"Mitchellville","asciiname":"Mitchellville","alternatenames":[""],"latitude":"38.92511","longitude":"-76.74275","feature_class":"P","feature_code":"PPL","country_code":"US","cc2":"","admin1_code":"MD","admin2_code":"033","admin3_code":"","admin4_code":"","population":"10967","elevation":"32","dem":"36","timezone":"America/New_York","modification_date":"2011-05-14"},{"geonameid":"4362743","name":"Montgomery Village","asciiname":"Montgomery Village","alternatenames":[""],"latitude":"39.17677","longitude":"-77.19526","feature_class":"P","feature_code":"PPL","country_code":"US","cc2":"","admin1_code":"MD","admin2_code":"031","admin3_code":"","admin4_code":"","population":"32032","elevation":"114","dem":"118","timezone":"America/New_York","modification_date":"2011-05-14"},{"geonameid":"4362837","name":"Morningside","asciiname":"Morningside","alternatenames":[""],"latitude":"38.83011","longitude":"-76.89136","feature_class":"P","feature_code":"PPL","country_code":"US","cc2":"","admin1_code":"MD","admin2_code":"033","admin3_code":"","admin4_code":"","population":"2015","elevation":"81","dem":"80","timezone":"America/New_York","modification_date":"2011-05-14"},{"geonameid":"4362882","name":"Mount Airy","asciiname":"Mount Airy","alternatenames":[""],"latitude":"39.37621","longitude":"-77.1547","feature_class":"P","feature_code":"PPL","country_code":"US","cc2":"","admin1_code":"MD","admin2_code":"013","admin3_code":"","admin4_code":"","population":"9288","elevation":"238","dem":"235","timezone":"America/New_York","modification_date":"2011-05-14"},{"geonameid":"4363124","name":"Mount Rainier","asciiname":"Mount Rainier","alternatenames":[""],"latitude":"38.9415","longitude":"-76.96498","feature_class":"P","feature_code":"PPL","country_code":"US","cc2":"","admin1_code":"MD","admin2_code":"033","admin3_code":"","admin4_code":"","population":"8080","elevation":"23","dem":"29","timezone":"America/New_York","modification_date":"2011-05-14"},{"geonameid":"4363282","name":"Mountain Lake Park","asciiname":"Mountain Lake Park","alternatenames":[""],"latitude":"39.39843","longitude":"-79.38171","feature_class":"P","feature_code":"PPL","country_code":"US","cc2":"","admin1_code":"MD","admin2_code":"023","admin3_code":"","admin4_code":"","population":"2092","elevation":"748","dem":"749","timezone":"America/New_York","modification_date":"2011-05-14"},{"geonameid":"4363436","name":"Myersville","asciiname":"Myersville","alternatenames":[""],"latitude":"39.5051","longitude":"-77.56638","feature_class":"P","feature_code":"PPL","country_code":"US","cc2":"","admin1_code":"MD","admin2_code":"021","admin3_code":"","admin4_code":"","population":"1626","elevation":"205","dem":"206","timezone":"America/New_York","modification_date":"2011-05-14"},{"geonameid":"4363611","name":"New Carrollton","asciiname":"New Carrollton","alternatenames":[""],"latitude":"38.96983","longitude":"-76.87997","feature_class":"P","feature_code":"PPL","country_code":"US","cc2":"","admin1_code":"MD","admin2_code":"033","admin3_code":"","admin4_code":"","population":"12135","elevation":"23","dem":"29","timezone":"America/New_York","modification_date":"2011-05-14"},{"geonameid":"4363692","name":"New Windsor","asciiname":"New Windsor","alternatenames":[""],"latitude":"39.54205","longitude":"-77.10804","feature_class":"P","feature_code":"PPL","country_code":"US","cc2":"","admin1_code":"MD","admin2_code":"013","admin3_code":"","admin4_code":"","population":"1396","elevation":"152","dem":"143","timezone":"America/New_York","modification_date":"2011-05-14"},{"geonameid":"4363831","name":"North Beach","asciiname":"North Beach","alternatenames":[""],"latitude":"38.70734","longitude":"-76.53107","feature_class":"P","feature_code":"PPL","country_code":"US","cc2":"","admin1_code":"MD","admin2_code":"009","admin3_code":"","admin4_code":"","population":"1978","elevation":"0","dem":"1","timezone":"America/New_York","modification_date":"2011-05-14"},{"geonameid":"4363836","name":"North Bel Air","asciiname":"North Bel Air","alternatenames":[""],"latitude":"39.53983","longitude":"-76.35496","feature_class":"P","feature_code":"PPLX","country_code":"US","cc2":"","admin1_code":"MD","admin2_code":"025","admin3_code":"","admin4_code":"","population":"33925","elevation":"115","dem":"115","timezone":"America/New_York","modification_date":"2010-09-05"},{"geonameid":"4363843","name":"North Bethesda","asciiname":"North Bethesda","alternatenames":["N. Bethesda"],"latitude":"39.04455","longitude":"-77.11887","feature_class":"P","feature_code":"PPL","country_code":"US","cc2":"","admin1_code":"MD","admin2_code":"031","admin3_code":"","admin4_code":"","population":"43828","elevation":"120","dem":"121","timezone":"America/New_York","modification_date":"2013-05-31"},{"geonameid":"4363889","name":"North East","asciiname":"North East","alternatenames":[""],"latitude":"39.60011","longitude":"-75.94133","feature_class":"P","feature_code":"PPL","country_code":"US","cc2":"","admin1_code":"MD","admin2_code":"015","admin3_code":"","admin4_code":"","population":"3572","elevation":"5","dem":"5","timezone":"America/New_York","modification_date":"2011-05-14"},{"geonameid":"4363960","name":"North Kensington","asciiname":"North Kensington","alternatenames":[""],"latitude":"39.03039","longitude":"-77.07248","feature_class":"P","feature_code":"PPL","country_code":"US","cc2":"","admin1_code":"MD","admin2_code":"031","admin3_code":"","admin4_code":"","population":"9514","elevation":"97","dem":"99","timezone":"America/New_York","modification_date":"2011-05-14"},{"geonameid":"4363964","name":"North Laurel","asciiname":"North Laurel","alternatenames":[""],"latitude":"39.139","longitude":"-76.87053","feature_class":"P","feature_code":"PPL","country_code":"US","cc2":"","admin1_code":"MD","admin2_code":"027","admin3_code":"","admin4_code":"","population":"4474","elevation":"90","dem":"95","timezone":"America/New_York","modification_date":"2011-05-14"},{"geonameid":"4363990","name":"North Potomac","asciiname":"North Potomac","alternatenames":[""],"latitude":"39.08289","longitude":"-77.26498","feature_class":"P","feature_code":"PPL","country_code":"US","cc2":"","admin1_code":"MD","admin2_code":"031","admin3_code":"","admin4_code":"","population":"24410","elevation":"79","dem":"82","timezone":"America/New_York","modification_date":"2011-05-14"},{"geonameid":"4364231","name":"Oakland","asciiname":"Oakland","alternatenames":["OBT","Oakland","Oaklehnd","Oklend","Oukland","ao ke lan","awwklnd  mrylnd","Оаклэнд","Окленд","Оукланд","اووکلند، مریلند","奧克蘭"],"latitude":"39.40787","longitude":"-79.40671","feature_class":"P","feature_code":"PPLA2","country_code":"US","cc2":"","admin1_code":"MD","admin2_code":"023","admin3_code":"","admin4_code":"","population":"1925","elevation":"731","dem":"738","timezone":"America/New_York","modification_date":"2014-03-09"},{"geonameid":"4364312","name":"Ocean City","asciiname":"Ocean City","alternatenames":["OCE","Oushan Siti","Oushehn Siti","Oushun Siti","Urbs Oceana","awwshn  mrylnd","osyeon siti","Оушан Сити","Оушън Сити","Оушэн Сити","اووشن، مریلند","오션 시티"],"latitude":"38.3365","longitude":"-75.08491","feature_class":"P","feature_code":"PPL","country_code":"US","cc2":"","admin1_code":"MD","admin2_code":"047","admin3_code":"","admin4_code":"","population":"7102","elevation":"1","dem":"1","timezone":"America/New_York","modification_date":"2011-05-14"},{"geonameid":"4364326","name":"Ocean Pines","asciiname":"Ocean Pines","alternatenames":[""],"latitude":"38.39539","longitude":"-75.15574","feature_class":"P","feature_code":"PPL","country_code":"US","cc2":"","admin1_code":"MD","admin2_code":"047","admin3_code":"","admin4_code":"","population":"11710","elevation":"2","dem":"7","timezone":"America/New_York","modification_date":"2011-05-14"},{"geonameid":"4364362","name":"Odenton","asciiname":"Odenton","alternatenames":[""],"latitude":"39.084","longitude":"-76.70025","feature_class":"P","feature_code":"PPL","country_code":"US","cc2":"","admin1_code":"MD","admin2_code":"003","admin3_code":"","admin4_code":"","population":"37132","elevation":"47","dem":"47","timezone":"America/New_York","modification_date":"2011-05-14"},{"geonameid":"4364537","name":"Olney","asciiname":"Olney","alternatenames":["Olni","Олни"],"latitude":"39.15316","longitude":"-77.06692","feature_class":"P","feature_code":"PPL","country_code":"US","cc2":"","admin1_code":"MD","admin2_code":"031","admin3_code":"","admin4_code":"","population":"33844","elevation":"165","dem":"162","timezone":"America/New_York","modification_date":"2011-05-14"},{"geonameid":"4364690","name":"Overlea","asciiname":"Overlea","alternatenames":[""],"latitude":"39.36344","longitude":"-76.52052","feature_class":"P","feature_code":"PPL","country_code":"US","cc2":"","admin1_code":"MD","admin2_code":"005","admin3_code":"","admin4_code":"","population":"12275","elevation":"69","dem":"70","timezone":"America/New_York","modification_date":"2011-05-14"},{"geonameid":"4364721","name":"Owings","asciiname":"Owings","alternatenames":[""],"latitude":"38.71762","longitude":"-76.60135","feature_class":"P","feature_code":"PPL","country_code":"US","cc2":"","admin1_code":"MD","admin2_code":"009","admin3_code":"","admin4_code":"","population":"2149","elevation":"27","dem":"25","timezone":"America/New_York","modification_date":"2011-05-14"},{"geonameid":"4364727","name":"Owings Mills","asciiname":"Owings Mills","alternatenames":["Ovings Mills","wwyngs mylz  mrylnd","Овингс Миллс","ووینگس میلز، مریلند","オーウィングス・ミルズ"],"latitude":"39.41955","longitude":"-76.78025","feature_class":"P","feature_code":"PPL","country_code":"US","cc2":"","admin1_code":"MD","admin2_code":"005","admin3_code":"","admin4_code":"","population":"30622","elevation":"152","dem":"152","timezone":"America/New_York","modification_date":"2011-05-14"},{"geonameid":"4364759","name":"Oxon Hill","asciiname":"Oxon Hill","alternatenames":[""],"latitude":"38.80345","longitude":"-76.9897","feature_class":"P","feature_code":"PPL","country_code":"US","cc2":"","admin1_code":"MD","admin2_code":"033","admin3_code":"","admin4_code":"","population":"17722","elevation":"57","dem":"57","timezone":"America/New_York","modification_date":"2011-05-14"},{"geonameid":"4364946","name":"Parkville","asciiname":"Parkville","alternatenames":[""],"latitude":"39.37733","longitude":"-76.53969","feature_class":"P","feature_code":"PPL","country_code":"US","cc2":"","admin1_code":"MD","admin2_code":"005","admin3_code":"","admin4_code":"","population":"30734","elevation":"101","dem":"104","timezone":"America/New_York","modification_date":"2011-05-14"},{"geonameid":"4364964","name":"Parole","asciiname":"Parole","alternatenames":[""],"latitude":"38.97956","longitude":"-76.53052","feature_class":"P","feature_code":"PPL","country_code":"US","cc2":"","admin1_code":"MD","admin2_code":"003","admin3_code":"","admin4_code":"","population":"15922","elevation":"20","dem":"21","timezone":"America/New_York","modification_date":"2011-05-14"},{"geonameid":"4364990","name":"Pasadena","asciiname":"Pasadena","alternatenames":["Pasadena","Пасадена"],"latitude":"39.10733","longitude":"-76.57108","feature_class":"P","feature_code":"PPL","country_code":"US","cc2":"","admin1_code":"MD","admin2_code":"003","admin3_code":"","admin4_code":"","population":"24287","elevation":"25","dem":"27","timezone":"America/New_York","modification_date":"2011-05-14"},{"geonameid":"4365227","name":"Perry Hall","asciiname":"Perry Hall","alternatenames":[""],"latitude":"39.41261","longitude":"-76.46357","feature_class":"P","feature_code":"PPL","country_code":"US","cc2":"","admin1_code":"MD","admin2_code":"005","admin3_code":"","admin4_code":"","population":"28474","elevation":"77","dem":"77","timezone":"America/New_York","modification_date":"2011-05-14"},{"geonameid":"4365254","name":"Perryman","asciiname":"Perryman","alternatenames":[""],"latitude":"39.46955","longitude":"-76.2044","feature_class":"P","feature_code":"PPL","country_code":"US","cc2":"","admin1_code":"MD","admin2_code":"025","admin3_code":"","admin4_code":"","population":"2342","elevation":"13","dem":"15","timezone":"America/New_York","modification_date":"2011-05-14"},{"geonameid":"4365264","name":"Perryville","asciiname":"Perryville","alternatenames":["Pehrrivill","Perivil","prywyl  mrylnd","Перивил","Пэрривилл","پریویل، مریلند"],"latitude":"39.56011","longitude":"-76.07134","feature_class":"P","feature_code":"PPL","country_code":"US","cc2":"","admin1_code":"MD","admin2_code":"015","admin3_code":"","admin4_code":"","population":"4361","elevation":"14","dem":"14","timezone":"America/New_York","modification_date":"2011-05-14"},{"geonameid":"4365387","name":"Pikesville","asciiname":"Pikesville","alternatenames":["Pajksvil","Pajksvill","paykswyl  mrylnd","pyyqswwyl","Пайксвилл","Пајксвил","פייקסוויל","پایکسویل، مریلند"],"latitude":"39.37427","longitude":"-76.72247","feature_class":"P","feature_code":"PPL","country_code":"US","cc2":"","admin1_code":"MD","admin2_code":"005","admin3_code":"","admin4_code":"","population":"30764","elevation":"155","dem":"153","timezone":"America/New_York","modification_date":"2011-05-14"},{"geonameid":"4365634","name":"Pittsville","asciiname":"Pittsville","alternatenames":[""],"latitude":"38.39539","longitude":"-75.41297","feature_class":"P","feature_code":"PPL","country_code":"US","cc2":"","admin1_code":"MD","admin2_code":"045","admin3_code":"","admin4_code":"","population":"1417","elevation":"15","dem":"13","timezone":"America/New_York","modification_date":"2011-05-14"},{"geonameid":"4365686","name":"Pleasant Hills","asciiname":"Pleasant Hills","alternatenames":[""],"latitude":"39.47955","longitude":"-76.39413","feature_class":"P","feature_code":"PPL","country_code":"US","cc2":"","admin1_code":"MD","admin2_code":"025","admin3_code":"","admin4_code":"","population":"3379","elevation":"125","dem":"125","timezone":"America/New_York","modification_date":"2011-05-14"},{"geonameid":"4365766","name":"Pocomoke City","asciiname":"Pocomoke City","alternatenames":["Pokomok Siti","Pokomouk Siti","pwkwmwk syty  mrylnd","Покомок Сити","Покомоук Сити","پوکوموک سیتی، مریلند"],"latitude":"38.07568","longitude":"-75.56798","feature_class":"P","feature_code":"PPL","country_code":"US","cc2":"","admin1_code":"MD","admin2_code":"047","admin3_code":"","admin4_code":"","population":"4184","elevation":"2","dem":"5","timezone":"America/New_York","modification_date":"2011-05-14"},{"geonameid":"4365812","name":"Point of Rocks","asciiname":"Point of Rocks","alternatenames":[""],"latitude":"39.27594","longitude":"-77.53915","feature_class":"P","feature_code":"PPL","country_code":"US","cc2":"","admin1_code":"MD","admin2_code":"021","admin3_code":"","admin4_code":"","population":"1466","elevation":"77","dem":"79","timezone":"America/New_York","modification_date":"2011-05-14"},{"geonameid":"4365877","name":"Poolesville","asciiname":"Poolesville","alternatenames":["Pulsvil","pwlswyl  mrylnd","Пулсвил","پولسویل، مریلند"],"latitude":"39.14594","longitude":"-77.41693","feature_class":"P","feature_code":"PPL","country_code":"US","cc2":"","admin1_code":"MD","admin2_code":"031","admin3_code":"","admin4_code":"","population":"4883","elevation":"125","dem":"124","timezone":"America/New_York","modification_date":"2011-05-14"},{"geonameid":"4366001","name":"Potomac","asciiname":"Potomac","alternatenames":["Potomak","Potomak Khehjts","ptwwmk  mrylnd","Потомак","Потомак Хэйтс","پتوومک، مریلند"],"latitude":"39.01817","longitude":"-77.20859","feature_class":"P","feature_code":"PPL","country_code":"US","cc2":"","admin1_code":"MD","admin2_code":"031","admin3_code":"","admin4_code":"","population":"44965","elevation":"110","dem":"108","timezone":"America/New_York","modification_date":"2011-05-14"},{"geonameid":"4366015","name":"Potomac Heights","asciiname":"Potomac Heights","alternatenames":[""],"latitude":"38.60873","longitude":"-77.14053","feature_class":"P","feature_code":"PPL","country_code":"US","cc2":"","admin1_code":"MD","admin2_code":"017","admin3_code":"","admin4_code":"","population":"1117","elevation":"23","dem":"25","timezone":"America/New_York","modification_date":"2011-05-14"},{"geonameid":"4366030","name":"Potomac Park","asciiname":"Potomac Park","alternatenames":[""],"latitude":"39.61176","longitude":"-78.80585","feature_class":"P","feature_code":"PPL","country_code":"US","cc2":"","admin1_code":"MD","admin2_code":"001","admin3_code":"","admin4_code":"","population":"2530","elevation":"215","dem":"223","timezone":"America/New_York","modification_date":"2011-05-14"},