{"region_data":{"countryId":"6252001","adminCode1":"OR","countryName":"United States","fclName":"country, state, region,...","countryCode":"US","lng":"-120.50139","fcodeName":"first-order administrative division","toponymName":"Oregon","fcl":"A","numberOfChildren":36,"name":"Oregon","fcode":"ADM1","geonameId":5744337,"lat":"44.00013","adminName1":"Oregon","population":3642919},"country_data":{"ISO":"US","ISO3":"USA","ISO_Numeric":"840","fips":"US","country":"United States","capital":"Washington","area":"9629091","Population":"310232863","Continent":"NA","tld":".us","CurrencyCode":"USD","CurrencyName":"Dollar","Phone":"1","Postal_Code_Format":"#####-####","Postal_Code_Regex":"^\\d{5}(-\\d{4})?$","Languages":"en-US,es-US,haw,fr","geonameid":"6252001","neighbours":"CA,MX,CU","EquivalentFipsCode":""},"cities":[{"geonameid":"5710756","name":"Albany","asciiname":"Albany","alternatenames":["Albani","Ehlbani","Olbani","albany  awrgn","albany  awryghwn","ao er ba ni","orubani","xxlbani","Албани","Олбани","Элбани","ألباني، أوريغون","البانی، اورگن","ออลบานี","オールバニ","奥尔巴尼"],"latitude":"44.63651","longitude":"-123.10593","feature_class":"P","feature_code":"PPLA2","country_code":"US","cc2":"","admin1_code":"OR","admin2_code":"043","admin3_code":"","admin4_code":"","population":"50158","elevation":"65","dem":"65","timezone":"America/Los_Angeles","modification_date":"2011-05-14"},{"geonameid":"5711099","name":"Aloha","asciiname":"Aloha","alternatenames":[""],"latitude":"45.49428","longitude":"-122.86705","feature_class":"P","feature_code":"PPL","country_code":"US","cc2":"","admin1_code":"OR","admin2_code":"067","admin3_code":"","admin4_code":"","population":"49425","elevation":"65","dem":"64","timezone":"America/Los_Angeles","modification_date":"2011-05-14"},{"geonameid":"5711149","name":"Altamont","asciiname":"Altamont","alternatenames":[""],"latitude":"42.20681","longitude":"-121.73722","feature_class":"P","feature_code":"PPL","country_code":"US","cc2":"","admin1_code":"OR","admin2_code":"035","admin3_code":"","admin4_code":"","population":"19257","elevation":"1263","dem":"1259","timezone":"America/Los_Angeles","modification_date":"2011-05-14"},{"geonameid":"5711224","name":"Amity","asciiname":"Amity","alternatenames":[""],"latitude":"45.11567","longitude":"-123.20733","feature_class":"P","feature_code":"PPL","country_code":"US","cc2":"","admin1_code":"OR","admin2_code":"071","admin3_code":"","admin4_code":"","population":"1614","elevation":"50","dem":"56","timezone":"America/Los_Angeles","modification_date":"2011-05-14"},{"geonameid":"5711789","name":"Ashland","asciiname":"Ashland","alternatenames":["Ashlund","Ehshlehnd","Eshland","a shen lan","aesyullaendeu","ashlnd  awrgn","ashurando","Ашлънд","Ешланд","Эшлэнд","اشلند، اورگن","แอชแลนด์","アシュランド","阿什兰","애슐랜드"],"latitude":"42.19458","longitude":"-122.70948","feature_class":"P","feature_code":"PPL","country_code":"US","cc2":"","admin1_code":"OR","admin2_code":"029","admin3_code":"","admin4_code":"","population":"20078","elevation":"593","dem":"597","timezone":"America/Los_Angeles","modification_date":"2011-05-14"},{"geonameid":"5711847","name":"Astoria","asciiname":"Astoria","alternatenames":["Astoria","Astorija","astwrya  awrgn","astwrya  awryghwn","asutoria","xas tx reiy","Асториа","Астория","Асторија","آستوریا، اورگن","أستوريا، أوريغون","อัสตอเรีย","アストリア"],"latitude":"46.18788","longitude":"-123.83125","feature_class":"P","feature_code":"PPLA2","country_code":"US","cc2":"","admin1_code":"OR","admin2_code":"007","admin3_code":"","admin4_code":"","population":"9477","elevation":"7","dem":"10","timezone":"America/Los_Angeles","modification_date":"2011-05-14"},{"geonameid":"5711861","name":"Athena","asciiname":"Athena","alternatenames":[""],"latitude":"45.8118","longitude":"-118.49053","feature_class":"P","feature_code":"PPL","country_code":"US","cc2":"","admin1_code":"OR","admin2_code":"059","admin3_code":"","admin4_code":"","population":"1126","elevation":"526","dem":"524","timezone":"America/Los_Angeles","modification_date":"2011-05-14"},{"geonameid":"5711918","name":"Aumsville","asciiname":"Aumsville","alternatenames":[""],"latitude":"44.84095","longitude":"-122.87092","feature_class":"P","feature_code":"PPL","country_code":"US","cc2":"","admin1_code":"OR","admin2_code":"047","admin3_code":"","admin4_code":"","population":"3584","elevation":"111","dem":"113","timezone":"America/Los_Angeles","modification_date":"2011-05-14"},{"geonameid":"5712169","name":"Baker City","asciiname":"Baker City","alternatenames":["Behjker Siti","Bejker Siti","Bejkur Siti","Thanh pho Baker","Thành phố Baker","be kexr si ti","bekashiti","bykr syty","bykr syty  awrgn","Бейкър Сити","Бејкер Сити","Бэйкер Сити","بيكر سيتي","بیکر سیتی، اورگن","เบเกอร์ซิตี","ベーカーシティ"],"latitude":"44.77487","longitude":"-117.83438","feature_class":"P","feature_code":"PPLA2","country_code":"US","cc2":"","admin1_code":"OR","admin2_code":"001","admin3_code":"","admin4_code":"","population":"9828","elevation":"1051","dem":"1053","timezone":"America/Los_Angeles","modification_date":"2012-02-20"},{"geonameid":"5712417","name":"Bandon","asciiname":"Bandon","alternatenames":["BDY","Bandon","Bandun","bndn  awrgn","Бандон","Бандън","بندن، اورگن","แบนดัน"],"latitude":"43.119","longitude":"-124.40845","feature_class":"P","feature_code":"PPL","country_code":"US","cc2":"","admin1_code":"OR","admin2_code":"011","admin3_code":"","admin4_code":"","population":"3066","elevation":"3","dem":"4","timezone":"America/Los_Angeles","modification_date":"2014-04-19"},{"geonameid":"5712430","name":"Banks","asciiname":"Banks","alternatenames":[""],"latitude":"45.61872","longitude":"-123.11428","feature_class":"P","feature_code":"PPL","country_code":"US","cc2":"","admin1_code":"OR","admin2_code":"067","admin3_code":"","admin4_code":"","population":"1777","elevation":"65","dem":"65","timezone":"America/Los_Angeles","modification_date":"2011-05-14"},{"geonameid":"5712657","name":"Barview","asciiname":"Barview","alternatenames":[""],"latitude":"43.35428","longitude":"-124.31317","feature_class":"P","feature_code":"PPL","country_code":"US","cc2":"","admin1_code":"OR","admin2_code":"011","admin3_code":"","admin4_code":"","population":"1844","elevation":"7","dem":"7","timezone":"America/Los_Angeles","modification_date":"2011-05-14"},{"geonameid":"5712837","name":"Bay City","asciiname":"Bay City","alternatenames":["Bej-Siti","Бей-Сити"],"latitude":"45.5226","longitude":"-123.8893","feature_class":"P","feature_code":"PPL","country_code":"US","cc2":"","admin1_code":"OR","admin2_code":"057","admin3_code":"","admin4_code":"","population":"1286","elevation":"12","dem":"14","timezone":"America/Los_Angeles","modification_date":"2011-05-14"},{"geonameid":"5713224","name":"Beavercreek","asciiname":"Beavercreek","alternatenames":["Beavercreek"],"latitude":"45.2879","longitude":"-122.53564","feature_class":"P","feature_code":"PPL","country_code":"US","cc2":"","admin1_code":"OR","admin2_code":"005","admin3_code":"","admin4_code":"","population":"4485","elevation":"161","dem":"161","timezone":"America/Los_Angeles","modification_date":"2015-01-09"},{"geonameid":"5713376","name":"Beaverton","asciiname":"Beaverton","alternatenames":["Beaverton","Bijvurtun","Bivehrton","Biverton","bibaton","byfyrtwn  awryghwn","bywrtwn  awrgn","Бивертон","Бивэртон","Бийвъртън","بيفيرتون، أوريغون","بیورتون، اورگن","ビーバートン"],"latitude":"45.48706","longitude":"-122.80371","feature_class":"P","feature_code":"PPL","country_code":"US","cc2":"","admin1_code":"OR","admin2_code":"067","admin3_code":"","admin4_code":"","population":"89803","elevation":"58","dem":"55","timezone":"America/Los_Angeles","modification_date":"2011-05-14"},{"geonameid":"5713587","name":"Bend","asciiname":"Bend","alternatenames":["Behnd","Bend","ben de","bendo","bnd  awrgn","Бенд","Бэнд","بند، اورگن","ベンド","本德"],"latitude":"44.05817","longitude":"-121.31531","feature_class":"P","feature_code":"PPLA2","country_code":"US","cc2":"","admin1_code":"OR","admin2_code":"017","admin3_code":"","admin4_code":"","population":"76639","elevation":"1106","dem":"1106","timezone":"America/Los_Angeles","modification_date":"2011-05-14"},{"geonameid":"5713759","name":"Bethany","asciiname":"Bethany","alternatenames":[""],"latitude":"45.55789","longitude":"-122.8676","feature_class":"P","feature_code":"PPL","country_code":"US","cc2":"","admin1_code":"OR","admin2_code":"067","admin3_code":"","admin4_code":"","population":"20646","elevation":"56","dem":"51","timezone":"America/Los_Angeles","modification_date":"2011-05-14"},{"geonameid":"5714964","name":"Boardman","asciiname":"Boardman","alternatenames":["Bordman","Бордман"],"latitude":"45.83986","longitude":"-119.70058","feature_class":"P","feature_code":"PPL","country_code":"US","cc2":"","admin1_code":"OR","admin2_code":"049","admin3_code":"","admin4_code":"","population":"3220","elevation":"94","dem":"94","timezone":"America/Los_Angeles","modification_date":"2011-05-14"},{"geonameid":"5715905","name":"Brookings","asciiname":"Brookings","alternatenames":["BOK","Brukings","brwkynghz  awryghwn","brwkyngs  awrgn","burukkinguzu","Брукингс","بروكينغز، أوريغون","بروکینگس، اورگن","ブルッキングズ"],"latitude":"42.05261","longitude":"-124.28398","feature_class":"P","feature_code":"PPL","country_code":"US","cc2":"","admin1_code":"OR","admin2_code":"015","admin3_code":"","admin4_code":"","population":"6336","elevation":"48","dem":"42","timezone":"America/Los_Angeles","modification_date":"2011-05-14"},{"geonameid":"5716061","name":"Brownsville","asciiname":"Brownsville","alternatenames":[""],"latitude":"44.39346","longitude":"-122.98481","feature_class":"P","feature_code":"PPL","country_code":"US","cc2":"","admin1_code":"OR","admin2_code":"043","admin3_code":"","admin4_code":"","population":"1668","elevation":"109","dem":"112","timezone":"America/Los_Angeles","modification_date":"2011-05-14"},{"geonameid":"5716744","name":"Bunker Hill","asciiname":"Bunker Hill","alternatenames":[""],"latitude":"43.35595","longitude":"-124.20483","feature_class":"P","feature_code":"PPL","country_code":"US","cc2":"","admin1_code":"OR","admin2_code":"011","admin3_code":"","admin4_code":"","population":"1444","elevation":"22","dem":"15","timezone":"America/Los_Angeles","modification_date":"2011-05-14"},{"geonameid":"5716833","name":"Burns","asciiname":"Burns","alternatenames":["BNO","Berns","Burns","bai en si","brnz  awrgn","Бернс","Бурнс","Бърнс","برنز، اورگن","柏恩斯"],"latitude":"43.58626","longitude":"-119.0541","feature_class":"P","feature_code":"PPLA2","country_code":"US","cc2":"","admin1_code":"OR","admin2_code":"025","admin3_code":"","admin4_code":"","population":"2806","elevation":"1266","dem":"1265","timezone":"America/Los_Angeles","modification_date":"2011-05-14"},{"geonameid":"5717758","name":"Canby","asciiname":"Canby","alternatenames":["Kanbi","knby  awrgn","Канби","کنبی، اورگن"],"latitude":"45.2629","longitude":"-122.69259","feature_class":"P","feature_code":"PPL","country_code":"US","cc2":"","admin1_code":"OR","admin2_code":"005","admin3_code":"","admin4_code":"","population":"15829","elevation":"48","dem":"47","timezone":"America/Los_Angeles","modification_date":"2011-05-14"},{"geonameid":"5717789","name":"Cannon Beach","asciiname":"Cannon Beach","alternatenames":["Kanon Bich","Kanun Bijch","Kehnnon Bich","kanwn bych  awrgn","Канон Бич","Канън Бийч","Кэннон Бич","کانون بیچ، اورگن"],"latitude":"45.89177","longitude":"-123.96153","feature_class":"P","feature_code":"PPL","country_code":"US","cc2":"","admin1_code":"OR","admin2_code":"007","admin3_code":"","admin4_code":"","population":"1690","elevation":"5","dem":"12","timezone":"America/Los_Angeles","modification_date":"2011-05-14"},{"geonameid":"5717822","name":"Canyon City","asciiname":"Canyon City","alternatenames":["Kanion Siti","Kanjon Siti","Keniun Siti","kyanionshiti","Канион Сити","Канјон Сити","Кениън Сити","キャニオンシティ"],"latitude":"44.3896","longitude":"-118.95023","feature_class":"P","feature_code":"PPLA2","country_code":"US","cc2":"","admin1_code":"OR","admin2_code":"023","admin3_code":"","admin4_code":"","population":"703","elevation":"967","dem":"974","timezone":"America/Los_Angeles","modification_date":"2011-05-14"},{"geonameid":"5717887","name":"Canyonville","asciiname":"Canyonville","alternatenames":[""],"latitude":"42.92734","longitude":"-123.28117","feature_class":"P","feature_code":"PPL","country_code":"US","cc2":"","admin1_code":"OR","admin2_code":"019","admin3_code":"","admin4_code":"","population":"1884","elevation":"239","dem":"235","timezone":"America/Los_Angeles","modification_date":"2011-05-14"},{"geonameid":"5717982","name":"Carlton","asciiname":"Carlton","alternatenames":[""],"latitude":"45.29428","longitude":"-123.17649","feature_class":"P","feature_code":"PPL","country_code":"US","cc2":"","admin1_code":"OR","admin2_code":"071","admin3_code":"","admin4_code":"","population":"2007","elevation":"61","dem":"62","timezone":"America/Los_Angeles","modification_date":"2011-05-14"},{"geonameid":"5718132","name":"Cascade Locks","asciiname":"Cascade Locks","alternatenames":["CZK"],"latitude":"45.66984","longitude":"-121.89064","feature_class":"P","feature_code":"PPL","country_code":"US","cc2":"","admin1_code":"OR","admin2_code":"027","admin3_code":"","admin4_code":"","population":"1144","elevation":"46","dem":"40","timezone":"America/Los_Angeles","modification_date":"2011-05-14"},{"geonameid":"5718340","name":"Cave Junction","asciiname":"Cave Junction","alternatenames":["Kehjv Dzhankshn","Kejv DZankshon","Kejv Dzhunkshun","kw jankshn  awrgn","Кейв Джънкшън","Кејв Џанкшон","Кэйв Джанкшн","کو جانکشن، اورگن"],"latitude":"42.16289","longitude":"-123.64812","feature_class":"P","feature_code":"PPL","country_code":"US","cc2":"","admin1_code":"OR","admin2_code":"033","admin3_code":"","admin4_code":"","population":"1883","elevation":"405","dem":"417","timezone":"America/Los_Angeles","modification_date":"2011-05-14"},{"geonameid":"5718480","name":"Cedar Hills","asciiname":"Cedar Hills","alternatenames":[""],"latitude":"45.50484","longitude":"-122.79843","feature_class":"P","feature_code":"PPL","country_code":"US","cc2":"","admin1_code":"OR","admin2_code":"067","admin3_code":"","admin4_code":"","population":"8300","elevation":"84","dem":"85","timezone":"America/Los_Angeles","modification_date":"2011-05-14"},{"geonameid":"5718492","name":"Cedar Mill","asciiname":"Cedar Mill","alternatenames":[""],"latitude":"45.52484","longitude":"-122.81093","feature_class":"P","feature_code":"PPL","country_code":"US","cc2":"","admin1_code":"OR","admin2_code":"067","admin3_code":"","admin4_code":"","population":"14546","elevation":"78","dem":"83","timezone":"America/Los_Angeles","modification_date":"2011-05-14"},{"geonameid":"5718601","name":"Central Point","asciiname":"Central Point","alternatenames":[""],"latitude":"42.37596","longitude":"-122.91643","feature_class":"P","feature_code":"PPL","country_code":"US","cc2":"","admin1_code":"OR","admin2_code":"029","admin3_code":"","admin4_code":"","population":"17169","elevation":"388","dem":"388","timezone":"America/Los_Angeles","modification_date":"2011-05-14"},{"geonameid":"5718830","name":"Chenoweth","asciiname":"Chenoweth","alternatenames":[""],"latitude":"45.62762","longitude":"-121.24341","feature_class":"P","feature_code":"PPL","country_code":"US","cc2":"","admin1_code":"OR","admin2_code":"065","admin3_code":"","admin4_code":"","population":"1855","elevation":"135","dem":"131","timezone":"America/Los_Angeles","modification_date":"2011-05-14"},{"geonameid":"5719308","name":"Clackamas","asciiname":"Clackamas","alternatenames":[""],"latitude":"45.40762","longitude":"-122.57037","feature_class":"P","feature_code":"PPL","country_code":"US","cc2":"","admin1_code":"OR","admin2_code":"005","admin3_code":"","admin4_code":"","population":"6767","elevation":"53","dem":"50","timezone":"America/Los_Angeles","modification_date":"2010-09-05"},{"geonameid":"5719397","name":"Clatskanie","asciiname":"Clatskanie","alternatenames":[""],"latitude":"46.10122","longitude":"-123.20679","feature_class":"P","feature_code":"PPL","country_code":"US","cc2":"","admin1_code":"OR","admin2_code":"009","admin3_code":"","admin4_code":"","population":"1737","elevation":"33","dem":"32","timezone":"America/Los_Angeles","modification_date":"2011-05-14"},{"geonameid":"5719774","name":"Coburg","asciiname":"Coburg","alternatenames":[""],"latitude":"44.13707","longitude":"-123.06648","feature_class":"P","feature_code":"PPL","country_code":"US","cc2":"","admin1_code":"OR","admin2_code":"039","admin3_code":"","admin4_code":"","population":"1035","elevation":"122","dem":"123","timezone":"America/Los_Angeles","modification_date":"2011-05-14"},{"geonameid":"5720167","name":"Columbia City","asciiname":"Columbia City","alternatenames":[""],"latitude":"45.89011","longitude":"-122.80705","feature_class":"P","feature_code":"PPL","country_code":"US","cc2":"","admin1_code":"OR","admin2_code":"009","admin3_code":"","admin4_code":"","population":"1946","elevation":"15","dem":"16","timezone":"America/Los_Angeles","modification_date":"2011-05-14"},{"geonameid":"5720282","name":"Condon","asciiname":"Condon","alternatenames":[""],"latitude":"45.2343","longitude":"-120.18503","feature_class":"P","feature_code":"PPLA2","country_code":"US","cc2":"","admin1_code":"OR","admin2_code":"021","admin3_code":"","admin4_code":"","population":"682","elevation":"863","dem":"861","timezone":"America/Los_Angeles","modification_date":"2011-05-14"},{"geonameid":"5720495","name":"Coos Bay","asciiname":"Coos Bay","alternatenames":["Kus Behj","Kus Bej","kuzubei","kws bay  awrgn","kws bay  awryghwn","Кус Бей","Кус Беј","Кус Бэй","كوس باي، أوريغون","کوس بای، اورگن","クーズベイ"],"latitude":"43.3665","longitude":"-124.21789","feature_class":"P","feature_code":"PPL","country_code":"US","cc2":"","admin1_code":"OR","admin2_code":"011","admin3_code":"","admin4_code":"","population":"15967","elevation":"7","dem":"6","timezone":"America/Los_Angeles","modification_date":"2011-05-14"},{"geonameid":"5720575","name":"Coquille","asciiname":"Coquille","alternatenames":[""],"latitude":"43.17705","longitude":"-124.18761","feature_class":"P","feature_code":"PPLA2","country_code":"US","cc2":"","admin1_code":"OR","admin2_code":"011","admin3_code":"","admin4_code":"","population":"3866","elevation":"16","dem":"18","timezone":"America/Los_Angeles","modification_date":"2011-05-14"},{"geonameid":"5720639","name":"Cornelius","asciiname":"Cornelius","alternatenames":["Kornelius","Корнелиус"],"latitude":"45.51984","longitude":"-123.05983","feature_class":"P","feature_code":"PPL","country_code":"US","cc2":"","admin1_code":"OR","admin2_code":"067","admin3_code":"","admin4_code":"","population":"11869","elevation":"55","dem":"53","timezone":"America/Los_Angeles","modification_date":"2011-05-14"},{"geonameid":"5720727","name":"Corvallis","asciiname":"Corvallis","alternatenames":["CVO","Corvallis","Korvalis","Korvallis","Kovalis","ke wa li si","kobarisu","krwlys  awrgn","kwrfalys  awryghwn","Ковалис","Корвалис","Корваллис","كورفاليس، أوريغون","کرولیس، اورگن","コーバリス","科瓦利斯"],"latitude":"44.56457","longitude":"-123.26204","feature_class":"P","feature_code":"PPLA2","country_code":"US","cc2":"","admin1_code":"OR","admin2_code":"003","admin3_code":"","admin4_code":"","population":"54462","elevation":"71","dem":"74","timezone":"America/Los_Angeles","modification_date":"2011-05-14"},{"geonameid":"5720755","name":"Cottage Grove","asciiname":"Cottage Grove","alternatenames":["Kotidz Grouv","Kotidzh Grouv","Kottehjdzh Grouv","katyj grw  awrgn","Котидж Гроув","Котиџ Гроув","Коттэйдж Гроув","کاتیج گرو، اورگن"],"latitude":"43.79762","longitude":"-123.05952","feature_class":"P","feature_code":"PPL","country_code":"US","cc2":"","admin1_code":"OR","admin2_code":"039","admin3_code":"","admin4_code":"","population":"9686","elevation":"196","dem":"197","timezone":"America/Los_Angeles","modification_date":"2011-05-14"},{"geonameid":"5721551","name":"Creswell","asciiname":"Creswell","alternatenames":[""],"latitude":"43.9179","longitude":"-123.02453","feature_class":"P","feature_code":"PPL","country_code":"US","cc2":"","admin1_code":"OR","admin2_code":"039","admin3_code":"","admin4_code":"","population":"5031","elevation":"170","dem":"168","timezone":"America/Los_Angeles","modification_date":"2011-05-14"},{"geonameid":"5721846","name":"Culp Creek","asciiname":"Culp Creek","alternatenames":[""],"latitude":"43.70346","longitude":"-122.84757","feature_class":"P","feature_code":"PPL","country_code":"US","cc2":"","admin1_code":"OR","admin2_code":"039","admin3_code":"","admin4_code":"","population":"2000","elevation":"293","dem":"294","timezone":"America/Los_Angeles","modification_date":"2013-05-05"},{"geonameid":"5721865","name":"Culver","asciiname":"Culver","alternatenames":[""],"latitude":"44.52568","longitude":"-121.2131","feature_class":"P","feature_code":"PPL","country_code":"US","cc2":"","admin1_code":"OR","admin2_code":"031","admin3_code":"","admin4_code":"","population":"1357","elevation":"802","dem":"802","timezone":"America/Los_Angeles","modification_date":"2011-05-14"},{"geonameid":"5722064","name":"Dallas","asciiname":"Dallas","alternatenames":["Dalas","Dallas","dalas  awrgn","Далас","Даллас","دالاس، اورگن"],"latitude":"44.91928","longitude":"-123.31705","feature_class":"P","feature_code":"PPLA2","country_code":"US","cc2":"","admin1_code":"OR","admin2_code":"053","admin3_code":"","admin4_code":"","population":"14583","elevation":"99","dem":"101","timezone":"America/Los_Angeles","modification_date":"2011-05-14"},{"geonameid":"5722088","name":"Damascus","asciiname":"Damascus","alternatenames":[""],"latitude":"45.41762","longitude":"-122.45898","feature_class":"P","feature_code":"PPL","country_code":"US","cc2":"","admin1_code":"OR","admin2_code":"005","admin3_code":"","admin4_code":"","population":"10539","elevation":"162","dem":"162","timezone":"America/Los_Angeles","modification_date":"2011-05-14"},{"geonameid":"5722326","name":"Dayton","asciiname":"Dayton","alternatenames":["Dehjton","Dejton","Dejtun","detana","dytwn  awrgn","Дейтон","Дейтън","Дејтон","Дэйтон","دیتون، اورگن","डेटन"],"latitude":"45.22067","longitude":"-123.07621","feature_class":"P","feature_code":"PPL","country_code":"US","cc2":"","admin1_code":"OR","admin2_code":"071","admin3_code":"","admin4_code":"","population":"2534","elevation":"48","dem":"51","timezone":"America/Los_Angeles","modification_date":"2011-05-14"},{"geonameid":"5722917","name":"Depoe Bay","asciiname":"Depoe Bay","alternatenames":[""],"latitude":"44.80845","longitude":"-124.06317","feature_class":"P","feature_code":"PPL","country_code":"US","cc2":"","admin1_code":"OR","admin2_code":"041","admin3_code":"","admin4_code":"","population":"1398","elevation":"4","dem":"1","timezone":"America/Los_Angeles","modification_date":"2011-05-14"},{"geonameid":"5722960","name":"Deschutes River Woods","asciiname":"Deschutes River Woods","alternatenames":[""],"latitude":"43.99151","longitude":"-121.35836","feature_class":"P","feature_code":"PPL","country_code":"US","cc2":"","admin1_code":"OR","admin2_code":"017","admin3_code":"","admin4_code":"","population":"5077","elevation":"1195","dem":"1198","timezone":"America/Los_Angeles","modification_date":"2011-05-14"},{"geonameid":"5723833","name":"Drain","asciiname":"Drain","alternatenames":[""],"latitude":"43.65873","longitude":"-123.3187","feature_class":"P","feature_code":"PPL","country_code":"US","cc2":"","admin1_code":"OR","admin2_code":"019","admin3_code":"","admin4_code":"","population":"1151","elevation":"89","dem":"91","timezone":"America/Los_Angeles","modification_date":"2011-05-14"},{"geonameid":"5724352","name":"Dundee","asciiname":"Dundee","alternatenames":[""],"latitude":"45.27817","longitude":"-123.01094","feature_class":"P","feature_code":"PPL","country_code":"US","cc2":"","admin1_code":"OR","admin2_code":"071","admin3_code":"","admin4_code":"","population":"3162","elevation":"64","dem":"66","timezone":"America/Los_Angeles","modification_date":"2011-05-14"},{"geonameid":"5724361","name":"Dunes City","asciiname":"Dunes City","alternatenames":[""],"latitude":"43.88318","longitude":"-124.11512","feature_class":"P","feature_code":"PPL","country_code":"US","cc2":"","admin1_code":"OR","admin2_code":"039","admin3_code":"","admin4_code":"","population":"1303","elevation":"8","dem":"9","timezone":"America/Los_Angeles","modification_date":"2011-05-14"},{"geonameid":"5724406","name":"Durham","asciiname":"Durham","alternatenames":["Darem","Дарем"],"latitude":"45.40206","longitude":"-122.75287","feature_class":"P","feature_code":"PPL","country_code":"US","cc2":"","admin1_code":"OR","admin2_code":"067","admin3_code":"","admin4_code":"","population":"1351","elevation":"45","dem":"47","timezone":"America/Los_Angeles","modification_date":"2011-05-14"},{"geonameid":"5724581","name":"Eagle Point","asciiname":"Eagle Point","alternatenames":[""],"latitude":"42.47263","longitude":"-122.80282","feature_class":"P","feature_code":"PPL","country_code":"US","cc2":"","admin1_code":"OR","admin2_code":"029","admin3_code":"","admin4_code":"","population":"8469","elevation":"398","dem":"396","timezone":"America/Los_Angeles","modification_date":"2011-05-14"},{"geonameid":"5725293","name":"Elgin","asciiname":"Elgin","alternatenames":[""],"latitude":"45.56486","longitude":"-117.91743","feature_class":"P","feature_code":"PPL","country_code":"US","cc2":"","admin1_code":"OR","admin2_code":"061","admin3_code":"","admin4_code":"","population":"1711","elevation":"815","dem":"814","timezone":"America/Los_Angeles","modification_date":"2011-05-14"},{"geonameid":"5725721","name":"Enterprise","asciiname":"Enterprise","alternatenames":["Ehnterprajz","Enterprajz","Enturprajz","antrprays  awrgn","Ентерпрајз","Ентърпрайз","Энтерпрайз","انترپرایس، اورگن"],"latitude":"45.42626","longitude":"-117.27878","feature_class":"P","feature_code":"PPLA2","country_code":"US","cc2":"","admin1_code":"OR","admin2_code":"063","admin3_code":"","admin4_code":"","population":"1940","elevation":"1144","dem":"1143","timezone":"America/Los_Angeles","modification_date":"2011-05-14"},{"geonameid":"5725801","name":"Estacada","asciiname":"Estacada","alternatenames":["Ehstakada","Estakada","Estakejda","astkada  awrgn","Естакада","Естакејда","Эстакада","استکادا، اورگن"],"latitude":"45.28957","longitude":"-122.3337","feature_class":"P","feature_code":"PPL","country_code":"US","cc2":"","admin1_code":"OR","admin2_code":"005","admin3_code":"","admin4_code":"","population":"2695","elevation":"156","dem":"158","timezone":"America/Los_Angeles","modification_date":"2011-05-14"},{"geonameid":"5725846","name":"Eugene","asciiname":"Eugene","alternatenames":["EUG","Eugene","Gorad Judzhyn","Judzhijn","Judzhin","Judzin","Judzinas","Judžinas","you jin","yujin","ywgyn","ywjyn","ywjyn  awrgn","ywjyn  awryghwn","Јуџин","Горад Юджын","Юджийн","Юджин","Юджін","יוגין","يوجين، أوريغون","یوجین","یوجین، اورگن","ユージン","ユージーン","尤金","유진"],"latitude":"44.05207","longitude":"-123.08675","feature_class":"P","feature_code":"PPLA2","country_code":"US","cc2":"","admin1_code":"OR","admin2_code":"039","admin3_code":"","admin4_code":"","population":"156185","elevation":"131","dem":"132","timezone":"America/Los_Angeles","modification_date":"2011-05-14"},{"geonameid":"5726018","name":"Fairview","asciiname":"Fairview","alternatenames":[""],"latitude":"45.53845","longitude":"-122.43398","feature_class":"P","feature_code":"PPL","country_code":"US","cc2":"","admin1_code":"OR","admin2_code":"051","admin3_code":"","admin4_code":"","population":"8920","elevation":"41","dem":"42","timezone":"America/Los_Angeles","modification_date":"2011-05-14"},{"geonameid":"5727032","name":"Florence","asciiname":"Florence","alternatenames":["Florencija","Florens","Floruns","flwrans  awrgn","flwryns  awryghwn","furorensu","peullolenseu","Флоренс","Флоренция","Флорънс","فلورانس، اورگن","فلورينس، أوريغون","フローレンス","플로렌스"],"latitude":"43.98262","longitude":"-124.09984","feature_class":"P","feature_code":"PPL","country_code":"US","cc2":"","admin1_code":"OR","admin2_code":"039","admin3_code":"","admin4_code":"","population":"8466","elevation":"14","dem":"15","timezone":"America/Los_Angeles","modification_date":"2011-05-14"},{"geonameid":"5727190","name":"Forest Grove","asciiname":"Forest Grove","alternatenames":["Forehst Grouv","Forest Grouv","Forist Grouv","foresutogurovu","fwrst grw  awrgn","Форест Гроув","Форист Гроув","Форэст Гроув","فورست گرو، اورگن","フォレストグローヴ"],"latitude":"45.51984","longitude":"-123.11066","feature_class":"P","feature_code":"PPL","country_code":"US","cc2":"","admin1_code":"OR","admin2_code":"067","admin3_code":"","admin4_code":"","population":"21083","elevation":"62","dem":"65","timezone":"America/Los_Angeles","modification_date":"2011-05-14"},{"geonameid":"5727319","name":"Fossil","asciiname":"Fossil","alternatenames":[""],"latitude":"44.99819","longitude":"-120.21614","feature_class":"P","feature_code":"PPLA2","country_code":"US","cc2":"","admin1_code":"OR","admin2_code":"069","admin3_code":"","admin4_code":"","population":"473","elevation":"811","dem":"806","timezone":"America/Los_Angeles","modification_date":"2011-05-14"},{"geonameid":"5727382","name":"Four Corners","asciiname":"Four Corners","alternatenames":[""],"latitude":"44.9279","longitude":"-122.98371","feature_class":"P","feature_code":"PPL","country_code":"US","cc2":"","admin1_code":"OR","admin2_code":"047","admin3_code":"","admin4_code":"","population":"15947","elevation":"67","dem":"69","timezone":"America/Los_Angeles","modification_date":"2011-05-14"},{"geonameid":"5728127","name":"Gearhart","asciiname":"Gearhart","alternatenames":[""],"latitude":"46.02427","longitude":"-123.91125","feature_class":"P","feature_code":"PPL","country_code":"US","cc2":"","admin1_code":"OR","admin2_code":"007","admin3_code":"","admin4_code":"","population":"1462","elevation":"8","dem":"6","timezone":"America/Los_Angeles","modification_date":"2011-05-14"},{"geonameid":"5728264","name":"Gervais","asciiname":"Gervais","alternatenames":[""],"latitude":"45.10818","longitude":"-122.8976","feature_class":"P","feature_code":"PPL","country_code":"US","cc2":"","admin1_code":"OR","admin2_code":"047","admin3_code":"","admin4_code":"","population":"2464","elevation":"57","dem":"56","timezone":"America/Los_Angeles","modification_date":"2011-05-14"},{"geonameid":"5728429","name":"Gladstone","asciiname":"Gladstone","alternatenames":["Gladston","Гладстон"],"latitude":"45.38068","longitude":"-122.59481","feature_class":"P","feature_code":"PPL","country_code":"US","cc2":"","admin1_code":"OR","admin2_code":"005","admin3_code":"","admin4_code":"","population":"11497","elevation":"19","dem":"18","timezone":"America/Los_Angeles","modification_date":"2011-05-14"},{"geonameid":"5728531","name":"Glide","asciiname":"Glide","alternatenames":[""],"latitude":"43.30151","longitude":"-123.10118","feature_class":"P","feature_code":"PPL","country_code":"US","cc2":"","admin1_code":"OR","admin2_code":"019","admin3_code":"","admin4_code":"","population":"1795","elevation":"210","dem":"214","timezone":"America/Los_Angeles","modification_date":"2011-05-14"},{"geonameid":"5728665","name":"Gold Hill","asciiname":"Gold Hill","alternatenames":[""],"latitude":"42.43179","longitude":"-123.0506","feature_class":"P","feature_code":"PPL","country_code":"US","cc2":"","admin1_code":"OR","admin2_code":"029","admin3_code":"","admin4_code":"","population":"1220","elevation":"333","dem":"333","timezone":"America/Los_Angeles","modification_date":"2011-05-14"},{"geonameid":"5728972","name":"Grand Ronde","asciiname":"Grand Ronde","alternatenames":[""],"latitude":"45.06011","longitude":"-123.60928","feature_class":"P","feature_code":"PPL","country_code":"US","cc2":"","admin1_code":"OR","admin2_code":"053","admin3_code":"","admin4_code":"","population":"1661","elevation":"105","dem":"105","timezone":"America/Los_Angeles","modification_date":"2011-05-14"},{"geonameid":"5729080","name":"Grants Pass","asciiname":"Grants Pass","alternatenames":["GTP","Grants Pas","Grants-Pass","Grehnts Pass","ge lan ci pa si","geulaencheupaeseu","ghrants bas  awryghwn","grnts pas  awrgn","Грантс Пас","Грантс-Пасс","Грэнтс Пасс","غرانتس باس، أوريغون","گرنتس پاس، اورگن","格兰茨帕斯","그랜츠패스"],"latitude":"42.43933","longitude":"-123.33067","feature_class":"P","feature_code":"PPLA2","country_code":"US","cc2":"","admin1_code":"OR","admin2_code":"033","admin3_code":"","admin4_code":"","population":"34533","elevation":"288","dem":"289","timezone":"America/Los_Angeles","modification_date":"2015-01-11"},{"geonameid":"5729293","name":"Green","asciiname":"Green","alternatenames":[""],"latitude":"43.16039","longitude":"-123.36785","feature_class":"P","feature_code":"PPL","country_code":"US","cc2":"","admin1_code":"OR","admin2_code":"019","admin3_code":"","admin4_code":"","population":"7515","elevation":"157","dem":"154","timezone":"America/Los_Angeles","modification_date":"2011-05-14"},{"geonameid":"5729485","name":"Gresham","asciiname":"Gresham","alternatenames":["Eugene","Grehskham","Gresham","ghrysham  awryghwn","grsham  awrgn","gureshamu","Грешам","Грэсхам","غريشام، أوريغون","گرشام، اورگن","グレシャム"],"latitude":"45.49818","longitude":"-122.43148","feature_class":"P","feature_code":"PPL","country_code":"US","cc2":"","admin1_code":"OR","admin2_code":"051","admin3_code":"","admin4_code":"","population":"105594","elevation":"97","dem":"96","timezone":"America/Los_Angeles","modification_date":"2011-05-14"},{"geonameid":"5730183","name":"Happy Valley","asciiname":"Happy Valley","alternatenames":[""],"latitude":"45.44679","longitude":"-122.53037","feature_class":"P","feature_code":"PPL","country_code":"US","cc2":"","admin1_code":"OR","admin2_code":"005","admin3_code":"","admin4_code":"","population":"13903","elevation":"153","dem":"151","timezone":"America/Los_Angeles","modification_date":"2011-05-14"},{"geonameid":"5730199","name":"Harbor","asciiname":"Harbor","alternatenames":[""],"latitude":"42.05317","longitude":"-124.26759","feature_class":"P","feature_code":"PPL","country_code":"US","cc2":"","admin1_code":"OR","admin2_code":"015","admin3_code":"","admin4_code":"","population":"2391","elevation":"10","dem":"11","timezone":"America/Los_Angeles","modification_date":"2011-05-14"},{"geonameid":"5730389","name":"Harrisburg","asciiname":"Harrisburg","alternatenames":["Garrisberg","Гаррисберг"],"latitude":"44.27401","longitude":"-123.17065","feature_class":"P","feature_code":"PPL","country_code":"US","cc2":"","admin1_code":"OR","admin2_code":"043","admin3_code":"","admin4_code":"","population":"3567","elevation":"95","dem":"95","timezone":"America/Los_Angeles","modification_date":"2011-05-14"},{"geonameid":"5730675","name":"Hayesville","asciiname":"Hayesville","alternatenames":[""],"latitude":"44.98595","longitude":"-122.98287","feature_class":"P","feature_code":"PPL","country_code":"US","cc2":"","admin1_code":"OR","admin2_code":"047","admin3_code":"","admin4_code":"","population":"19936","elevation":"56","dem":"55","timezone":"America/Los_Angeles","modification_date":"2011-05-14"},{"geonameid":"5731035","name":"Heppner","asciiname":"Heppner","alternatenames":["Khepner","Khepnur","Kheppnehr","Хепнер","Хепнър","Хеппнэр"],"latitude":"45.35318","longitude":"-119.5578","feature_class":"P","feature_code":"PPLA2","country_code":"US","cc2":"","admin1_code":"OR","admin2_code":"049","admin3_code":"","admin4_code":"","population":"1291","elevation":"668","dem":"656","timezone":"America/Los_Angeles","modification_date":"2011-05-14"},{"geonameid":"5731070","name":"Hermiston","asciiname":"Hermiston","alternatenames":["HES","Hermiston","Khehrmiston","Khurmistun","hrmystn  awrgn","Хърмистън","Хэрмистон","هرمیستن، اورگن"],"latitude":"45.84041","longitude":"-119.28946","feature_class":"P","feature_code":"PPL","country_code":"US","cc2":"","admin1_code":"OR","admin2_code":"059","admin3_code":"","admin4_code":"","population":"16745","elevation":"140","dem":"140","timezone":"America/Los_Angeles","modification_date":"2013-01-19"},{"geonameid":"5731371","name":"Hillsboro","asciiname":"Hillsboro","alternatenames":["Chilsmporo","HIO","Hillsboro","Khillsboro","Khillsborou","Khilsboro","Khilsburo","hiljeubeoleo","hiruzuboro","hylsbrw  awrgn","hylsbwrw  awryghwn","xi er si bo lei","Χίλσμπορο","Хиллсборо","Хиллсбороу","Хилсборо","Хилсбъро","هيلسبورو، أوريغون","هیلسبرو، اورگن","ヒルズボロ","希尔斯伯勒","힐즈버러"],"latitude":"45.52289","longitude":"-122.98983","feature_class":"P","feature_code":"PPLA2","country_code":"US","cc2":"","admin1_code":"OR","admin2_code":"067","admin3_code":"","admin4_code":"","population":"91611","elevation":"59","dem":"59","timezone":"America/Los_Angeles","modification_date":"2011-05-14"},{"geonameid":"5731397","name":"Hines","asciiname":"Hines","alternatenames":[""],"latitude":"43.56404","longitude":"-119.08105","feature_class":"P","feature_code":"PPL","country_code":"US","cc2":"","admin1_code":"OR","admin2_code":"025","admin3_code":"","admin4_code":"","population":"1563","elevation":"1268","dem":"1265","timezone":"America/Los_Angeles","modification_date":"2011-05-14"},{"geonameid":"5731777","name":"Hood River","asciiname":"Hood River","alternatenames":["Khud Riveh","Khud River","Khud Rivur","hwwd ryfyr  awryghwn","Худ Ривер","Худ Ривър","Худ Ривэ","هوود ريفير، أوريغون"],"latitude":"45.7054","longitude":"-121.52146","feature_class":"P","feature_code":"PPLA2","country_code":"US","cc2":"","admin1_code":"OR","admin2_code":"027","admin3_code":"","admin4_code":"","population":"7167","elevation":"126","dem":"138","timezone":"America/Los_Angeles","modification_date":"2011-05-14"},{"geonameid":"5732311","name":"Hubbard","asciiname":"Hubbard","alternatenames":[""],"latitude":"45.18234","longitude":"-122.80787","feature_class":"P","feature_code":"PPL","country_code":"US","cc2":"","admin1_code":"OR","admin2_code":"047","admin3_code":"","admin4_code":"","population":"3173","elevation":"56","dem":"55","timezone":"America/Los_Angeles","modification_date":"2011-05-14"},{"geonameid":"5732763","name":"Independence","asciiname":"Independence","alternatenames":["Indehpendehns","Independens","Indipenduns","ayndybydyns  awryghwn","ayndypndns  awrgn","du li shi","Индепенденс","Индипендънс","Индэпендэнс","إينديبيدينس، أوريغون","ایندیپندنس، اورگن","獨立市"],"latitude":"44.85123","longitude":"-123.18677","feature_class":"P","feature_code":"PPL","country_code":"US","cc2":"","admin1_code":"OR","admin2_code":"053","admin3_code":"","admin4_code":"","population":"8590","elevation":"51","dem":"52","timezone":"America/Los_Angeles","modification_date":"2011-05-14"},{"geonameid":"5733120","name":"Irrigon","asciiname":"Irrigon","alternatenames":[""],"latitude":"45.89569","longitude":"-119.49141","feature_class":"P","feature_code":"PPL","country_code":"US","cc2":"","admin1_code":"OR","admin2_code":"049","admin3_code":"","admin4_code":"","population":"1826","elevation":"92","dem":"92","timezone":"America/Los_Angeles","modification_date":"2011-05-14"},{"geonameid":"5733409","name":"Jacksonville","asciiname":"Jacksonville","alternatenames":["Dzeksonvil","Dzhaksunvil","Dzheksonvill","jksnwyl  awrgn","Џексонвил","Джаксънвил","Джексонвилл","جکسنویل، اورگن"],"latitude":"42.31346","longitude":"-122.96699","feature_class":"P","feature_code":"PPL","country_code":"US","cc2":"","admin1_code":"OR","admin2_code":"029","admin3_code":"","admin4_code":"","population":"2785","elevation":"477","dem":"479","timezone":"America/Los_Angeles","modification_date":"2011-05-14"},{"geonameid":"5733532","name":"Jefferson","asciiname":"Jefferson","alternatenames":["Dzhefferson","Джефферсон"],"latitude":"44.71957","longitude":"-123.01037","feature_class":"P","feature_code":"PPL","country_code":"US","cc2":"","admin1_code":"OR","admin2_code":"047","admin3_code":"","admin4_code":"","population":"3098","elevation":"70","dem":"69","timezone":"America/Los_Angeles","modification_date":"2011-05-14"},{"geonameid":"5733582","name":"Jennings Lodge","asciiname":"Jennings Lodge","alternatenames":[""],"latitude":"45.39123","longitude":"-122.61259","feature_class":"P","feature_code":"PPL","country_code":"US","cc2":"","admin1_code":"OR","admin2_code":"005","admin3_code":"","admin4_code":"","population":"7315","elevation":"29","dem":"30","timezone":"America/Los_Angeles","modification_date":"2011-05-14"},{"geonameid":"5733770","name":"John Day","asciiname":"John Day","alternatenames":["JDA"],"latitude":"44.41599","longitude":"-118.95301","feature_class":"P","feature_code":"PPL","country_code":"US","cc2":"","admin1_code":"OR","admin2_code":"023","admin3_code":"","admin4_code":"","population":"1744","elevation":"941","dem":"941","timezone":"America/Los_Angeles","modification_date":"2011-05-14"},{"geonameid":"5734100","name":"Joseph","asciiname":"Joseph","alternatenames":["Dzhouzef","Dzhozef","Dzozef","zhwzf  awrgn","Џозеф","Джозеф","Джоузеф","ژوزف، اورگن"],"latitude":"45.35432","longitude":"-117.22961","feature_class":"P","feature_code":"PPL","country_code":"US","cc2":"","admin1_code":"OR","admin2_code":"063","admin3_code":"","admin4_code":"","population":"1081","elevation":"1276","dem":"1274","timezone":"America/Los_Angeles","modification_date":"2011-05-14"},{"geonameid":"5734198","name":"Junction City","asciiname":"Junction City","alternatenames":[""],"latitude":"44.21929","longitude":"-123.20565","feature_class":"P","feature_code":"PPL","country_code":"US","cc2":"","admin1_code":"OR","admin2_code":"039","admin3_code":"","admin4_code":"","population":"5392","elevation":"100","dem":"101","timezone":"America/Los_Angeles","modification_date":"2011-05-14"},{"geonameid":"5734711","name":"Keizer","asciiname":"Keizer","alternatenames":["Kejzer","Кейзер"],"latitude":"44.99012","longitude":"-123.02621","feature_class":"P","feature_code":"PPL","country_code":"US","cc2":"","admin1_code":"OR","admin2_code":"047","admin3_code":"","admin4_code":"","population":"36478","elevation":"42","dem":"42","timezone":"America/Los_Angeles","modification_date":"2011-05-14"},{"geonameid":"5735043","name":"King City","asciiname":"King City","alternatenames":[""],"latitude":"45.40262","longitude":"-122.80399","feature_class":"P","feature_code":"PPL","country_code":"US","cc2":"","admin1_code":"OR","admin2_code":"067","admin3_code":"","admin4_code":"","population":"3111","elevation":"59","dem":"58","timezone":"America/Los_Angeles","modification_date":"2011-05-14"},{"geonameid":"5735238","name":"Klamath Falls","asciiname":"Klamath Falls","alternatenames":["Klamat Fols","LMT","klamath falz  awryghwn","klmth falz  awrgn","kuramasuforuzu","Кламат Фолс","كلاماث فالز، أوريغون","کلمته فالز، اورگن","クラマスフォールズ"],"latitude":"42.22487","longitude":"-121.78167","feature_class":"P","feature_code":"PPLA2","country_code":"US","cc2":"","admin1_code":"OR","admin2_code":"035","admin3_code":"","admin4_code":"","population":"20840","elevation":"1252","dem":"1254","timezone":"America/Los_Angeles","modification_date":"2012-02-20"},{"geonameid":"5735537","name":"La Grande","asciiname":"La Grande","alternatenames":["La Grand","La Grande","la ghrandy  awryghwn","la grandh  awrgn","Ла Гранд","Ла Гранде","لا غراندي، أوريغون","لا گرانده، اورگن"],"latitude":"45.32458","longitude":"-118.08772","feature_class":"P","feature_code":"PPLA2","country_code":"US","cc2":"","admin1_code":"OR","admin2_code":"061","admin3_code":"","admin4_code":"","population":"13082","elevation":"846","dem":"844","timezone":"America/Los_Angeles","modification_date":"2015-02-01"},{"geonameid":"5735549","name":"La Pine","asciiname":"La Pine","alternatenames":[""],"latitude":"43.6704","longitude":"-121.50364","feature_class":"P","feature_code":"PPL","country_code":"US","cc2":"","admin1_code":"OR","admin2_code":"017","admin3_code":"","admin4_code":"","population":"1653","elevation":"1291","dem":"1289","timezone":"America/Los_Angeles","modification_date":"2011-05-14"},{"geonameid":"5735609","name":"Lafayette","asciiname":"Lafayette","alternatenames":["Lafajet","Лафайет"],"latitude":"45.24428","longitude":"-123.11483","feature_class":"P","feature_code":"PPL","country_code":"US","cc2":"","admin1_code":"OR","admin2_code":"071","admin3_code":"","admin4_code":"","population":"3742","elevation":"52","dem":"52","timezone":"America/Los_Angeles","modification_date":"2011-05-14"},{"geonameid":"5735724","name":"Lake Oswego","asciiname":"Lake Oswego","alternatenames":["Lejk Osuego","Lejk Osvigo","lyk aswgw  awrgn","lyk awswyghw  awryghwn","reikuosuu~igo","Лейк Осуего","Лејк Освиго","ليك أوسويغو، أوريغون","لیک اسوگو، اورگن","レイクオスウィーゴ"],"latitude":"45.42067","longitude":"-122.67065","feature_class":"P","feature_code":"PPL","country_code":"US","cc2":"","admin1_code":"OR","admin2_code":"005","admin3_code":"","admin4_code":"","population":"36619","elevation":"55","dem":"61","timezone":"America/Los_Angeles","modification_date":"2011-05-14"},{"geonameid":"5735782","name":"Lakeside","asciiname":"Lakeside","alternatenames":[""],"latitude":"43.57567","longitude":"-124.17511","feature_class":"P","feature_code":"PPL","country_code":"US","cc2":"","admin1_code":"OR","admin2_code":"011","admin3_code":"","admin4_code":"","population":"1699","elevation":"7","dem":"8","timezone":"America/Los_Angeles","modification_date":"2011-05-14"},{"geonameid":"5735792","name":"Lakeview","asciiname":"Lakeview","alternatenames":["LKV","Lehjkvju","Lejkvju","la ke fu you","lykfyw  awryghwn","Лейквю","Лејквју","Лэйквю","ليكفيو، أوريغون","拉克夫由"],"latitude":"42.18877","longitude":"-120.34579","feature_class":"P","feature_code":"PPLA2","country_code":"US","cc2":"","admin1_code":"OR","admin2_code":"037","admin3_code":"","admin4_code":"","population":"2294","elevation":"1461","dem":"1464","timezone":"America/Los_Angeles","modification_date":"2011-05-14"},{"geonameid":"5736218","name":"Lebanon","asciiname":"Lebanon","alternatenames":["Lebanon","lai ba nen","lbnan  awrgn","Лебанон","لبنان، اورگن","莱巴嫩"],"latitude":"44.53651","longitude":"-122.90703","feature_class":"P","feature_code":"PPL","country_code":"US","cc2":"","admin1_code":"OR","admin2_code":"043","admin3_code":"","admin4_code":"","population":"15518","elevation":"108","dem":"107","timezone":"America/Los_Angeles","modification_date":"2011-05-14"},{"geonameid":"5736378","name":"Lents","asciiname":"Lents","alternatenames":[""],"latitude":"45.47984","longitude":"-122.56731","feature_class":"P","feature_code":"PPL","country_code":"US","cc2":"","admin1_code":"OR","admin2_code":"051","admin3_code":"","admin4_code":"","population":"20156","elevation":"65","dem":"67","timezone":"America/Los_Angeles","modification_date":"2011-08-20"},{"geonameid":"5736634","name":"Lincoln Beach","asciiname":"Lincoln Beach","alternatenames":[""],"latitude":"44.85039","longitude":"-124.04678","feature_class":"P","feature_code":"PPL","country_code":"US","cc2":"","admin1_code":"OR","admin2_code":"041","admin3_code":"","admin4_code":"","population":"2045","elevation":"14","dem":"16","timezone":"America/Los_Angeles","modification_date":"2011-05-14"},{"geonameid":"5736645","name":"Lincoln City","asciiname":"Lincoln City","alternatenames":["Linkol'n Siti","Linkoln Siti","Linkuln Siti","lynkln syty  awrgn","Линколн Сити","Линкольн Сити","Линкълн Сити","لینکلن سیتی، اورگن"],"latitude":"44.95816","longitude":"-124.01789","feature_class":"P","feature_code":"PPL","country_code":"US","cc2":"","admin1_code":"OR","admin2_code":"041","admin3_code":"","admin4_code":"","population":"7930","elevation":"24","dem":"32","timezone":"America/Los_Angeles","modification_date":"2011-05-14"},{"geonameid":"5738222","name":"Lowell","asciiname":"Lowell","alternatenames":["Louel","Лоуел"],"latitude":"43.91846","longitude":"-122.78368","feature_class":"P","feature_code":"PPL","country_code":"US","cc2":"","admin1_code":"OR","admin2_code":"039","admin3_code":"","admin4_code":"","population":"1045","elevation":"224","dem":"224","timezone":"America/Los_Angeles","modification_date":"2011-05-14"},{"geonameid":"5738587","name":"Lyons","asciiname":"Lyons","alternatenames":[""],"latitude":"44.77457","longitude":"-122.61509","feature_class":"P","feature_code":"PPL","country_code":"US","cc2":"","admin1_code":"OR","admin2_code":"043","admin3_code":"","admin4_code":"","population":"1161","elevation":"202","dem":"203","timezone":"America/Los_Angeles","modification_date":"2011-05-14"},{"geonameid":"5738690","name":"Madras","asciiname":"Madras","alternatenames":["MDJ","Madras","madras  awryghwn","mdrs  awrgn","Мадрас","مادراس، أوريغون","مدرس، اورگن"],"latitude":"44.63345","longitude":"-121.12949","feature_class":"P","feature_code":"PPLA2","country_code":"US","cc2":"","admin1_code":"OR","admin2_code":"031","admin3_code":"","admin4_code":"","population":"6046","elevation":"683","dem":"685","timezone":"America/Los_Angeles","modification_date":"2013-10-06"},{"geonameid":"5739936","name":"McMinnville","asciiname":"McMinnville","alternatenames":["Mak Minvill","Makminvil","Maminvil","maegminbil","mkmynwyl  awrgn","mykmynfyl  awryghwn","Мак Минвилл","Макминвил","Маминвил","ميكمينفيل، أوريغون","مکمینویل، اورگن","맥민빌"],"latitude":"45.21012","longitude":"-123.19872","feature_class":"P","feature_code":"PPLA2","country_code":"US","cc2":"","admin1_code":"OR","admin2_code":"071","admin3_code":"","admin4_code":"","population":"32187","elevation":"47","dem":"48","timezone":"America/Los_Angeles","modification_date":"2011-05-14"},{"geonameid":"5740099","name":"Medford","asciiname":"Medford","alternatenames":["MFR","Medford","mdfwd  awrgn","medeupeodeu","medofodo","mei de fu","Медфорд","مدفود، اورگن","メドフォード","梅德福","메드퍼드"],"latitude":"42.32652","longitude":"-122.87559","feature_class":"P","feature_code":"PPLA2","country_code":"US","cc2":"","admin1_code":"OR","admin2_code":"029","admin3_code":"","admin4_code":"","population":"74907","elevation":"421","dem":"422","timezone":"America/Los_Angeles","modification_date":"2011-05-14"},{"geonameid":"5740247","name":"Merlin","asciiname":"Merlin","alternatenames":[""],"latitude":"42.51734","longitude":"-123.41979","feature_class":"P","feature_code":"PPL","country_code":"US","cc2":"","admin1_code":"OR","admin2_code":"033","admin3_code":"","admin4_code":"","population":"1615","elevation":"280","dem":"280","timezone":"America/Los_Angeles","modification_date":"2011-05-14"},{"geonameid":"5740325","name":"Metzger","asciiname":"Metzger","alternatenames":[""],"latitude":"45.44651","longitude":"-122.75899","feature_class":"P","feature_code":"PPL","country_code":"US","cc2":"","admin1_code":"OR","admin2_code":"067","admin3_code":"","admin4_code":"","population":"3765","elevation":"69","dem":"70","timezone":"America/Los_Angeles","modification_date":"2011-05-14"},{"geonameid":"5740602","name":"Mill City","asciiname":"Mill City","alternatenames":[""],"latitude":"44.75401","longitude":"-122.47814","feature_class":"P","feature_code":"PPL","country_code":"US","cc2":"","admin1_code":"OR","admin2_code":"043","admin3_code":"","admin4_code":"","population":"1855","elevation":"246","dem":"258","timezone":"America/Los_Angeles","modification_date":"2011-05-14"},{"geonameid":"5740834","name":"Millersburg","asciiname":"Millersburg","alternatenames":[""],"latitude":"44.68095","longitude":"-123.06148","feature_class":"P","feature_code":"PPL","country_code":"US","cc2":"","admin1_code":"OR","admin2_code":"043","admin3_code":"","admin4_code":"","population":"1329","elevation":"75","dem":"75","timezone":"America/Los_Angeles","modification_date":"2011-05-14"},{"geonameid":"5740898","name":"Milton-Freewater","asciiname":"Milton-Freewater","alternatenames":[""],"latitude":"45.93263","longitude":"-118.38774","feature_class":"P","feature_code":"PPL","country_code":"US","cc2":"","admin1_code":"OR","admin2_code":"059","admin3_code":"","admin4_code":"","population":"7050","elevation":"318","dem":"318","timezone":"America/Los_Angeles","modification_date":"2011-05-14"},{"geonameid":"5740900","name":"Milwaukie","asciiname":"Milwaukie","alternatenames":["Miluoki","Milvauki","Milvoki","Milvokis","mylwaky  awrgn","mylwawky  awryghwn","Милвауки","Милвоки","Милуоки","ميلواوكي، أوريغون","میلواکی، اورگن"],"latitude":"45.44623","longitude":"-122.63926","feature_class":"P","feature_code":"PPL","country_code":"US","cc2":"","admin1_code":"OR","admin2_code":"005","admin3_code":"","admin4_code":"","population":"20291","elevation":"14","dem":"15","timezone":"America/Los_Angeles","modification_date":"2011-05-14"},{"geonameid":"5741069","name":"Mission","asciiname":"Mission","alternatenames":["Missija","Миссия"],"latitude":"45.67041","longitude":"-118.68359","feature_class":"P","feature_code":"PPL","country_code":"US","cc2":"","admin1_code":"OR","admin2_code":"059","admin3_code":"","admin4_code":"","population":"1037","elevation":"371","dem":"369","timezone":"America/Los_Angeles","modification_date":"2011-05-14"},{"geonameid":"5741182","name":"Molalla","asciiname":"Molalla","alternatenames":["Molalla","Mulala","mwlyla  awrgn","Молалла","Мълала","مولیلا، اورگن"],"latitude":"45.14734","longitude":"-122.57703","feature_class":"P","feature_code":"PPL","country_code":"US","cc2":"","admin1_code":"OR","admin2_code":"005","admin3_code":"","admin4_code":"","population":"8108","elevation":"115","dem":"117","timezone":"America/Los_Angeles","modification_date":"2011-05-14"},{"geonameid":"5741227","name":"Monmouth","asciiname":"Monmouth","alternatenames":["Monaus","Monmaut","Monmut","mnmwth  awrgn","mwnmwth  awryghwn","Монаус","Монмаут","Монмут","منموته، اورگن","مونموث، أوريغون"],"latitude":"44.84845","longitude":"-123.23399","feature_class":"P","feature_code":"PPL","country_code":"US","cc2":"","admin1_code":"OR","admin2_code":"053","admin3_code":"","admin4_code":"","population":"9534","elevation":"62","dem":"63","timezone":"America/Los_Angeles","modification_date":"2011-05-14"},{"geonameid":"5741487","name":"Moro","asciiname":"Moro","alternatenames":[""],"latitude":"45.48401","longitude":"-120.73117","feature_class":"P","feature_code":"PPLA2","country_code":"US","cc2":"","admin1_code":"OR","admin2_code":"055","admin3_code":"","admin4_code":"","population":"324","elevation":"554","dem":"553","timezone":"America/Los_Angeles","modification_date":"2011-05-14"},{"geonameid":"5741646","name":"Mount Angel","asciiname":"Mount Angel","alternatenames":[""],"latitude":"45.0679","longitude":"-122.80009","feature_class":"P","feature_code":"PPL","country_code":"US","cc2":"","admin1_code":"OR","admin2_code":"047","admin3_code":"","admin4_code":"","population":"3286","elevation":"53","dem":"50","timezone":"America/Los_Angeles","modification_date":"2011-05-14"},{"geonameid":"5741683","name":"Mount Hood Village","asciiname":"Mount Hood Village","alternatenames":[""],"latitude":"45.3554","longitude":"-121.98064","feature_class":"P","feature_code":"PPL","country_code":"US","cc2":"","admin1_code":"OR","admin2_code":"005","admin3_code":"","admin4_code":"","population":"4864","elevation":"376","dem":"393","timezone":"America/Los_Angeles","modification_date":"2014-10-08"},{"geonameid":"5742096","name":"Mulino","asciiname":"Mulino","alternatenames":[""],"latitude":"45.22151","longitude":"-122.58203","feature_class":"P","feature_code":"PPL","country_code":"US","cc2":"","admin1_code":"OR","admin2_code":"005","admin3_code":"","admin4_code":"","population":"2103","elevation":"75","dem":"75","timezone":"America/Los_Angeles","modification_date":"2011-05-14"},{"geonameid":"5742332","name":"Myrtle Creek","asciiname":"Myrtle Creek","alternatenames":[""],"latitude":"43.02012","longitude":"-123.29312","feature_class":"P","feature_code":"PPL","country_code":"US","cc2":"","admin1_code":"OR","admin2_code":"019","admin3_code":"","admin4_code":"","population":"3439","elevation":"212","dem":"209","timezone":"America/Los_Angeles","modification_date":"2011-05-14"},{"geonameid":"5742346","name":"Myrtle Point","asciiname":"Myrtle Point","alternatenames":[""],"latitude":"43.06483","longitude":"-124.13899","feature_class":"P","feature_code":"PPL","country_code":"US","cc2":"","admin1_code":"OR","admin2_code":"011","admin3_code":"","admin4_code":"","population":"2514","elevation":"34","dem":"28","timezone":"America/Los_Angeles","modification_date":"2011-05-14"},{"geonameid":"5742701","name":"New Hope","asciiname":"New Hope","alternatenames":[""],"latitude":"42.36234","longitude":"-123.36784","feature_class":"P","feature_code":"PPL","country_code":"US","cc2":"","admin1_code":"OR","admin2_code":"033","admin3_code":"","admin4_code":"","population":"1515","elevation":"317","dem":"326","timezone":"America/Los_Angeles","modification_date":"2011-05-14"},{"geonameid":"5742726","name":"Newberg","asciiname":"Newberg","alternatenames":["N'juberg","Njuberg","Njuburg","nyubagu","nywbrg  awrgn","nywbyrgh  awryghwn","Њуберг","Ньюберг","Нюбърг","نيوبيرغ، أوريغون","نیوبرگ، اورگن","ニューバーグ"],"latitude":"45.30012","longitude":"-122.97316","feature_class":"P","feature_code":"PPL","country_code":"US","cc2":"","admin1_code":"OR","admin2_code":"071","admin3_code":"","admin4_code":"","population":"22068","elevation":"54","dem":"56","timezone":"America/Los_Angeles","modification_date":"2011-05-14"},{"geonameid":"5742750","name":"Newport","asciiname":"Newport","alternatenames":["N'juport","Njuport","ONP","nyupoteu","nyupoto","nywbwrt  awryghwn","nywpwrt  awrgn","Њупорт","Ньюпорт","Нюпорт","نيوبورت، أوريغون","نیوپورت، اورگن","ニューポート","뉴포트"],"latitude":"44.63678","longitude":"-124.05345","feature_class":"P","feature_code":"PPLA2","country_code":"US","cc2":"","admin1_code":"OR","admin2_code":"041","admin3_code":"","admin4_code":"","population":"9989","elevation":"42","dem":"43","timezone":"America/Los_Angeles","modification_date":"2011-05-14"},{"geonameid":"5742974","name":"North Bend","asciiname":"North Bend","alternatenames":["Nors Behnd","Nort Bend","OTH","Severen Bend","nwrt bnd  awrgn","Норс Бэнд","Норт Бенд","Северен Бенд","نورت بند، اورگن"],"latitude":"43.4065","longitude":"-124.22428","feature_class":"P","feature_code":"PPL","country_code":"US","cc2":"","admin1_code":"OR","admin2_code":"011","admin3_code":"","admin4_code":"","population":"9695","elevation":"14","dem":"15","timezone":"America/Los_Angeles","modification_date":"2011-05-14"},{"geonameid":"5743413","name":"North Plains","asciiname":"North Plains","alternatenames":[""],"latitude":"45.59706","longitude":"-122.99344","feature_class":"P","feature_code":"PPL","country_code":"US","cc2":"","admin1_code":"OR","admin2_code":"067","admin3_code":"","admin4_code":"","population":"1947","elevation":"63","dem":"62","timezone":"America/Los_Angeles","modification_date":"2011-05-14"},{"geonameid":"5743612","name":"Nyssa","asciiname":"Nyssa","alternatenames":[""],"latitude":"43.87683","longitude":"-116.99488","feature_class":"P","feature_code":"PPL","country_code":"US","cc2":"","admin1_code":"OR","admin2_code":"045","admin3_code":"","admin4_code":"","population":"3267","elevation":"664","dem":"664","timezone":"America/Boise","modification_date":"2011-05-14"},{"geonameid":"5743731","name":"Oak Grove","asciiname":"Oak Grove","alternatenames":[""],"latitude":"45.41679","longitude":"-122.64009","feature_class":"P","feature_code":"PPL","country_code":"US","cc2":"","admin1_code":"OR","admin2_code":"005","admin3_code":"","admin4_code":"","population":"16629","elevation":"55","dem":"58","timezone":"America/Los_Angeles","modification_date":"2011-05-14"},{"geonameid":"5743753","name":"Oak Hills","asciiname":"Oak Hills","alternatenames":[""],"latitude":"45.54123","longitude":"-122.84121","feature_class":"P","feature_code":"PPL","country_code":"US","cc2":"","admin1_code":"OR","admin2_code":"067","admin3_code":"","admin4_code":"","population":"11333","elevation":"71","dem":"72","timezone":"America/Los_Angeles","modification_date":"2011-05-14"},{"geonameid":"5743796","name":"Oakridge","asciiname":"Oakridge","alternatenames":["Oakridzh","Oukridz","Oukridzh","akrydg  awrgn","Оакридж","Оукридж","Оукриџ","اکریدگ، اورگن"],"latitude":"43.74651","longitude":"-122.46172","feature_class":"P","feature_code":"PPL","country_code":"US","cc2":"","admin1_code":"OR","admin2_code":"039","admin3_code":"","admin4_code":"","population":"3205","elevation":"372","dem":"368","timezone":"America/Los_Angeles","modification_date":"2011-05-14"},{"geonameid":"5743896","name":"Odell","asciiname":"Odell","alternatenames":[""],"latitude":"45.62706","longitude":"-121.54313","feature_class":"P","feature_code":"PPL","country_code":"US","cc2":"","admin1_code":"OR","admin2_code":"027","admin3_code":"","admin4_code":"","population":"2255","elevation":"220","dem":"219","timezone":"America/Los_Angeles","modification_date":"2011-05-14"},{"geonameid":"5744166","name":"Ontario","asciiname":"Ontario","alternatenames":["ONO","Ontario","Ontário","antaryw  awrgn","awntaryw  awryghwn","Онтарио","أونتاريو، أوريغون","انتاریو، اورگن"],"latitude":"44.02655","longitude":"-116.96294","feature_class":"P","feature_code":"PPL","country_code":"US","cc2":"","admin1_code":"OR","admin2_code":"045","admin3_code":"","admin4_code":"","population":"11366","elevation":"656","dem":"655","timezone":"America/Boise","modification_date":"2011-05-14"},{"geonameid":"5744253","name":"Oregon City","asciiname":"Oregon City","alternatenames":["Oregon City","Oregon Siti","Oregón City","Thanh pho Oregon","Thành phố Oregon","awrgn syty  awrgn","awryghwn syty  awryghwn","e lei gang cheng","oregonshiti","Орегон Сити","أوريغون سيتي، أوريغون","اورگن سیتی، اورگن","オレゴンシティ","俄勒冈城"],"latitude":"45.35734","longitude":"-122.60676","feature_class":"P","feature_code":"PPLA2","country_code":"US","cc2":"","admin1_code":"OR","admin2_code":"005","admin3_code":"","admin4_code":"","population":"31859","elevation":"38","dem":"37","timezone":"America/Los_Angeles","modification_date":"2011-05-14"},{"geonameid":"5744635","name":"Pacific City","asciiname":"Pacific City","alternatenames":["PFC"],"latitude":"45.20233","longitude":"-123.96289","feature_class":"P","feature_code":"PPL","country_code":"US","cc2":"","admin1_code":"OR","admin2_code":"057","admin3_code":"","admin4_code":"","population":"1035","elevation":"4","dem":"1","timezone":"America/Los_Angeles","modification_date":"2011-05-14"},{"geonameid":"5745380","name":"Pendleton","asciiname":"Pendleton","alternatenames":["PDT","Pehndlton","Pendleton","Pendlton","Pendultun","byndlyntwn  awryghwn","pndltn  awrgn","Пендлтон","Пендълтън","Пэндлтон","بيندلينتون، أوريغون","پندلتن، اورگن"],"latitude":"45.67207","longitude":"-118.7886","feature_class":"P","feature_code":"PPLA2","country_code":"US","cc2":"","admin1_code":"OR","admin2_code":"059","admin3_code":"","admin4_code":"","population":"16612","elevation":"325","dem":"327","timezone":"America/Los_Angeles","modification_date":"2013-12-03"},{"geonameid":"5745647","name":"Philomath","asciiname":"Philomath","alternatenames":[""],"latitude":"44.54012","longitude":"-123.3676","feature_class":"P","feature_code":"PPL","country_code":"US","cc2":"","admin1_code":"OR","admin2_code":"003","admin3_code":"","admin4_code":"","population":"4584","elevation":"86","dem":"86","timezone":"America/Los_Angeles","modification_date":"2011-05-14"},{"geonameid":"5745656","name":"Phoenix","asciiname":"Phoenix","alternatenames":["Finiks","Финикс"],"latitude":"42.27541","longitude":"-122.81809","feature_class":"P","feature_code":"PPL","country_code":"US","cc2":"","admin1_code":"OR","admin2_code":"029","admin3_code":"","admin4_code":"","population":"4538","elevation":"460","dem":"460","timezone":"America/Los_Angeles","modification_date":"2011-05-14"},{"geonameid":"5745782","name":"Pilot Rock","asciiname":"Pilot Rock","alternatenames":[""],"latitude":"45.48318","longitude":"-118.82998","feature_class":"P","feature_code":"PPL","country_code":"US","cc2":"","admin1_code":"OR","admin2_code":"059","admin3_code":"","admin4_code":"","population":"1502","elevation":"519","dem":"521","timezone":"America/Los_Angeles","modification_date":"2011-05-14"},{"geonameid":"5746486","name":"Port Orford","asciiname":"Port Orford","alternatenames":["Port Oksford","Port Orford","Port Orfurd","pwrt arfrd  awrgn","Порт Оксфорд","Порт Орфорд","Порт Орфърд","پورت ارفرد، اورگن"],"latitude":"42.74566","longitude":"-124.49733","feature_class":"P","feature_code":"PPL","country_code":"US","cc2":"","admin1_code":"OR","admin2_code":"015","admin3_code":"","admin4_code":"","population":"1133","elevation":"19","dem":"17","timezone":"America/Los_Angeles","modification_date":"2011-05-14"},{"geonameid":"5746545","name":"Portland","asciiname":"Portland","alternatenames":["Gorad Portlend","PDX","Portland","Portland i Oregon","Portlandas","Portlandia","Portlando","Portlant","Portlend","Portlenda","bo te lan","bwrtland  awryghwn","port land","portalainda","portalanda","portlant","portlendi","poteullaendeu","potorando","pwrtlnd","pwrtlnd  awrgn","Πόρτλαντ","Горад Портленд","Портланд","Портленд","Պորտլենդ","פורטלנד","بورتلاند، أوريغون","پورتلند، اورگن","पोर्टलंड","पोर्टलैंड","போர்ட்லன்ட்","పోర్ట్ లాండ్","ಪೋರ್ಟ್‌ಲ್ಯಾಂಡ್‌","พอร์ตแลนด์","პორტლენდი","ფორთლენდი","ポートランド","波特蘭","포틀랜드"],"latitude":"45.52345","longitude":"-122.67621","feature_class":"P","feature_code":"PPLA2","country_code":"US","cc2":"","admin1_code":"OR","admin2_code":"051","admin3_code":"","admin4_code":"","population":"583776","elevation":"12","dem":"15","timezone":"America/Los_Angeles","modification_date":"2014-10-27"},{"geonameid":"5746901","name":"Prineville","asciiname":"Prineville","alternatenames":["PRZ","Prajnvil","Prajnvill","brynfyly  awryghwn","prynwyl  awrgn","purainbiru","Прайнвил","Прайнвилл","برينفيلي، أوريغون","پرینویل، اورگن","プラインビル"],"latitude":"44.29985","longitude":"-120.83447","feature_class":"P","feature_code":"PPLA2","country_code":"US","cc2":"","admin1_code":"OR","admin2_code":"013","admin3_code":"","admin4_code":"","population":"9253","elevation":"877","dem":"878","timezone":"America/Los_Angeles","modification_date":"2011-05-14"},{"geonameid":"5747402","name":"Rainier","asciiname":"Rainier","alternatenames":[""],"latitude":"46.089","longitude":"-122.93594","feature_class":"P","feature_code":"PPL","country_code":"US","cc2":"","admin1_code":"OR","admin2_code":"009","admin3_code":"","admin4_code":"","population":"1895","elevation":"15","dem":"15","timezone":"America/Los_Angeles","modification_date":"2011-05-14"},{"geonameid":"5747420","name":"Raleigh Hills","asciiname":"Raleigh Hills","alternatenames":[""],"latitude":"45.48067","longitude":"-122.76204","feature_class":"P","feature_code":"PPL","country_code":"US","cc2":"","admin1_code":"OR","admin2_code":"067","admin3_code":"","admin4_code":"","population":"5896","elevation":"86","dem":"92","timezone":"America/Los_Angeles","modification_date":"2011-05-14"},{"geonameid":"5747882","name":"Redmond","asciiname":"Redmond","alternatenames":["RDM","Redmond","Redmund","Rehdmond","rdmnd  awrgn","redomondo","Редмонд","Редмънд","Рэдмонд","ردمند، اورگن","レドモンド"],"latitude":"44.27262","longitude":"-121.17392","feature_class":"P","feature_code":"PPL","country_code":"US","cc2":"","admin1_code":"OR","admin2_code":"017","admin3_code":"","admin4_code":"","population":"26215","elevation":"916","dem":"912","timezone":"America/Los_Angeles","modification_date":"2011-05-14"},{"geonameid":"5747900","name":"Redwood","asciiname":"Redwood","alternatenames":[""],"latitude":"42.42206","longitude":"-123.38728","feature_class":"P","feature_code":"PPL","country_code":"US","cc2":"","admin1_code":"OR","admin2_code":"033","admin3_code":"","admin4_code":"","population":"2627","elevation":"285","dem":"286","timezone":"America/Los_Angeles","modification_date":"2011-05-14"},{"geonameid":"5747941","name":"Reedsport","asciiname":"Reedsport","alternatenames":["Ridsport","Rijdsport","rydasprt  awrgn","Ридспорт","Рийдспорт","ریداسپرت، اورگن"],"latitude":"43.70234","longitude":"-124.09678","feature_class":"P","feature_code":"PPL","country_code":"US","cc2":"","admin1_code":"OR","admin2_code":"019","admin3_code":"","admin4_code":"","population":"4154","elevation":"9","dem":"3","timezone":"America/Los_Angeles","modification_date":"2011-05-14"},{"geonameid":"5748229","name":"Riddle","asciiname":"Riddle","alternatenames":[""],"latitude":"42.95095","longitude":"-123.36423","feature_class":"P","feature_code":"PPL","country_code":"US","cc2":"","admin1_code":"OR","admin2_code":"019","admin3_code":"","admin4_code":"","population":"1185","elevation":"212","dem":"213","timezone":"America/Los_Angeles","modification_date":"2011-05-14"},{"geonameid":"5749017","name":"Rockcreek","asciiname":"Rockcreek","alternatenames":[""],"latitude":"45.55012","longitude":"-122.87705","feature_class":"P","feature_code":"PPL","country_code":"US","cc2":"","admin1_code":"OR","admin2_code":"067","admin3_code":"","admin4_code":"","population":"9316","elevation":"55","dem":"56","timezone":"America/Los_Angeles","modification_date":"2011-05-14"},{"geonameid":"5749022","name":"Rockaway Beach","asciiname":"Rockaway Beach","alternatenames":[""],"latitude":"45.61344","longitude":"-123.94291","feature_class":"P","feature_code":"PPL","country_code":"US","cc2":"","admin1_code":"OR","admin2_code":"057","admin3_code":"","admin4_code":"","population":"1312","elevation":"7","dem":"4","timezone":"America/Los_Angeles","modification_date":"2011-05-14"},{"geonameid":"5749213","name":"Rogue River","asciiname":"Rogue River","alternatenames":[""],"latitude":"42.43595","longitude":"-123.172","feature_class":"P","feature_code":"PPL","country_code":"US","cc2":"","admin1_code":"OR","admin2_code":"029","admin3_code":"","admin4_code":"","population":"2131","elevation":"306","dem":"307","timezone":"America/Los_Angeles","modification_date":"2011-05-14"},{"geonameid":"5749333","name":"Rose Lodge","asciiname":"Rose Lodge","alternatenames":[""],"latitude":"45.01039","longitude":"-123.88039","feature_class":"P","feature_code":"PPL","country_code":"US","cc2":"","admin1_code":"OR","admin2_code":"041","admin3_code":"","admin4_code":"","population":"1894","elevation":"55","dem":"62","timezone":"America/Los_Angeles","modification_date":"2011-05-14"},{"geonameid":"5749352","name":"Roseburg","asciiname":"Roseburg","alternatenames":["RBG","Rosberg","Rousburg","Rouzburg","luo si bao","rsbwrg  awrgn","rwzbyrgh  awryghwn","Росберг","Роузбърг","Роусбург","رسبورگ، اورگن","روزبيرغ، أوريغون","罗斯堡"],"latitude":"43.2165","longitude":"-123.34174","feature_class":"P","feature_code":"PPLA2","country_code":"US","cc2":"","admin1_code":"OR","admin2_code":"019","admin3_code":"","admin4_code":"","population":"21181","elevation":"147","dem":"146","timezone":"America/Los_Angeles","modification_date":"2011-05-14"},{"geonameid":"5750041","name":"Saint Helens","asciiname":"Saint Helens","alternatenames":[""],"latitude":"45.864","longitude":"-122.80649","feature_class":"P","feature_code":"PPLA2","country_code":"US","cc2":"","admin1_code":"OR","admin2_code":"009","admin3_code":"","admin4_code":"","population":"12883","elevation":"27","dem":"31","timezone":"America/Los_Angeles","modification_date":"2011-05-14"},{"geonameid":"5750162","name":"Salem","asciiname":"Salem","alternatenames":["SLE","Salem","Salema","Salemas","Salems","Sejlem","Sejlum","celam","sai lei mu","salm","saylm  awryghwn","seilleom","seiramu","selama","sylm","Σάλεμ","Салем","Сейлем","Сейлъм","Сејлем","Սալեմ","סאלם","سالم","سايلم، أوريغون","سیلم","सेलम","சேலம்","セイラム","塞勒姆","세일럼"],"latitude":"44.9429","longitude":"-123.0351","feature_class":"P","feature_code":"PPLA","country_code":"US","cc2":"","admin1_code":"OR","admin2_code":"047","admin3_code":"","admin4_code":"","population":"154637","elevation":"49","dem":"55","timezone":"America/Los_Angeles","modification_date":"2011-05-14"},{"geonameid":"5750477","name":"Sandy","asciiname":"Sandy","alternatenames":[""],"latitude":"45.39734","longitude":"-122.26148","feature_class":"P","feature_code":"PPL","country_code":"US","cc2":"","admin1_code":"OR","admin2_code":"005","admin3_code":"","admin4_code":"","population":"9570","elevation":"299","dem":"296","timezone":"America/Los_Angeles","modification_date":"2011-05-14"},{"geonameid":"5750663","name":"Scappoose","asciiname":"Scappoose","alternatenames":[""],"latitude":"45.75428","longitude":"-122.8776","feature_class":"P","feature_code":"PPL","country_code":"US","cc2":"","admin1_code":"OR","admin2_code":"009","admin3_code":"","admin4_code":"","population":"6592","elevation":"19","dem":"24","timezone":"America/Los_Angeles","modification_date":"2011-05-14"},{"geonameid":"5750984","name":"Seaside","asciiname":"Seaside","alternatenames":["Sijsajd","Sisajd","sysayd  awrgn","Сийсайд","Сисайд","Сисајд","سیساید، اورگن"],"latitude":"45.99316","longitude":"-123.92264","feature_class":"P","feature_code":"PPL","country_code":"US","cc2":"","admin1_code":"OR","admin2_code":"007","admin3_code":"","admin4_code":"","population":"6457","elevation":"2","dem":"5","timezone":"America/Los_Angeles","modification_date":"2011-05-14"},{"geonameid":"5751253","name":"Shady Cove","asciiname":"Shady Cove","alternatenames":[""],"latitude":"42.61068","longitude":"-122.81254","feature_class":"P","feature_code":"PPL","country_code":"US","cc2":"","admin1_code":"OR","admin2_code":"029","admin3_code":"","admin4_code":"","population":"2904","elevation":"427","dem":"426","timezone":"America/Los_Angeles","modification_date":"2011-05-14"},{"geonameid":"5751600","name":"Sheridan","asciiname":"Sheridan","alternatenames":["Shehridan","Sheridan","shrydn  awrgn","Шеридан","Шэридан","شریدن، اورگن"],"latitude":"45.09928","longitude":"-123.39483","feature_class":"P","feature_code":"PPL","country_code":"US","cc2":"","admin1_code":"OR","admin2_code":"071","admin3_code":"","admin4_code":"","population":"6127","elevation":"56","dem":"56","timezone":"America/Los_Angeles","modification_date":"2011-05-14"},{"geonameid":"5751632","name":"Sherwood","asciiname":"Sherwood","alternatenames":[""],"latitude":"45.35651","longitude":"-122.8401","feature_class":"P","feature_code":"PPL","country_code":"US","cc2":"","admin1_code":"OR","admin2_code":"067","admin3_code":"","admin4_code":"","population":"18194","elevation":"60","dem":"60","timezone":"America/Los_Angeles","modification_date":"2011-05-14"},{"geonameid":"5751919","name":"Siletz","asciiname":"Siletz","alternatenames":[""],"latitude":"44.72178","longitude":"-123.92011","feature_class":"P","feature_code":"PPL","country_code":"US","cc2":"","admin1_code":"OR","admin2_code":"041","admin3_code":"","admin4_code":"","population":"2449","elevation":"43","dem":"36","timezone":"America/Los_Angeles","modification_date":"2012-03-20"},{"geonameid":"5752024","name":"Silverton","asciiname":"Silverton","alternatenames":["Sil'verton","Silverton","Silvurtun","sylwrtn  awrgn","Силвертон","Силвъртън","Сильвертон","سیلورتن، اورگن"],"latitude":"45.00512","longitude":"-122.78315","feature_class":"P","feature_code":"PPL","country_code":"US","cc2":"","admin1_code":"OR","admin2_code":"047","admin3_code":"","admin4_code":"","population":"9222","elevation":"78","dem":"76","timezone":"America/Los_Angeles","modification_date":"2011-05-14"},{"geonameid":"5752129","name":"Sisters","asciiname":"Sisters","alternatenames":["Sistehrs","Sistersvil","Sisturs","systrz  awrgn","Систерсвил","Систърс","Систэрс","سیسترز، اورگن"],"latitude":"44.29095","longitude":"-121.54921","feature_class":"P","feature_code":"PPL","country_code":"US","cc2":"","admin1_code":"OR","admin2_code":"017","admin3_code":"","admin4_code":"","population":"2038","elevation":"973","dem":"972","timezone":"America/Los_Angeles","modification_date":"2011-05-14"},{"geonameid":"5753466","name":"South Lebanon","asciiname":"South Lebanon","alternatenames":[""],"latitude":"44.50623","longitude":"-122.90314","feature_class":"P","feature_code":"PPL","country_code":"US","cc2":"","admin1_code":"OR","admin2_code":"043","admin3_code":"","admin4_code":"","population":"1005","elevation":"114","dem":"113","timezone":"America/Los_Angeles","modification_date":"2011-05-14"},{"geonameid":"5754005","name":"Springfield","asciiname":"Springfield","alternatenames":["Springfijld","Springfild","aspyryng fyld  awrgn","seupeulingpildeu","si pu lin fei er de","supuringufirudo","Спрингфийлд","Спрингфилд","اسپیرینگ فیلد، اورگن","スプリングフィールド","斯普林菲尔德","스프링필드"],"latitude":"44.04624","longitude":"-123.02203","feature_class":"P","feature_code":"PPL","country_code":"US","cc2":"","admin1_code":"OR","admin2_code":"039","admin3_code":"","admin4_code":"","population":"59403","elevation":"140","dem":"139","timezone":"America/Los_Angeles","modification_date":"2011-05-14"},{"geonameid":"5754243","name":"Stafford","asciiname":"Stafford","alternatenames":[""],"latitude":"45.35734","longitude":"-122.72259","feature_class":"P","feature_code":"PPL","country_code":"US","cc2":"","admin1_code":"OR","admin2_code":"005","admin3_code":"","admin4_code":"","population":"1577","elevation":"127","dem":"122","timezone":"America/Los_Angeles","modification_date":"2011-05-14"},{"geonameid":"5754308","name":"Stanfield","asciiname":"Stanfield","alternatenames":[""],"latitude":"45.78041","longitude":"-119.21724","feature_class":"P","feature_code":"PPL","country_code":"US","cc2":"","admin1_code":"OR","admin2_code":"059","admin3_code":"","admin4_code":"","population":"2043","elevation":"181","dem":"181","timezone":"America/Los_Angeles","modification_date":"2011-05-14"},{"geonameid":"5754464","name":"Stayton","asciiname":"Stayton","alternatenames":[""],"latitude":"44.80068","longitude":"-122.79453","feature_class":"P","feature_code":"PPL","country_code":"US","cc2":"","admin1_code":"OR","admin2_code":"047","admin3_code":"","admin4_code":"","population":"7644","elevation":"139","dem":"141","timezone":"America/Los_Angeles","modification_date":"2011-05-14"},{"geonameid":"5754988","name":"Sublimity","asciiname":"Sublimity","alternatenames":[""],"latitude":"44.82957","longitude":"-122.79453","feature_class":"P","feature_code":"PPL","country_code":"US","cc2":"","admin1_code":"OR","admin2_code":"047","admin3_code":"","admin4_code":"","population":"2681","elevation":"168","dem":"169","timezone":"America/Los_Angeles","modification_date":"2011-05-14"},{"geonameid":"5755307","name":"Sunnyside","asciiname":"Sunnyside","alternatenames":[""],"latitude":"45.42679","longitude":"-122.52759","feature_class":"P","feature_code":"PPL","country_code":"US","cc2":"","admin1_code":"OR","admin2_code":"005","admin3_code":"","admin4_code":"","population":"6791","elevation":"113","dem":"113","timezone":"America/Los_Angeles","modification_date":"2010-02-17"},{"geonameid":"5755337","name":"Sunriver","asciiname":"Sunriver","alternatenames":["SUO","Sunriver"],"latitude":"43.88401","longitude":"-121.43864","feature_class":"P","feature_code":"PPL","country_code":"US","cc2":"","admin1_code":"OR","admin2_code":"017","admin3_code":"","admin4_code":"","population":"1393","elevation":"1271","dem":"1272","timezone":"America/Los_Angeles","modification_date":"2013-06-23"},{"geonameid":"5755474","name":"Sutherlin","asciiname":"Sutherlin","alternatenames":[""],"latitude":"43.39012","longitude":"-123.31258","feature_class":"P","feature_code":"PPL","country_code":"US","cc2":"","admin1_code":"OR","admin2_code":"019","admin3_code":"","admin4_code":"","population":"7810","elevation":"157","dem":"156","timezone":"America/Los_Angeles","modification_date":"2011-05-14"},{"geonameid":"5755674","name":"Sweet Home","asciiname":"Sweet Home","alternatenames":["Suijt Khoum","Suit Khoum","Svit Khoum","swyyt hwm  awrgn","Свит Хоум","Суийт Хоум","Суит Хоум","سوئیت هوم، اورگن"],"latitude":"44.39762","longitude":"-122.7362","feature_class":"P","feature_code":"PPL","country_code":"US","cc2":"","admin1_code":"OR","admin2_code":"043","admin3_code":"","admin4_code":"","population":"8925","elevation":"161","dem":"160","timezone":"America/Los_Angeles","modification_date":"2011-05-14"},{"geonameid":"5755890","name":"Talent","asciiname":"Talent","alternatenames":[""],"latitude":"42.24568","longitude":"-122.78865","feature_class":"P","feature_code":"PPL","country_code":"US","cc2":"","admin1_code":"OR","admin2_code":"029","admin3_code":"","admin4_code":"","population":"6066","elevation":"496","dem":"497","timezone":"America/Los_Angeles","modification_date":"2011-05-14"},{"geonameid":"5755975","name":"Tangent","asciiname":"Tangent","alternatenames":[""],"latitude":"44.54123","longitude":"-123.10815","feature_class":"P","feature_code":"PPL","country_code":"US","cc2":"","admin1_code":"OR","admin2_code":"043","admin3_code":"","admin4_code":"","population":"1164","elevation":"76","dem":"75","timezone":"America/Los_Angeles","modification_date":"2011-05-14"},{"geonameid":"5756260","name":"Terrebonne","asciiname":"Terrebonne","alternatenames":[""],"latitude":"44.3529","longitude":"-121.17781","feature_class":"P","feature_code":"PPL","country_code":"US","cc2":"","admin1_code":"OR","admin2_code":"017","admin3_code":"","admin4_code":"","population":"1257","elevation":"875","dem":"873","timezone":"America/Los_Angeles","modification_date":"2011-05-14"},{"geonameid":"5756304","name":"The Dalles","asciiname":"The Dalles","alternatenames":["City of The Dalles","DLS","Dals","Dalz","Zeh Dallehs","dha dalys  awryghwn","dls  awrgn","Далз","Далс","Зэ Даллэс","دلس، اورگن","ذا داليس، أوريغون"],"latitude":"45.59456","longitude":"-121.17868","feature_class":"P","feature_code":"PPLA2","country_code":"US","cc2":"","admin1_code":"OR","admin2_code":"065","admin3_code":"","admin4_code":"","population":"13620","elevation":"77","dem":"81","timezone":"America/Los_Angeles","modification_date":"2011-05-14"},{"geonameid":"5756628","name":"Three Rivers","asciiname":"Three Rivers","alternatenames":[""],"latitude":"43.82012","longitude":"-121.46919","feature_class":"P","feature_code":"PPL","country_code":"US","cc2":"","admin1_code":"OR","admin2_code":"017","admin3_code":"","admin4_code":"","population":"3014","elevation":"1276","dem":"1277","timezone":"America/Los_Angeles","modification_date":"2011-05-14"},{"geonameid":"5756758","name":"Tigard","asciiname":"Tigard","alternatenames":["Tajgard","Tigard","Tigurd","taigado","taigeodeu","taygrd  awrgn","thi kard","tyghard  awryghwn","Тајгард","Тигард","Тигърд","تایگرد، اورگن","تيغارد، أوريغون","ไทการ์ด","タイガード","타이거드"],"latitude":"45.43123","longitude":"-122.77149","feature_class":"P","feature_code":"PPL","country_code":"US","cc2":"","admin1_code":"OR","admin2_code":"067","admin3_code":"","admin4_code":"","population":"48035","elevation":"51","dem":"49","timezone":"America/Los_Angeles","modification_date":"2011-05-14"},{"geonameid":"5756777","name":"Tillamook","asciiname":"Tillamook","alternatenames":["OTK","Tilamuk","Tillamuk","tiramukku","tylamwk  awryghwn","tylmwk  awrgn","Тиламук","Тилламук","تيلاموك، أوريغون","تیلموک، اورگن","ティラムック"],"latitude":"45.4564","longitude":"-123.84553","feature_class":"P","feature_code":"PPLA2","country_code":"US","cc2":"","admin1_code":"OR","admin2_code":"057","admin3_code":"","admin4_code":"","population":"4935","elevation":"8","dem":"5","timezone":"America/Los_Angeles","modification_date":"2014-08-31"},{"geonameid":"5757007","name":"Toledo","asciiname":"Toledo","alternatenames":["Toledo","Толедо"],"latitude":"44.62151","longitude":"-123.93845","feature_class":"P","feature_code":"PPL","country_code":"US","cc2":"","admin1_code":"OR","admin2_code":"041","admin3_code":"","admin4_code":"","population":"3465","elevation":"6","dem":"9","timezone":"America/Los_Angeles","modification_date":"2011-05-14"},{"geonameid":"5757355","name":"Tri-City","asciiname":"Tri-City","alternatenames":[""],"latitude":"42.98456","longitude":"-123.31173","feature_class":"P","feature_code":"PPL","country_code":"US","cc2":"","admin1_code":"OR","admin2_code":"019","admin3_code":"","admin4_code":"","population":"3931","elevation":"226","dem":"240","timezone":"America/Los_Angeles","modification_date":"2011-05-14"},{"geonameid":"5757477","name":"Troutdale","asciiname":"Troutdale","alternatenames":["TTD","Trautdejl","trwtdl  awrgn","Траутдейл","Траутдејл","تروتدل، اورگن"],"latitude":"45.53929","longitude":"-122.38731","feature_class":"P","feature_code":"PPL","country_code":"US","cc2":"","admin1_code":"OR","admin2_code":"051","admin3_code":"","admin4_code":"","population":"15962","elevation":"39","dem":"39","timezone":"America/Los_Angeles","modification_date":"2011-05-14"},{"geonameid":"5757506","name":"Tualatin","asciiname":"Tualatin","alternatenames":["Tualatin","Tualatun","te~yuaratin","twalatyn  awryghwn","twaltyn  awrgn","Туалатин","Туалатън","توالاتين، أوريغون","توالتین، اورگن","テュアラティン"],"latitude":"45.38401","longitude":"-122.76399","feature_class":"P","feature_code":"PPL","country_code":"US","cc2":"","admin1_code":"OR","admin2_code":"067","admin3_code":"","admin4_code":"","population":"26054","elevation":"38","dem":"41","timezone":"America/Los_Angeles","modification_date":"2011-05-14"},{"geonameid":"5757706","name":"Turner","asciiname":"Turner","alternatenames":[""],"latitude":"44.84318","longitude":"-122.95287","feature_class":"P","feature_code":"PPL","country_code":"US","cc2":"","admin1_code":"OR","admin2_code":"047","admin3_code":"","admin4_code":"","population":"1854","elevation":"88","dem":"87","timezone":"America/Los_Angeles","modification_date":"2011-05-14"},{"geonameid":"5758052","name":"Umatilla","asciiname":"Umatilla","alternatenames":[""],"latitude":"45.91735","longitude":"-119.34252","feature_class":"P","feature_code":"PPL","country_code":"US","cc2":"","admin1_code":"OR","admin2_code":"059","admin3_code":"","admin4_code":"","population":"6906","elevation":"98","dem":"98","timezone":"America/Los_Angeles","modification_date":"2011-05-14"},{"geonameid":"5758113","name":"Union","asciiname":"Union","alternatenames":[""],"latitude":"45.20847","longitude":"-117.86521","feature_class":"P","feature_code":"PPL","country_code":"US","cc2":"","admin1_code":"OR","admin2_code":"061","admin3_code":"","admin4_code":"","population":"2121","elevation":"850","dem":"849","timezone":"America/Los_Angeles","modification_date":"2011-05-14"},{"geonameid":"5758413","name":"Vale","asciiname":"Vale","alternatenames":["Vehjl","Vejl","wei er","Вейл","Вејл","Вэйл","韋爾"],"latitude":"43.98211","longitude":"-117.23823","feature_class":"P","feature_code":"PPLA2","country_code":"US","cc2":"","admin1_code":"OR","admin2_code":"045","admin3_code":"","admin4_code":"","population":"1874","elevation":"684","dem":"683","timezone":"America/Boise","modification_date":"2011-05-14"},{"geonameid":"5758566","name":"Veneta","asciiname":"Veneta","alternatenames":[""],"latitude":"44.04873","longitude":"-123.35093","feature_class":"P","feature_code":"PPL","country_code":"US","cc2":"","admin1_code":"OR","admin2_code":"039","admin3_code":"","admin4_code":"","population":"4561","elevation":"129","dem":"129","timezone":"America/Los_Angeles","modification_date":"2011-05-14"},{"geonameid":"5758599","name":"Vernonia","asciiname":"Vernonia","alternatenames":[""],"latitude":"45.85872","longitude":"-123.19289","feature_class":"P","feature_code":"PPL","country_code":"US","cc2":"","admin1_code":"OR","admin2_code":"009","admin3_code":"","admin4_code":"","population":"2151","elevation":"190","dem":"188","timezone":"America/Los_Angeles","modification_date":"2011-05-14"},{"geonameid":"5758901","name":"Waldport","asciiname":"Waldport","alternatenames":[""],"latitude":"44.42679","longitude":"-124.06873","feature_class":"P","feature_code":"PPL","country_code":"US","cc2":"","admin1_code":"OR","admin2_code":"041","admin3_code":"","admin4_code":"","population":"2033","elevation":"2","dem":"4","timezone":"America/Los_Angeles","modification_date":"2011-05-14"},{"geonameid":"5759199","name":"Warm Springs","asciiname":"Warm Springs","alternatenames":[""],"latitude":"44.76345","longitude":"-121.26616","feature_class":"P","feature_code":"PPL","country_code":"US","cc2":"","admin1_code":"OR","admin2_code":"031","admin3_code":"","admin4_code":"","population":"2945","elevation":"469","dem":"466","timezone":"America/Los_Angeles","modification_date":"2011-05-14"},{"geonameid":"5759261","name":"Warren","asciiname":"Warren","alternatenames":[""],"latitude":"45.819","longitude":"-122.84899","feature_class":"P","feature_code":"PPL","country_code":"US","cc2":"","admin1_code":"OR","admin2_code":"009","admin3_code":"","admin4_code":"","population":"1787","elevation":"15","dem":"16","timezone":"America/Los_Angeles","modification_date":"2011-05-14"},{"geonameid":"5759289","name":"Warrenton","asciiname":"Warrenton","alternatenames":[""],"latitude":"46.1651","longitude":"-123.92376","feature_class":"P","feature_code":"PPL","country_code":"US","cc2":"","admin1_code":"OR","admin2_code":"007","admin3_code":"","admin4_code":"","population":"4989","elevation":"7","dem":"2","timezone":"America/Los_Angeles","modification_date":"2011-05-14"},{"geonameid":"5759989","name":"West Haven","asciiname":"West Haven","alternatenames":[""],"latitude":"45.51762","longitude":"-122.76954","feature_class":"P","feature_code":"PPL","country_code":"US","cc2":"","admin1_code":"OR","admin2_code":"067","admin3_code":"","admin4_code":"","population":"6009","elevation":"159","dem":"164","timezone":"America/Los_Angeles","modification_date":"2006-01-15"},{"geonameid":"5760009","name":"West Linn","asciiname":"West Linn","alternatenames":["Vehst Linn","Vest Lin","Zapaden Lin","u~esutorin","wst lyn  awrgn","wyst lyn  awryghwn","Вест Лин","Вэст Линн","Западен Лин","وست لین، اورگن","ويست لين، أوريغون","ウェストリン"],"latitude":"45.36568","longitude":"-122.61231","feature_class":"P","feature_code":"PPL","country_code":"US","cc2":"","admin1_code":"OR","admin2_code":"005","admin3_code":"","admin4_code":"","population":"25109","elevation":"41","dem":"44","timezone":"America/Los_Angeles","modification_date":"2011-05-14"},{"geonameid":"5760068","name":"West Slope","asciiname":"West Slope","alternatenames":[""],"latitude":"45.49873","longitude":"-122.76454","feature_class":"P","feature_code":"PPL","country_code":"US","cc2":"","admin1_code":"OR","admin2_code":"067","admin3_code":"","admin4_code":"","population":"6554","elevation":"114","dem":"113","timezone":"America/Los_Angeles","modification_date":"2011-05-14"},{"geonameid":"5760396","name":"White City","asciiname":"White City","alternatenames":[""],"latitude":"42.43735","longitude":"-122.85893","feature_class":"P","feature_code":"PPL","country_code":"US","cc2":"","admin1_code":"OR","admin2_code":"029","admin3_code":"","admin4_code":"","population":"7975","elevation":"400","dem":"397","timezone":"America/Los_Angeles","modification_date":"2011-05-14"},{"geonameid":"5760923","name":"Willamina","asciiname":"Willamina","alternatenames":[""],"latitude":"45.07873","longitude":"-123.48594","feature_class":"P","feature_code":"PPL","country_code":"US","cc2":"","admin1_code":"OR","admin2_code":"071","admin3_code":"","admin4_code":"","population":"2025","elevation":"71","dem":"70","timezone":"America/Los_Angeles","modification_date":"2011-05-14"},{"geonameid":"5760956","name":"Williams","asciiname":"Williams","alternatenames":[""],"latitude":"42.21873","longitude":"-123.27394","feature_class":"P","feature_code":"PPL","country_code":"US","cc2":"","admin1_code":"OR","admin2_code":"033","admin3_code":"","admin4_code":"","population":"1072","elevation":"428","dem":"426","timezone":"America/Los_Angeles","modification_date":"2011-05-14"},{"geonameid":"5761287","name":"Wilsonville","asciiname":"Wilsonville","alternatenames":["Uilsunvil","Vilsonvil","Vilsonvill","wylsnwyl  awrgn","Вилсонвил","Вилсонвилл","Уилсънвил","ویلسنویل، اورگن"],"latitude":"45.29984","longitude":"-122.77371","feature_class":"P","feature_code":"PPL","country_code":"US","cc2":"","admin1_code":"OR","admin2_code":"005","admin3_code":"","admin4_code":"","population":"19509","elevation":"47","dem":"45","timezone":"America/Los_Angeles","modification_date":"2011-05-14"},{"geonameid":"5761481","name":"Winston","asciiname":"Winston","alternatenames":[""],"latitude":"43.12234","longitude":"-123.41257","feature_class":"P","feature_code":"PPL","country_code":"US","cc2":"","admin1_code":"OR","admin2_code":"019","admin3_code":"","admin4_code":"","population":"5379","elevation":"169","dem":"165","timezone":"America/Los_Angeles","modification_date":"2011-05-14"},{"geonameid":"5761705","name":"Wood Village","asciiname":"Wood Village","alternatenames":[""],"latitude":"45.53429","longitude":"-122.4187","feature_class":"P","feature_code":"PPL","country_code":"US","cc2":"","admin1_code":"OR","admin2_code":"051","admin3_code":"","admin4_code":"","population":"3878","elevation":"48","dem":"48","timezone":"America/Los_Angeles","modification_date":"2011-05-14"},{"geonameid":"5761708","name":"Woodburn","asciiname":"Woodburn","alternatenames":["Udburn","Vudbern","Vudbjorn","wwdbwrn  awrgn","Вудберн","Вудбёрн","Удбърн","وودبورن، اورگن"],"latitude":"45.14373","longitude":"-122.85537","feature_class":"P","feature_code":"PPL","country_code":"US","cc2":"","admin1_code":"OR","admin2_code":"047","admin3_code":"","admin4_code":"","population":"24080","elevation":"57","dem":"59","timezone":"America/Los_Angeles","modification_date":"2011-05-14"},{"geonameid":"5761959","name":"Yamhill","asciiname":"Yamhill","alternatenames":[""],"latitude":"45.3415","longitude":"-123.18733","feature_class":"P","feature_code":"PPL","country_code":"US","cc2":"","admin1_code":"OR","admin2_code":"071","admin3_code":"","admin4_code":"","population":"1024","elevation":"60","dem":"60","timezone":"America/Los_Angeles","modification_date":"2011-05-14"},{"geonameid":"5762118","name":"Yoncalla","asciiname":"Yoncalla","alternatenames":[""],"latitude":"43.59845","longitude":"-123.28342","feature_class":"P","feature_code":"PPL","country_code":"US","cc2":"","admin1_code":"OR","admin2_code":"019","admin3_code":"","admin4_code":"","population":"1047","elevation":"112","dem":"114","timezone":"America/Los_Angeles","modification_date":"2011-05-14"},{"geonameid":"5843993","name":"Fruitdale","asciiname":"Fruitdale","alternatenames":[""],"latitude":"42.42206","longitude":"-123.30811","feature_class":"P","feature_code":"PPL","country_code":"US","cc2":"","admin1_code":"OR","admin2_code":"033","admin3_code":"","admin4_code":"","population":"1177","elevation":"283","dem":"290","timezone":"America/Los_Angeles","modification_date":"2011-05-14"},{"geonameid":"5843997","name":"Gold Beach","asciiname":"Gold Beach","alternatenames":["GOL","Gold Bich","Gold Bijch","Gould Bich","ge er de bi qi","gld bych  awrgn","goldeubichi","gorudobichi","Голд Бийч","Голд Бич","Гоулд Бич","گلد بیچ، اورگن","ゴールドビーチ","戈尔德比奇","골드비치"],"latitude":"42.40733","longitude":"-124.42177","feature_class":"P","feature_code":"PPLA2","country_code":"US","cc2":"","admin1_code":"OR","admin2_code":"015","admin3_code":"","admin4_code":"","population":"2253","elevation":"15","dem":"17","timezone":"America/Los_Angeles","modification_date":"2011-05-14"},{"geonameid":"7261327","name":"Garden Home-Whitford","asciiname":"Garden Home-Whitford","alternatenames":[""],"latitude":"45.464","longitude":"-122.75891","feature_class":"P","feature_code":"PPL","country_code":"US","cc2":"","admin1_code":"OR","admin2_code":"067","admin3_code":"","admin4_code":"","population":"6674","elevation":"77","dem":"81","timezone":"America/Los_Angeles","modification_date":"2011-05-14"},{"geonameid":"7262019","name":"Oatfield","asciiname":"Oatfield","alternatenames":[""],"latitude":"45.41418","longitude":"-122.60007","feature_class":"P","feature_code":"PPL","country_code":"US","cc2":"","admin1_code":"OR","admin2_code":"005","admin3_code":"","admin4_code":"","population":"13415","elevation":"42","dem":"45","timezone":"America/Los_Angeles","modification_date":"2011-05-14"},{"geonameid":"7262259","name":"Roseburg North","asciiname":"Roseburg North","alternatenames":[""],"latitude":"43.26452","longitude":"-123.30331","feature_class":"P","feature_code":"PPL","country_code":"US","cc2":"","admin1_code":"OR","admin2_code":"019","admin3_code":"","admin4_code":"","population":"5912","elevation":"317","dem":"320","timezone":"America/Los_Angeles","modification_date":"2011-05-14"},{"geonameid":"7262498","name":"West Haven-Sylvan","asciiname":"West Haven-Sylvan","alternatenames":[""],"latitude":"45.51613","longitude":"-122.76809","feature_class":"P","feature_code":"PPL","country_code":"US","cc2":"","admin1_code":"OR","admin2_code":"067","admin3_code":"","admin4_code":"","population":"8001","elevation":"162","dem":"163","timezone":"America/Los_Angeles","modification_date":"2011-05-14"}]}