{"region_data":{"countryId":"6252001","adminCode1":"VA","countryName":"United States","fclName":"country, state, region,...","countryCode":"US","lng":"-77.44675","fcodeName":"first-order administrative division","toponymName":"Virginia","fcl":"A","numberOfChildren":134,"name":"Virginia","fcode":"ADM1","geonameId":6254928,"lat":"37.54812","adminName1":"Virginia","population":7642884},"country_data":{"ISO":"US","ISO3":"USA","ISO_Numeric":"840","fips":"US","country":"United States","capital":"Washington","area":"9629091","Population":"310232863","Continent":"NA","tld":".us","CurrencyCode":"USD","CurrencyName":"Dollar","Phone":"1","Postal_Code_Format":"#####-####","Postal_Code_Regex":"^\\d{5}(-\\d{4})?$","Languages":"en-US,es-US,haw,fr","geonameid":"6252001","neighbours":"CA,MX,CU","EquivalentFipsCode":""},"cities":[{"geonameid":"7231955","name":"Captains Cove","asciiname":"Captains Cove","alternatenames":[""],"latitude":"37.98996","longitude":"-75.42272","feature_class":"P","feature_code":"PPL","country_code":"US","cc2":"","admin1_code":"VA","admin2_code":"001","admin3_code":"","admin4_code":"","population":"1042","elevation":"5","dem":"7","timezone":"America/New_York","modification_date":"2011-05-14"},{"geonameid":"7257902","name":"Fort Belvoir","asciiname":"Fort Belvoir","alternatenames":["DAA"],"latitude":"38.7119","longitude":"-77.14589","feature_class":"P","feature_code":"PPL","country_code":"US","cc2":"","admin1_code":"VA","admin2_code":"059","admin3_code":"","admin4_code":"","population":"7100","elevation":"42","dem":"43","timezone":"America/New_York","modification_date":"2011-05-14"},{"geonameid":"7257908","name":"Fort Lee","asciiname":"Fort Lee","alternatenames":["Ft. Lee"],"latitude":"37.24694","longitude":"-77.33442","feature_class":"P","feature_code":"PPL","country_code":"US","cc2":"","admin1_code":"VA","admin2_code":"149","admin3_code":"","admin4_code":"","population":"3393","elevation":"30","dem":"29","timezone":"America/New_York","modification_date":"2013-05-31"},{"geonameid":"7258318","name":"Mount Vernon","asciiname":"Mount Vernon","alternatenames":[""],"latitude":"38.71919","longitude":"-77.10726","feature_class":"P","feature_code":"PPL","country_code":"US","cc2":"","admin1_code":"VA","admin2_code":"059","admin3_code":"","admin4_code":"","population":"12416","elevation":"10","dem":"14","timezone":"America/New_York","modification_date":"2011-05-14"},{"geonameid":"7258517","name":"Quantico Station","asciiname":"Quantico Station","alternatenames":[""],"latitude":"38.52263","longitude":"-77.31834","feature_class":"P","feature_code":"PPL","country_code":"US","cc2":"","admin1_code":"VA","admin2_code":"153","admin3_code":"","admin4_code":"","population":"4452","elevation":"34","dem":"44","timezone":"America/New_York","modification_date":"2011-05-14"},{"geonameid":"7728582","name":"Woodlake","asciiname":"Woodlake","alternatenames":[""],"latitude":"37.42106","longitude":"-77.67931","feature_class":"P","feature_code":"PPL","country_code":"US","cc2":"","admin1_code":"VA","admin2_code":"041","admin3_code":"","admin4_code":"","population":"7319","elevation":"76","dem":"80","timezone":"America/New_York","modification_date":"2011-05-15"},{"geonameid":"8097131","name":"Oak Hill","asciiname":"Oak Hill","alternatenames":[""],"latitude":"38.9258","longitude":"-77.40156","feature_class":"P","feature_code":"PPL","country_code":"US","cc2":"","admin1_code":"VA","admin2_code":"059","admin3_code":"","admin4_code":"","population":"33811","elevation":"100","dem":"106","timezone":"America/New_York","modification_date":"2012-05-23"},{"geonameid":"9036748","name":"Williamsburg","asciiname":"Williamsburg","alternatenames":[""],"latitude":"37.27344","longitude":"-76.74148","feature_class":"P","feature_code":"PPLA4","country_code":"US","cc2":"","admin1_code":"VA","admin2_code":"095","admin3_code":"","admin4_code":"","population":"0","elevation":"","dem":"30","timezone":"America/New_York","modification_date":"2014-07-18"},{"geonameid":"4046704","name":"Fort Hunt","asciiname":"Fort Hunt","alternatenames":[""],"latitude":"38.73289","longitude":"-77.05803","feature_class":"P","feature_code":"PPL","country_code":"US","cc2":"","admin1_code":"VA","admin2_code":"059","admin3_code":"","admin4_code":"","population":"16045","elevation":"10","dem":"16","timezone":"America/New_York","modification_date":"2011-05-14"},{"geonameid":"4743815","name":"Abingdon","asciiname":"Abingdon","alternatenames":["Abingdon","a bin deng","aebingdeon","Абингдон","Абінгдон","阿宾登","애빙던"],"latitude":"36.70983","longitude":"-81.97735","feature_class":"P","feature_code":"PPLA2","country_code":"US","cc2":"","admin1_code":"VA","admin2_code":"191","admin3_code":"","admin4_code":"","population":"8191","elevation":"629","dem":"638","timezone":"America/New_York","modification_date":"2011-05-14"},{"geonameid":"4744091","name":"Alexandria","asciiname":"Alexandria","alternatenames":["Aleksandri","Aleksandrija","Alexandria","alaskndryt  fyrjynya","alksandrya  wyrjynya","allegsandeulia","arekusandoria","ya li shan de li ya","Александри","Александрия","Александрија","Ալեքսանդրիա","الإسكندرية، فيرجينيا","الکساندریا، ویرجینیا","অ্যালেক্সান্ড্রিয়া","アレクサンドリア","亚历山德里亚","알렉산드리아"],"latitude":"38.80484","longitude":"-77.04692","feature_class":"P","feature_code":"PPLA2","country_code":"US","cc2":"","admin1_code":"VA","admin2_code":"510","admin3_code":"","admin4_code":"","population":"139966","elevation":"12","dem":"15","timezone":"America/New_York","modification_date":"2012-04-28"},{"geonameid":"4744468","name":"Annandale","asciiname":"Annandale","alternatenames":[""],"latitude":"38.83039","longitude":"-77.19637","feature_class":"P","feature_code":"PPL","country_code":"US","cc2":"","admin1_code":"VA","admin2_code":"059","admin3_code":"","admin4_code":"","population":"41008","elevation":"110","dem":"110","timezone":"America/New_York","modification_date":"2011-05-14"},{"geonameid":"4744645","name":"Aquia Harbour","asciiname":"Aquia Harbour","alternatenames":[""],"latitude":"38.46262","longitude":"-77.38887","feature_class":"P","feature_code":"PPL","country_code":"US","cc2":"","admin1_code":"VA","admin2_code":"179","admin3_code":"","admin4_code":"","population":"6727","elevation":"3","dem":"10","timezone":"America/New_York","modification_date":"2011-05-14"},{"geonameid":"4744709","name":"Arlington","asciiname":"Arlington","alternatenames":["Arlington","Arlingtonas","a ling dun xian","arinton","Арлингтон","アーリントン","阿靈頓縣"],"latitude":"38.88101","longitude":"-77.10428","feature_class":"P","feature_code":"PPLA2","country_code":"US","cc2":"","admin1_code":"VA","admin2_code":"013","admin3_code":"","admin4_code":"","population":"207627","elevation":"71","dem":"83","timezone":"America/New_York","modification_date":"2015-01-15"},{"geonameid":"4744870","name":"Ashburn","asciiname":"Ashburn","alternatenames":["Ashbern","Ashburn","aesyubeon","ashbrn  wyrjynya","Ашберн","Ашбърн","اشبرن، ویرجینیا","애슈번"],"latitude":"39.04372","longitude":"-77.48749","feature_class":"P","feature_code":"PPL","country_code":"US","cc2":"","admin1_code":"VA","admin2_code":"107","admin3_code":"","admin4_code":"","population":"43511","elevation":"90","dem":"89","timezone":"America/New_York","modification_date":"2015-03-17"},{"geonameid":"4744905","name":"Ashland","asciiname":"Ashland","alternatenames":["Eshland","Ешланд"],"latitude":"37.75903","longitude":"-77.47998","feature_class":"P","feature_code":"PPL","country_code":"US","cc2":"","admin1_code":"VA","admin2_code":"085","admin3_code":"","admin4_code":"","population":"7225","elevation":"65","dem":"67","timezone":"America/New_York","modification_date":"2011-05-14"},{"geonameid":"4745272","name":"Baileys Crossroads","asciiname":"Baileys Crossroads","alternatenames":["Bailey's Crossroads"],"latitude":"38.85039","longitude":"-77.1297","feature_class":"P","feature_code":"PPL","country_code":"US","cc2":"","admin1_code":"VA","admin2_code":"059","admin3_code":"","admin4_code":"","population":"23643","elevation":"78","dem":"77","timezone":"America/New_York","modification_date":"2011-05-15"},{"geonameid":"4746265","name":"Bedford","asciiname":"Bedford","alternatenames":["Bedesford","Bedford","Bēdesford","bdfwrd  wyrjynya","beddofodo","bedeupeodeu","bei de fu","Бедфорд","بدفورد، ویرجینیا","ベッドフォード","貝德福","베드퍼드"],"latitude":"37.33431","longitude":"-79.52309","feature_class":"P","feature_code":"PPLA2","country_code":"US","cc2":"","admin1_code":"VA","admin2_code":"515","admin3_code":"","admin4_code":"","population":"6222","elevation":"306","dem":"307","timezone":"America/New_York","modification_date":"2012-04-28"},{"geonameid":"4746457","name":"Belle Haven","asciiname":"Belle Haven","alternatenames":[""],"latitude":"38.78539","longitude":"-77.06303","feature_class":"P","feature_code":"PPL","country_code":"US","cc2":"","admin1_code":"VA","admin2_code":"059","admin3_code":"","admin4_code":"","population":"6518","elevation":"37","dem":"44","timezone":"America/New_York","modification_date":"2011-05-14"},{"geonameid":"4746526","name":"Bellwood","asciiname":"Bellwood","alternatenames":[""],"latitude":"37.42181","longitude":"-77.43748","feature_class":"P","feature_code":"PPL","country_code":"US","cc2":"","admin1_code":"VA","admin2_code":"041","admin3_code":"","admin4_code":"","population":"6352","elevation":"29","dem":"32","timezone":"America/New_York","modification_date":"2011-05-14"},{"geonameid":"4746535","name":"Belmont","asciiname":"Belmont","alternatenames":[""],"latitude":"39.06483","longitude":"-77.50999","feature_class":"P","feature_code":"PPL","country_code":"US","cc2":"","admin1_code":"VA","admin2_code":"107","admin3_code":"","admin4_code":"","population":"5966","elevation":"90","dem":"91","timezone":"America/New_York","modification_date":"2011-05-14"},{"geonameid":"4746664","name":"Bensley","asciiname":"Bensley","alternatenames":[""],"latitude":"37.44681","longitude":"-77.44332","feature_class":"P","feature_code":"PPL","country_code":"US","cc2":"","admin1_code":"VA","admin2_code":"041","admin3_code":"","admin4_code":"","population":"5819","elevation":"17","dem":"20","timezone":"America/New_York","modification_date":"2011-05-14"},{"geonameid":"4747554","name":"Big Stone Gap","asciiname":"Big Stone Gap","alternatenames":[""],"latitude":"36.88176","longitude":"-82.7471","feature_class":"P","feature_code":"PPL","country_code":"US","cc2":"","admin1_code":"VA","admin2_code":"195","admin3_code":"","admin4_code":"","population":"5614","elevation":"468","dem":"469","timezone":"America/New_York","modification_date":"2014-10-08"},{"geonameid":"4747845","name":"Blacksburg","asciiname":"Blacksburg","alternatenames":["BCB","Blaecesburg","Blehksberg","Blehksburg","Bleksburg","Blæcesburg","beullaegseubeogeu","blaksbrgh  fyrjynya","blksbrg  wyrjynya","burakkusubagu","hei bao","Блексбург","Блэксберг","Блэксбург","بلاكسبرغ، فيرجينيا","بلکسبرگ، ویرجینیا","ブラックスバーグ","黑堡","블랙스버그"],"latitude":"37.22957","longitude":"-80.41394","feature_class":"P","feature_code":"PPL","country_code":"US","cc2":"","admin1_code":"VA","admin2_code":"121","admin3_code":"","admin4_code":"","population":"42620","elevation":"633","dem":"631","timezone":"America/New_York","modification_date":"2011-05-14"},{"geonameid":"4748125","name":"Bluefield","asciiname":"Bluefield","alternatenames":[""],"latitude":"37.25262","longitude":"-81.27121","feature_class":"P","feature_code":"PPL","country_code":"US","cc2":"","admin1_code":"VA","admin2_code":"185","admin3_code":"","admin4_code":"","population":"5444","elevation":"722","dem":"723","timezone":"America/New_York","modification_date":"2011-05-14"},{"geonameid":"4748305","name":"Bon Air","asciiname":"Bon Air","alternatenames":[""],"latitude":"37.52487","longitude":"-77.55777","feature_class":"P","feature_code":"PPL","country_code":"US","cc2":"","admin1_code":"VA","admin2_code":"041","admin3_code":"","admin4_code":"","population":"16366","elevation":"98","dem":"101","timezone":"America/New_York","modification_date":"2011-05-14"},{"geonameid":"4748703","name":"Brambleton","asciiname":"Brambleton","alternatenames":[""],"latitude":"38.98205","longitude":"-77.5386","feature_class":"P","feature_code":"PPL","country_code":"US","cc2":"","admin1_code":"VA","admin2_code":"107","admin3_code":"","admin4_code":"","population":"9845","elevation":"115","dem":"111","timezone":"America/New_York","modification_date":"2011-05-14"},{"geonameid":"4748726","name":"Brandermill","asciiname":"Brandermill","alternatenames":[""],"latitude":"37.43209","longitude":"-77.64971","feature_class":"P","feature_code":"PPL","country_code":"US","cc2":"","admin1_code":"VA","admin2_code":"041","admin3_code":"","admin4_code":"","population":"13173","elevation":"76","dem":"74","timezone":"America/New_York","modification_date":"2011-05-14"},{"geonameid":"4748925","name":"Bridgewater","asciiname":"Bridgewater","alternatenames":["Bridzhuoter","Бриджуотер"],"latitude":"38.38207","longitude":"-78.9767","feature_class":"P","feature_code":"PPL","country_code":"US","cc2":"","admin1_code":"VA","admin2_code":"165","admin3_code":"","admin4_code":"","population":"5644","elevation":"359","dem":"360","timezone":"America/New_York","modification_date":"2011-05-14"},{"geonameid":"4748993","name":"Bristol","asciiname":"Bristol","alternatenames":["Bristol","brystwl  wyrjynya","bu li si tuo er","burisutoru","Бристол","بریستول، ویرجینیا","ブリストル","布里斯托爾"],"latitude":"36.59649","longitude":"-82.18847","feature_class":"P","feature_code":"PPLA2","country_code":"US","cc2":"","admin1_code":"VA","admin2_code":"520","admin3_code":"","admin4_code":"","population":"17835","elevation":"512","dem":"513","timezone":"America/New_York","modification_date":"2012-04-28"},{"geonameid":"4749103","name":"Broadlands","asciiname":"Broadlands","alternatenames":[""],"latitude":"39.01816","longitude":"-77.52027","feature_class":"P","feature_code":"PPL","country_code":"US","cc2":"","admin1_code":"VA","admin2_code":"107","admin3_code":"","admin4_code":"","population":"12313","elevation":"111","dem":"111","timezone":"America/New_York","modification_date":"2011-05-14"},{"geonameid":"4749627","name":"Buckhall","asciiname":"Buckhall","alternatenames":[""],"latitude":"38.73178","longitude":"-77.4311","feature_class":"P","feature_code":"PPL","country_code":"US","cc2":"","admin1_code":"VA","admin2_code":"153","admin3_code":"","admin4_code":"","population":"16293","elevation":"95","dem":"96","timezone":"America/New_York","modification_date":"2011-05-14"},{"geonameid":"4749715","name":"Buena Vista","asciiname":"Buena Vista","alternatenames":["Bjuna Vista","bu you na wei si ta","buenabisuta","bwynawysta  wyrjynya","Бјуна Виста","بوئناویستا، ویرجینیا","ブエナビスタ","布尤納維斯塔"],"latitude":"37.7343","longitude":"-79.35392","feature_class":"P","feature_code":"PPLA2","country_code":"US","cc2":"","admin1_code":"VA","admin2_code":"530","admin3_code":"","admin4_code":"","population":"6650","elevation":"255","dem":"253","timezone":"America/New_York","modification_date":"2012-04-28"},{"geonameid":"4749854","name":"Bull Run","asciiname":"Bull Run","alternatenames":[""],"latitude":"38.78373","longitude":"-77.52055","feature_class":"P","feature_code":"PPL","country_code":"US","cc2":"","admin1_code":"VA","admin2_code":"153","admin3_code":"","admin4_code":"","population":"14983","elevation":"87","dem":"92","timezone":"America/New_York","modification_date":"2011-05-14"},{"geonameid":"4749950","name":"Burke","asciiname":"Burke","alternatenames":["Berk","Берк"],"latitude":"38.79345","longitude":"-77.27165","feature_class":"P","feature_code":"PPL","country_code":"US","cc2":"","admin1_code":"VA","admin2_code":"059","admin3_code":"","admin4_code":"","population":"41055","elevation":"78","dem":"78","timezone":"America/New_York","modification_date":"2011-05-14"},{"geonameid":"4751421","name":"Cave Spring","asciiname":"Cave Spring","alternatenames":[""],"latitude":"37.22764","longitude":"-80.01282","feature_class":"P","feature_code":"PPL","country_code":"US","cc2":"","admin1_code":"VA","admin2_code":"161","admin3_code":"","admin4_code":"","population":"24922","elevation":"335","dem":"338","timezone":"America/New_York","modification_date":"2011-05-14"},{"geonameid":"4751839","name":"Centreville","asciiname":"Centreville","alternatenames":["Centreville"],"latitude":"38.84039","longitude":"-77.42888","feature_class":"P","feature_code":"PPL","country_code":"US","cc2":"","admin1_code":"VA","admin2_code":"059","admin3_code":"","admin4_code":"","population":"71135","elevation":"108","dem":"110","timezone":"America/New_York","modification_date":"2011-05-14"},{"geonameid":"4751886","name":"Chamberlayne","asciiname":"Chamberlayne","alternatenames":[""],"latitude":"37.62653","longitude":"-77.42859","feature_class":"P","feature_code":"PPL","country_code":"US","cc2":"","admin1_code":"VA","admin2_code":"087","admin3_code":"","admin4_code":"","population":"5456","elevation":"50","dem":"61","timezone":"America/New_York","modification_date":"2011-05-14"},{"geonameid":"4751935","name":"Chantilly","asciiname":"Chantilly","alternatenames":["Shantili","Шантили"],"latitude":"38.89428","longitude":"-77.4311","feature_class":"P","feature_code":"PPL","country_code":"US","cc2":"","admin1_code":"VA","admin2_code":"059","admin3_code":"","admin4_code":"","population":"23039","elevation":"98","dem":"100","timezone":"America/New_York","modification_date":"2011-05-14"},{"geonameid":"4752031","name":"Charlottesville","asciiname":"Charlottesville","alternatenames":["CHO","Charlottesville","Sharlotsvil","Sharlotsvill","Sharlottsvill'","sharlwtsfyl  fyrjynya","sharlwtzwyl  wyrjynya","sharottsubiru","srlwtswwyl","syalleocheubil","xia lu di zhen","Шарлотсвил","Шарлотсвилл","Шарлоттсвилль","שרלוטסוויל","شارلوتزویل، ویرجینیا","شارلوتسفيل، فيرجينيا","シャーロッツビル","夏律第鎮","샬러츠빌"],"latitude":"38.02931","longitude":"-78.47668","feature_class":"P","feature_code":"PPLA2","country_code":"US","cc2":"","admin1_code":"VA","admin2_code":"540","admin3_code":"","admin4_code":"","population":"43475","elevation":"142","dem":"141","timezone":"America/New_York","modification_date":"2012-04-28"},{"geonameid":"4752136","name":"Cherry Hill","asciiname":"Cherry Hill","alternatenames":[""],"latitude":"38.56984","longitude":"-77.26693","feature_class":"P","feature_code":"PPL","country_code":"US","cc2":"","admin1_code":"VA","admin2_code":"153","admin3_code":"","admin4_code":"","population":"16000","elevation":"12","dem":"18","timezone":"America/New_York","modification_date":"2011-05-14"},{"geonameid":"4752186","name":"Chesapeake","asciiname":"Chesapeake","alternatenames":["Chesapeake","Chesapik","Чесапик"],"latitude":"36.81904","longitude":"-76.27494","feature_class":"P","feature_code":"PPLA2","country_code":"US","cc2":"","admin1_code":"VA","admin2_code":"550","admin3_code":"","admin4_code":"","population":"222209","elevation":"3","dem":"9","timezone":"America/New_York","modification_date":"2012-04-28"},{"geonameid":"4752229","name":"Chester","asciiname":"Chester","alternatenames":["Chester","Честер"],"latitude":"37.35682","longitude":"-77.44165","feature_class":"P","feature_code":"PPL","country_code":"US","cc2":"","admin1_code":"VA","admin2_code":"041","admin3_code":"","admin4_code":"","population":"20987","elevation":"53","dem":"55","timezone":"America/New_York","modification_date":"2011-05-14"},{"geonameid":"4752665","name":"Christiansburg","asciiname":"Christiansburg","alternatenames":["Krishchansburg","kurisuchanzubagu","Кришчансбург","クリスチャンズバーグ"],"latitude":"37.12985","longitude":"-80.40894","feature_class":"P","feature_code":"PPLA2","country_code":"US","cc2":"","admin1_code":"VA","admin2_code":"121","admin3_code":"","admin4_code":"","population":"21041","elevation":"638","dem":"637","timezone":"America/New_York","modification_date":"2011-05-14"},{"geonameid":"4753635","name":"Collinsville","asciiname":"Collinsville","alternatenames":["Kollinsvil'","Коллинсвиль"],"latitude":"36.71514","longitude":"-79.91532","feature_class":"P","feature_code":"PPL","country_code":"US","cc2":"","admin1_code":"VA","admin2_code":"089","admin3_code":"","admin4_code":"","population":"7335","elevation":"250","dem":"246","timezone":"America/New_York","modification_date":"2011-05-14"},{"geonameid":"4753671","name":"Colonial Heights","asciiname":"Colonial Heights","alternatenames":["Kolonijal Khajts","ke luo ni er hai ci","koroniaruhaitsu","kwlwnyal haytz  wyrjynya","Колонијал Хајтс","کولونیال هایتز، ویرجینیا","コロニアルハイツ","科洛尼爾海茨"],"latitude":"37.26804","longitude":"-77.40726","feature_class":"P","feature_code":"PPLA2","country_code":"US","cc2":"","admin1_code":"VA","admin2_code":"570","admin3_code":"","admin4_code":"","population":"17411","elevation":"29","dem":"19","timezone":"America/New_York","modification_date":"2012-04-28"},{"geonameid":"4754219","name":"Countryside","asciiname":"Countryside","alternatenames":[""],"latitude":"39.04094","longitude":"-77.4136","feature_class":"P","feature_code":"PPL","country_code":"US","cc2":"","admin1_code":"VA","admin2_code":"107","admin3_code":"","admin4_code":"","population":"10072","elevation":"91","dem":"91","timezone":"America/New_York","modification_date":"2011-05-14"},{"geonameid":"4754358","name":"Covington","asciiname":"Covington","alternatenames":["Kavington","ka wen dun","kawyngtwn  wyrjynya","keobingteon","kobinton","Кавингтон","کاوینگتون، ویرجینیا","コビントン","卡溫頓","커빙턴"],"latitude":"37.79346","longitude":"-79.99395","feature_class":"P","feature_code":"PPLA2","country_code":"US","cc2":"","admin1_code":"VA","admin2_code":"580","admin3_code":"","admin4_code":"","population":"5961","elevation":"381","dem":"379","timezone":"America/New_York","modification_date":"2012-04-28"},{"geonameid":"4754901","name":"Crozet","asciiname":"Crozet","alternatenames":[""],"latitude":"38.06958","longitude":"-78.70058","feature_class":"P","feature_code":"PPL","country_code":"US","cc2":"","admin1_code":"VA","admin2_code":"003","admin3_code":"","admin4_code":"","population":"5565","elevation":"219","dem":"217","timezone":"America/New_York","modification_date":"2011-05-14"},{"geonameid":"4754966","name":"Culpeper","asciiname":"Culpeper","alternatenames":["Kalpeper","kalapepara","karupepa","ku er pei po","Калпепер","कलपेपर","カルペパー","库尔佩珀"],"latitude":"38.47318","longitude":"-77.99666","feature_class":"P","feature_code":"PPLA2","country_code":"US","cc2":"","admin1_code":"VA","admin2_code":"047","admin3_code":"","admin4_code":"","population":"16379","elevation":"126","dem":"128","timezone":"America/New_York","modification_date":"2011-05-14"},{"geonameid":"4755158","name":"Dale City","asciiname":"Dale City","alternatenames":["Dale City"],"latitude":"38.63706","longitude":"-77.31109","feature_class":"P","feature_code":"PPL","country_code":"US","cc2":"","admin1_code":"VA","admin2_code":"153","admin3_code":"","admin4_code":"","population":"65969","elevation":"70","dem":"71","timezone":"America/New_York","modification_date":"2011-05-14"},{"geonameid":"4755280","name":"Danville","asciiname":"Danville","alternatenames":["DAN","Danvil","daenbil","dan wei er","danbiru","dnwyl  wyrjynya","Данвил","دنویل، ویرجینیا","ダンビル","丹維爾","댄빌"],"latitude":"36.58597","longitude":"-79.39502","feature_class":"P","feature_code":"PPLA2","country_code":"US","cc2":"","admin1_code":"VA","admin2_code":"590","admin3_code":"","admin4_code":"","population":"43055","elevation":"162","dem":"157","timezone":"America/New_York","modification_date":"2012-04-28"},{"geonameid":"4756348","name":"Dranesville","asciiname":"Dranesville","alternatenames":[""],"latitude":"39.00067","longitude":"-77.34582","feature_class":"P","feature_code":"PPL","country_code":"US","cc2":"","admin1_code":"VA","admin2_code":"059","admin3_code":"","admin4_code":"","population":"11921","elevation":"129","dem":"132","timezone":"America/New_York","modification_date":"2011-05-14"},{"geonameid":"4756653","name":"Dumbarton","asciiname":"Dumbarton","alternatenames":[""],"latitude":"37.60376","longitude":"-77.49137","feature_class":"P","feature_code":"PPL","country_code":"US","cc2":"","admin1_code":"VA","admin2_code":"087","admin3_code":"","admin4_code":"","population":"7879","elevation":"61","dem":"66","timezone":"America/New_York","modification_date":"2011-05-14"},{"geonameid":"4756736","name":"Dunn Loring","asciiname":"Dunn Loring","alternatenames":[""],"latitude":"38.89344","longitude":"-77.22165","feature_class":"P","feature_code":"PPL","country_code":"US","cc2":"","admin1_code":"VA","admin2_code":"059","admin3_code":"","admin4_code":"","population":"8803","elevation":"133","dem":"138","timezone":"America/New_York","modification_date":"2011-05-14"},{"geonameid":"4756955","name":"East Hampton","asciiname":"East Hampton","alternatenames":[""],"latitude":"37.03737","longitude":"-76.33161","feature_class":"P","feature_code":"PPL","country_code":"US","cc2":"","admin1_code":"VA","admin2_code":"650","admin3_code":"","admin4_code":"","population":"147993","elevation":"1","dem":"7","timezone":"America/New_York","modification_date":"2006-01-17"},{"geonameid":"4756972","name":"East Highland Park","asciiname":"East Highland Park","alternatenames":[""],"latitude":"37.58098","longitude":"-77.40693","feature_class":"P","feature_code":"PPL","country_code":"US","cc2":"","admin1_code":"VA","admin2_code":"087","admin3_code":"","admin4_code":"","population":"14796","elevation":"61","dem":"62","timezone":"America/New_York","modification_date":"2011-05-14"},{"geonameid":"4757673","name":"Emporia","asciiname":"Emporia","alternatenames":["Emporija","ampwrya  wyrjynya","empolia","en bo li ya","enporia","Емпорија","امپوریا، ویرجینیا","エンポリア","恩波里亞","엠포리아"],"latitude":"36.68598","longitude":"-77.54248","feature_class":"P","feature_code":"PPLA2","country_code":"US","cc2":"","admin1_code":"VA","admin2_code":"595","admin3_code":"","admin4_code":"","population":"5927","elevation":"34","dem":"40","timezone":"America/New_York","modification_date":"2012-04-28"},{"geonameid":"4757863","name":"Ettrick","asciiname":"Ettrick","alternatenames":[""],"latitude":"37.24015","longitude":"-77.42998","feature_class":"P","feature_code":"PPL","country_code":"US","cc2":"","admin1_code":"VA","admin2_code":"041","admin3_code":"","admin4_code":"","population":"6682","elevation":"32","dem":"33","timezone":"America/New_York","modification_date":"2011-05-14"},{"geonameid":"4758023","name":"Fairfax","asciiname":"Fairfax","alternatenames":["Ferfaks","Feurfaks","feafakkusu","fei er fa ke si","frfks  wyrjynya","peeopaegseu","Ферфакс","Феърфакс","فرفکس، ویرجینیا","フェアファックス","費爾法克斯","페어팩스"],"latitude":"38.84622","longitude":"-77.30637","feature_class":"P","feature_code":"PPLA2","country_code":"US","cc2":"","admin1_code":"VA","admin2_code":"600","admin3_code":"","admin4_code":"","population":"22565","elevation":"131","dem":"135","timezone":"America/New_York","modification_date":"2012-04-28"},{"geonameid":"4758102","name":"Fairfax Station","asciiname":"Fairfax Station","alternatenames":[""],"latitude":"38.80095","longitude":"-77.32554","feature_class":"P","feature_code":"PPL","country_code":"US","cc2":"","admin1_code":"VA","admin2_code":"059","admin3_code":"","admin4_code":"","population":"12030","elevation":"122","dem":"121","timezone":"America/New_York","modification_date":"2011-05-14"},{"geonameid":"4758390","name":"Falls Church","asciiname":"Falls Church","alternatenames":["Fols Cherch","Fols-Cherch","falz chrch  wyrjynya","foruzuchachi","fu er si che qi","fwlz chrch","Фолс Черч","Фолс-Черч","فالز چرچ، ویرجینیا","فولز چرچ","フォールズチャーチ","福爾斯徹奇"],"latitude":"38.88233","longitude":"-77.17109","feature_class":"P","feature_code":"PPLA2","country_code":"US","cc2":"","admin1_code":"VA","admin2_code":"610","admin3_code":"","admin4_code":"","population":"12332","elevation":"100","dem":"104","timezone":"America/New_York","modification_date":"2012-04-28"},{"geonameid":"4758495","name":"Farmville","asciiname":"Farmville","alternatenames":["Farmvil","Фармвил"],"latitude":"37.3021","longitude":"-78.39194","feature_class":"P","feature_code":"PPLA2","country_code":"US","cc2":"","admin1_code":"VA","admin2_code":"147","admin3_code":"","admin4_code":"","population":"8216","elevation":"94","dem":"97","timezone":"America/New_York","modification_date":"2011-05-14"},{"geonameid":"4759120","name":"Fishersville","asciiname":"Fishersville","alternatenames":[""],"latitude":"38.09902","longitude":"-78.96919","feature_class":"P","feature_code":"PPL","country_code":"US","cc2":"","admin1_code":"VA","admin2_code":"015","admin3_code":"","admin4_code":"","population":"7462","elevation":"406","dem":"404","timezone":"America/New_York","modification_date":"2011-05-14"},{"geonameid":"4759430","name":"Floris","asciiname":"Floris","alternatenames":[""],"latitude":"38.93706","longitude":"-77.41277","feature_class":"P","feature_code":"PPL","country_code":"US","cc2":"","admin1_code":"VA","admin2_code":"059","admin3_code":"","admin4_code":"","population":"8375","elevation":"108","dem":"110","timezone":"America/New_York","modification_date":"2011-05-14"},{"geonameid":"4759556","name":"Forest","asciiname":"Forest","alternatenames":["Forist","Форист"],"latitude":"37.36375","longitude":"-79.28975","feature_class":"P","feature_code":"PPL","country_code":"US","cc2":"","admin1_code":"VA","admin2_code":"019","admin3_code":"","admin4_code":"","population":"9106","elevation":"269","dem":"265","timezone":"America/New_York","modification_date":"2011-05-14"},{"geonameid":"4759968","name":"Franconia","asciiname":"Franconia","alternatenames":["Franconia","Frankonija","ZFO","Франкония"],"latitude":"38.78206","longitude":"-77.14637","feature_class":"P","feature_code":"PPL","country_code":"US","cc2":"","admin1_code":"VA","admin2_code":"059","admin3_code":"","admin4_code":"","population":"18245","elevation":"76","dem":"79","timezone":"America/New_York","modification_date":"2013-08-17"},{"geonameid":"4759986","name":"Franklin","asciiname":"Franklin","alternatenames":["FKN","Franklin","Frenklin","franklyn  wyrjynya","fu lan ke lin","furankurin","peulaengkeullin","Франклин","Френклин","فرانکلین، ویرجینیا","フランクリン","富蘭克林","프랭클린"],"latitude":"36.67765","longitude":"-76.92246","feature_class":"P","feature_code":"PPLA2","country_code":"US","cc2":"","admin1_code":"VA","admin2_code":"620","admin3_code":"","admin4_code":"","population":"8582","elevation":"5","dem":"12","timezone":"America/New_York","modification_date":"2012-04-28"},{"geonameid":"4760059","name":"Fredericksburg","asciiname":"Fredericksburg","alternatenames":["Fredericksburg","Frederiksberg","Frederiksburg","frdrykzbrg  wyrjynya","fu lei de li ke si bao","furederikkusubagu","peuledeoligseubeogeu","Фредериксберг","Фредериксбург","فردریکزبرگ، ویرجینیا","ფრედერიკსბურგი","フレデリックスバーグ","弗雷德里克斯堡","프레더릭스버그"],"latitude":"38.30318","longitude":"-77.46054","feature_class":"P","feature_code":"PPLA2","country_code":"US","cc2":"","admin1_code":"VA","admin2_code":"630","admin3_code":"","admin4_code":"","population":"24286","elevation":"17","dem":"20","timezone":"America/New_York","modification_date":"2012-04-28"},{"geonameid":"4760232","name":"Front Royal","asciiname":"Front Royal","alternatenames":["FRR","Front Rojal","fu lan te luo ya er","Фронт Ројал","弗兰特罗亚尔"],"latitude":"38.91817","longitude":"-78.19444","feature_class":"P","feature_code":"PPLA2","country_code":"US","cc2":"","admin1_code":"VA","admin2_code":"187","admin3_code":"","admin4_code":"","population":"14440","elevation":"173","dem":"172","timezone":"America/New_York","modification_date":"2011-05-14"},{"geonameid":"4760363","name":"Gainesville","asciiname":"Gainesville","alternatenames":[""],"latitude":"38.79567","longitude":"-77.61388","feature_class":"P","feature_code":"PPL","country_code":"US","cc2":"","admin1_code":"VA","admin2_code":"153","admin3_code":"","admin4_code":"","population":"11481","elevation":"108","dem":"111","timezone":"America/New_York","modification_date":"2011-05-14"},{"geonameid":"4760376","name":"Galax","asciiname":"Galax","alternatenames":["Gejlaks","gai la ke si","galaks  wyrjynya","geirakusu","Гејлакс","گالاکس، ویرجینیا","ゲイラクス","蓋拉克斯"],"latitude":"36.66124","longitude":"-80.92397","feature_class":"P","feature_code":"PPLA2","country_code":"US","cc2":"","admin1_code":"VA","admin2_code":"640","admin3_code":"","admin4_code":"","population":"7042","elevation":"723","dem":"723","timezone":"America/New_York","modification_date":"2012-04-28"},{"geonameid":"4761054","name":"Glen Allen","asciiname":"Glen Allen","alternatenames":[""],"latitude":"37.66598","longitude":"-77.50637","feature_class":"P","feature_code":"PPL","country_code":"US","cc2":"","admin1_code":"VA","admin2_code":"087","admin3_code":"","admin4_code":"","population":"14774","elevation":"61","dem":"61","timezone":"America/New_York","modification_date":"2011-05-14"},{"geonameid":"4761171","name":"Gloucester Point","asciiname":"Gloucester Point","alternatenames":[""],"latitude":"37.25403","longitude":"-76.49689","feature_class":"P","feature_code":"PPL","country_code":"US","cc2":"","admin1_code":"VA","admin2_code":"073","admin3_code":"","admin4_code":"","population":"9402","elevation":"10","dem":"15","timezone":"America/New_York","modification_date":"2011-05-14"},{"geonameid":"4761951","name":"Great Falls","asciiname":"Great Falls","alternatenames":["Grejt Fols","Грејт Фолс"],"latitude":"38.99817","longitude":"-77.28832","feature_class":"P","feature_code":"PPL","country_code":"US","cc2":"","admin1_code":"VA","admin2_code":"059","admin3_code":"","admin4_code":"","population":"15427","elevation":"104","dem":"104","timezone":"America/New_York","modification_date":"2011-05-14"},{"geonameid":"4762155","name":"Greenbriar","asciiname":"Greenbriar","alternatenames":[""],"latitude":"38.87345","longitude":"-77.40082","feature_class":"P","feature_code":"PPL","country_code":"US","cc2":"","admin1_code":"VA","admin2_code":"059","admin3_code":"","admin4_code":"","population":"8166","elevation":"112","dem":"112","timezone":"America/New_York","modification_date":"2011-05-14"},{"geonameid":"4762493","name":"Groveton","asciiname":"Groveton","alternatenames":[""],"latitude":"38.76734","longitude":"-77.0847","feature_class":"P","feature_code":"PPL","country_code":"US","cc2":"","admin1_code":"VA","admin2_code":"059","admin3_code":"","admin4_code":"","population":"14598","elevation":"60","dem":"65","timezone":"America/New_York","modification_date":"2011-05-14"},{"geonameid":"4762894","name":"Hampton","asciiname":"Hampton","alternatenames":["Hampton","Hamptonas","Khamptun","Khehmpton","Khempton","PHF","han pu dun","hanputon","hmptwn  wyrjynya","Хамптън","Хемптон","Хэмптон","همپتون، ویرجینیا","ハンプトン","漢普頓"],"latitude":"37.02987","longitude":"-76.34522","feature_class":"P","feature_code":"PPLA2","country_code":"US","cc2":"","admin1_code":"VA","admin2_code":"650","admin3_code":"","admin4_code":"","population":"137436","elevation":"1","dem":"7","timezone":"America/New_York","modification_date":"2013-05-09"},{"geonameid":"4763231","name":"Harrisonburg","asciiname":"Harrisonburg","alternatenames":["Harisonburg","Kharisonburg","ha li sen bao","harisonbagu","hryswnbrg  wyrjynya","Харисонбург","هریسونبرگ، ویرجینیا","ハリソンバーグ","哈里森堡"],"latitude":"38.44957","longitude":"-78.86892","feature_class":"P","feature_code":"PPLA2","country_code":"US","cc2":"","admin1_code":"VA","admin2_code":"660","admin3_code":"","admin4_code":"","population":"48914","elevation":"404","dem":"406","timezone":"America/New_York","modification_date":"2012-04-28"},{"geonameid":"4763793","name":"Herndon","asciiname":"Herndon","alternatenames":["Kherndon","Херндон"],"latitude":"38.96955","longitude":"-77.3861","feature_class":"P","feature_code":"PPL","country_code":"US","cc2":"","admin1_code":"VA","admin2_code":"059","admin3_code":"","admin4_code":"","population":"23292","elevation":"110","dem":"111","timezone":"America/New_York","modification_date":"2011-05-14"},{"geonameid":"4764127","name":"Highland Springs","asciiname":"Highland Springs","alternatenames":[""],"latitude":"37.54598","longitude":"-77.32776","feature_class":"P","feature_code":"PPL","country_code":"US","cc2":"","admin1_code":"VA","admin2_code":"087","admin3_code":"","admin4_code":"","population":"15711","elevation":"52","dem":"52","timezone":"America/New_York","modification_date":"2011-05-14"},{"geonameid":"4764534","name":"Hollins","asciiname":"Hollins","alternatenames":[""],"latitude":"37.34125","longitude":"-79.9431","feature_class":"P","feature_code":"PPL","country_code":"US","cc2":"","admin1_code":"VA","admin2_code":"161","admin3_code":"","admin4_code":"","population":"14673","elevation":"339","dem":"340","timezone":"America/New_York","modification_date":"2011-05-14"},{"geonameid":"4764607","name":"Hollymead","asciiname":"Hollymead","alternatenames":[""],"latitude":"38.11708","longitude":"-78.44168","feature_class":"P","feature_code":"PPL","country_code":"US","cc2":"","admin1_code":"VA","admin2_code":"003","admin3_code":"","admin4_code":"","population":"7690","elevation":"152","dem":"151","timezone":"America/New_York","modification_date":"2011-05-14"},{"geonameid":"4764826","name":"Hopewell","asciiname":"Hopewell","alternatenames":["Khopuehlla","Khoupvel","hopuu~eru","huo pu wei er","Хопуэлла","Хоупвел","هوپ‌ول، ویرجینیا","ホープウェル","霍普維爾"],"latitude":"37.30432","longitude":"-77.2872","feature_class":"P","feature_code":"PPLA2","country_code":"US","cc2":"","admin1_code":"VA","admin2_code":"670","admin3_code":"","admin4_code":"","population":"22591","elevation":"15","dem":"16","timezone":"America/New_York","modification_date":"2012-04-28"},{"geonameid":"4765392","name":"Huntington","asciiname":"Huntington","alternatenames":["Khantington","Хантингтон"],"latitude":"38.79234","longitude":"-77.07081","feature_class":"P","feature_code":"PPL","country_code":"US","cc2":"","admin1_code":"VA","admin2_code":"059","admin3_code":"","admin4_code":"","population":"11267","elevation":"20","dem":"18","timezone":"America/New_York","modification_date":"2011-05-14"},{"geonameid":"4765520","name":"Hybla Valley","asciiname":"Hybla Valley","alternatenames":[""],"latitude":"38.74761","longitude":"-77.08303","feature_class":"P","feature_code":"PPL","country_code":"US","cc2":"","admin1_code":"VA","admin2_code":"059","admin3_code":"","admin4_code":"","population":"15801","elevation":"10","dem":"10","timezone":"America/New_York","modification_date":"2011-05-14"},{"geonameid":"4765553","name":"Idylwood","asciiname":"Idylwood","alternatenames":[""],"latitude":"38.89511","longitude":"-77.21165","feature_class":"P","feature_code":"PPL","country_code":"US","cc2":"","admin1_code":"VA","admin2_code":"059","admin3_code":"","admin4_code":"","population":"17288","elevation":"140","dem":"143","timezone":"America/New_York","modification_date":"2011-05-14"},{"geonameid":"4765594","name":"Independent Hill","asciiname":"Independent Hill","alternatenames":[""],"latitude":"38.63595","longitude":"-77.43776","feature_class":"P","feature_code":"PPL","country_code":"US","cc2":"","admin1_code":"VA","admin2_code":"153","admin3_code":"","admin4_code":"","population":"7419","elevation":"125","dem":"129","timezone":"America/New_York","modification_date":"2011-05-14"},{"geonameid":"4766586","name":"Jefferson","asciiname":"Jefferson","alternatenames":["Dzhefferson","Джефферсон"],"latitude":"38.86456","longitude":"-77.18776","feature_class":"P","feature_code":"PPL","country_code":"US","cc2":"","admin1_code":"VA","admin2_code":"059","admin3_code":"","admin4_code":"","population":"28487","elevation":"101","dem":"106","timezone":"America/New_York","modification_date":"2010-01-29"},{"geonameid":"4768185","name":"Lake Barcroft","asciiname":"Lake Barcroft","alternatenames":[""],"latitude":"38.84789","longitude":"-77.15581","feature_class":"P","feature_code":"PPL","country_code":"US","cc2":"","admin1_code":"VA","admin2_code":"059","admin3_code":"","admin4_code":"","population":"9558","elevation":"80","dem":"84","timezone":"America/New_York","modification_date":"2011-05-14"},{"geonameid":"4768313","name":"Lake Monticello","asciiname":"Lake Monticello","alternatenames":[""],"latitude":"37.9232","longitude":"-78.33473","feature_class":"P","feature_code":"PPL","country_code":"US","cc2":"","admin1_code":"VA","admin2_code":"065","admin3_code":"","admin4_code":"","population":"9920","elevation":"113","dem":"120","timezone":"America/New_York","modification_date":"2011-05-14"},{"geonameid":"4768351","name":"Lake Ridge","asciiname":"Lake Ridge","alternatenames":[""],"latitude":"38.68789","longitude":"-77.29776","feature_class":"P","feature_code":"PPL","country_code":"US","cc2":"","admin1_code":"VA","admin2_code":"153","admin3_code":"","admin4_code":"","population":"41058","elevation":"85","dem":"82","timezone":"America/New_York","modification_date":"2011-05-14"},{"geonameid":"4768423","name":"Lakeside","asciiname":"Lakeside","alternatenames":[""],"latitude":"37.60765","longitude":"-77.47693","feature_class":"P","feature_code":"PPL","country_code":"US","cc2":"","admin1_code":"VA","admin2_code":"087","admin3_code":"","admin4_code":"","population":"11849","elevation":"54","dem":"58","timezone":"America/New_York","modification_date":"2011-05-14"},{"geonameid":"4768678","name":"Laurel","asciiname":"Laurel","alternatenames":[""],"latitude":"37.64292","longitude":"-77.50887","feature_class":"P","feature_code":"PPL","country_code":"US","cc2":"","admin1_code":"VA","admin2_code":"087","admin3_code":"","admin4_code":"","population":"16713","elevation":"67","dem":"72","timezone":"America/New_York","modification_date":"2011-05-14"},{"geonameid":"4769125","name":"Leesburg","asciiname":"Leesburg","alternatenames":["Lizburg","Лизбург"],"latitude":"39.11566","longitude":"-77.5636","feature_class":"P","feature_code":"PPLA2","country_code":"US","cc2":"","admin1_code":"VA","admin2_code":"107","admin3_code":"","admin4_code":"","population":"42616","elevation":"104","dem":"103","timezone":"America/New_York","modification_date":"2011-05-14"},{"geonameid":"4769339","name":"Lexington","asciiname":"Lexington","alternatenames":["Leksington","legsingteon","lei xing dun","lksyngtwn  wyrjynya","rekishinton","Лексингтон","لکسینگتون، ویرجینیا","レキシントン","勒星頓","렉싱턴"],"latitude":"37.78402","longitude":"-79.44282","feature_class":"P","feature_code":"PPLA2","country_code":"US","cc2":"","admin1_code":"VA","admin2_code":"678","admin3_code":"","admin4_code":"","population":"7042","elevation":"324","dem":"322","timezone":"America/New_York","modification_date":"2012-04-28"},{"geonameid":"4769608","name":"Lincolnia","asciiname":"Lincolnia","alternatenames":[""],"latitude":"38.81845","longitude":"-77.14331","feature_class":"P","feature_code":"PPL","country_code":"US","cc2":"","admin1_code":"VA","admin2_code":"059","admin3_code":"","admin4_code":"","population":"22855","elevation":"75","dem":"74","timezone":"America/New_York","modification_date":"2011-05-14"},{"geonameid":"4769667","name":"Linton Hall","asciiname":"Linton Hall","alternatenames":[""],"latitude":"38.75984","longitude":"-77.57499","feature_class":"P","feature_code":"PPL","country_code":"US","cc2":"","admin1_code":"VA","admin2_code":"153","admin3_code":"","admin4_code":"","population":"35725","elevation":"75","dem":"80","timezone":"America/New_York","modification_date":"2011-05-14"},{"geonameid":"4770714","name":"Lorton","asciiname":"Lorton","alternatenames":[""],"latitude":"38.70428","longitude":"-77.22776","feature_class":"P","feature_code":"PPL","country_code":"US","cc2":"","admin1_code":"VA","admin2_code":"059","admin3_code":"","admin4_code":"","population":"18610","elevation":"43","dem":"47","timezone":"America/New_York","modification_date":"2011-05-14"},{"geonameid":"4770931","name":"Lowes Island","asciiname":"Lowes Island","alternatenames":[""],"latitude":"39.05983","longitude":"-77.35221","feature_class":"P","feature_code":"PPL","country_code":"US","cc2":"","admin1_code":"VA","admin2_code":"107","admin3_code":"","admin4_code":"","population":"10756","elevation":"57","dem":"54","timezone":"America/New_York","modification_date":"2011-05-14"},{"geonameid":"4771075","name":"Lynchburg","asciiname":"Lynchburg","alternatenames":["LYH","Linchburg","Lynchburg","lin qi bao","linchibeogeu","lynchbrg  wyrjynya","lynshbrgh","rinchibagu","Линчбург","Линчбърг","لينشبرغ","لینچبرگ، ویرجینیا","リンチバーグ","林奇堡","린치버그"],"latitude":"37.41375","longitude":"-79.14225","feature_class":"P","feature_code":"PPLA2","country_code":"US","cc2":"","admin1_code":"VA","admin2_code":"680","admin3_code":"","admin4_code":"","population":"75568","elevation":"192","dem":"199","timezone":"America/New_York","modification_date":"2012-04-28"},{"geonameid":"4771247","name":"Madison Heights","asciiname":"Madison Heights","alternatenames":[""],"latitude":"37.43098","longitude":"-79.12308","feature_class":"P","feature_code":"PPL","country_code":"US","cc2":"","admin1_code":"VA","admin2_code":"009","admin3_code":"","admin4_code":"","population":"11285","elevation":"233","dem":"230","timezone":"America/New_York","modification_date":"2011-05-14"},{"geonameid":"4771401","name":"Manassas","asciiname":"Manassas","alternatenames":["MNZ","Manasas","Manassas","ma na sa si","manasasu","mnass  wyrjynya","Манасас","Манассас","مناسس، ویرجینیا","マナサス","馬納薩斯"],"latitude":"38.75095","longitude":"-77.47527","feature_class":"P","feature_code":"PPLA2","country_code":"US","cc2":"","admin1_code":"VA","admin2_code":"683","admin3_code":"","admin4_code":"","population":"37821","elevation":"93","dem":"94","timezone":"America/New_York","modification_date":"2013-10-06"},{"geonameid":"4771414","name":"Manassas Park","asciiname":"Manassas Park","alternatenames":[""],"latitude":"38.784","longitude":"-77.46971","feature_class":"P","feature_code":"PPLA2","country_code":"US","cc2":"","admin1_code":"VA","admin2_code":"685","admin3_code":"","admin4_code":"","population":"14273","elevation":"62","dem":"62","timezone":"America/New_York","modification_date":"2012-04-28"},{"geonameid":"4771494","name":"Mantua","asciiname":"Mantua","alternatenames":[""],"latitude":"38.85372","longitude":"-77.25943","feature_class":"P","feature_code":"PPL","country_code":"US","cc2":"","admin1_code":"VA","admin2_code":"059","admin3_code":"","admin4_code":"","population":"7135","elevation":"113","dem":"120","timezone":"America/New_York","modification_date":"2011-05-14"},{"geonameid":"4771643","name":"Marion","asciiname":"Marion","alternatenames":["Marion","Mehrion","Марион","Мэрион"],"latitude":"36.83484","longitude":"-81.51484","feature_class":"P","feature_code":"PPLA2","country_code":"US","cc2":"","admin1_code":"VA","admin2_code":"173","admin3_code":"","admin4_code":"","population":"5968","elevation":"662","dem":"661","timezone":"America/New_York","modification_date":"2011-05-14"},{"geonameid":"4771808","name":"Martinsville","asciiname":"Martinsville","alternatenames":["Martinsvil","ma ding si wei er","martynzwyl  wyrjynya","matinzubiru","Мартинсвил","مارتینزویل، ویرجینیا","マーティンズビル","馬丁斯維爾"],"latitude":"36.69153","longitude":"-79.87254","feature_class":"P","feature_code":"PPLA2","country_code":"US","cc2":"","admin1_code":"VA","admin2_code":"690","admin3_code":"","admin4_code":"","population":"13821","elevation":"310","dem":"309","timezone":"America/New_York","modification_date":"2012-04-28"},{"geonameid":"4772354","name":"McLean","asciiname":"McLean","alternatenames":["Maklejn","Maklin","Маклејн","Маклин"],"latitude":"38.93428","longitude":"-77.17748","feature_class":"P","feature_code":"PPL","country_code":"US","cc2":"","admin1_code":"VA","admin2_code":"059","admin3_code":"","admin4_code":"","population":"48115","elevation":"87","dem":"91","timezone":"America/New_York","modification_date":"2011-05-14"},{"geonameid":"4772566","name":"Mechanicsville","asciiname":"Mechanicsville","alternatenames":["Mekaniksvil","Меканиксвил"],"latitude":"37.60876","longitude":"-77.37331","feature_class":"P","feature_code":"PPL","country_code":"US","cc2":"","admin1_code":"VA","admin2_code":"085","admin3_code":"","admin4_code":"","population":"36348","elevation":"51","dem":"50","timezone":"America/New_York","modification_date":"2011-05-14"},{"geonameid":"4772735","name":"Merrifield","asciiname":"Merrifield","alternatenames":[""],"latitude":"38.87428","longitude":"-77.22693","feature_class":"P","feature_code":"PPL","country_code":"US","cc2":"","admin1_code":"VA","admin2_code":"059","admin3_code":"","admin4_code":"","population":"15212","elevation":"110","dem":"109","timezone":"America/New_York","modification_date":"2011-05-14"},{"geonameid":"4773677","name":"Montclair","asciiname":"Montclair","alternatenames":[""],"latitude":"38.61095","longitude":"-77.33971","feature_class":"P","feature_code":"PPL","country_code":"US","cc2":"","admin1_code":"VA","admin2_code":"153","admin3_code":"","admin4_code":"","population":"19570","elevation":"38","dem":"45","timezone":"America/New_York","modification_date":"2011-05-14"},{"geonameid":"4773747","name":"Montrose","asciiname":"Montrose","alternatenames":[""],"latitude":"37.5207","longitude":"-77.37831","feature_class":"P","feature_code":"PPL","country_code":"US","cc2":"","admin1_code":"VA","admin2_code":"087","admin3_code":"","admin4_code":"","population":"7993","elevation":"49","dem":"45","timezone":"America/New_York","modification_date":"2011-05-14"},{"geonameid":"4775660","name":"New Baltimore","asciiname":"New Baltimore","alternatenames":[""],"latitude":"38.76734","longitude":"-77.72833","feature_class":"P","feature_code":"PPL","country_code":"US","cc2":"","admin1_code":"VA","admin2_code":"061","admin3_code":"","admin4_code":"","population":"8119","elevation":"151","dem":"152","timezone":"America/New_York","modification_date":"2011-05-14"},{"geonameid":"4775981","name":"Newington","asciiname":"Newington","alternatenames":[""],"latitude":"38.73845","longitude":"-77.18498","feature_class":"P","feature_code":"PPL","country_code":"US","cc2":"","admin1_code":"VA","admin2_code":"059","admin3_code":"","admin4_code":"","population":"12943","elevation":"35","dem":"32","timezone":"America/New_York","modification_date":"2011-05-14"},{"geonameid":"4776024","name":"Newport News","asciiname":"Newport News","alternatenames":["N'juport-N'jus","Ньюпорт-Ньюс"],"latitude":"36.97876","longitude":"-76.428","feature_class":"P","feature_code":"PPLA2","country_code":"US","cc2":"","admin1_code":"VA","admin2_code":"700","admin3_code":"","admin4_code":"","population":"180719","elevation":"6","dem":"7","timezone":"America/New_York","modification_date":"2014-01-23"},{"geonameid":"4776222","name":"Norfolk","asciiname":"Norfolk","alternatenames":["Gorad Norfalk","Norfok","Norfolk","Norfolkas","Norfolko","ORF","nofoku","nopeog","nuo fu ke","nwrfwk  wyrjynya","nwrfwlk  fyrjynya","nwrpwq","Горад Норфалк","Норфок","Норфолк","נורפוק","نورفولك، فيرجينيا","نورفوک، ویرجینیا","ნორფოლკი","ノーフォーク","諾福克","노퍽"],"latitude":"36.84681","longitude":"-76.28522","feature_class":"P","feature_code":"PPLA2","country_code":"US","cc2":"","admin1_code":"VA","admin2_code":"710","admin3_code":"","admin4_code":"","population":"242803","elevation":"2","dem":"15","timezone":"America/New_York","modification_date":"2012-04-28"},{"geonameid":"4776472","name":"North Springfield","asciiname":"North Springfield","alternatenames":[""],"latitude":"38.80428","longitude":"-77.2047","feature_class":"P","feature_code":"PPL","country_code":"US","cc2":"","admin1_code":"VA","admin2_code":"059","admin3_code":"","admin4_code":"","population":"7274","elevation":"92","dem":"96","timezone":"America/New_York","modification_date":"2011-05-14"},{"geonameid":"4776970","name":"Oakton","asciiname":"Oakton","alternatenames":[""],"latitude":"38.88095","longitude":"-77.30082","feature_class":"P","feature_code":"PPL","country_code":"US","cc2":"","admin1_code":"VA","admin2_code":"059","admin3_code":"","admin4_code":"","population":"34166","elevation":"127","dem":"128","timezone":"America/New_York","modification_date":"2011-05-14"},{"geonameid":"4778626","name":"Petersburg","asciiname":"Petersburg","alternatenames":["PTB","Peterburg","Pitersberg","Pitersburg","bi de si bao","pitazubagu","piteoseubeogeu","pytrzbwrg  wyrjynya","Петербург","Питерсберг","Питерсбург","پیترزبورگ، ویرجینیا","ピーターズバーグ","彼得斯堡","피터스버그"],"latitude":"37.22793","longitude":"-77.40193","feature_class":"P","feature_code":"PPLA2","country_code":"US","cc2":"","admin1_code":"VA","admin2_code":"730","admin3_code":"","admin4_code":"","population":"32420","elevation":"22","dem":"22","timezone":"America/New_York","modification_date":"2012-04-28"},{"geonameid":"4778945","name":"Pimmit Hills","asciiname":"Pimmit Hills","alternatenames":[""],"latitude":"38.91289","longitude":"-77.20081","feature_class":"P","feature_code":"PPL","country_code":"US","cc2":"","admin1_code":"VA","admin2_code":"059","admin3_code":"","admin4_code":"","population":"6094","elevation":"110","dem":"113","timezone":"America/New_York","modification_date":"2011-05-14"},{"geonameid":"4779923","name":"Poquoson","asciiname":"Poquoson","alternatenames":["Pokoson","pakwsn  wyrjynya","pokoson","pu ku sen shi","Покосон","پاکوسن، ویرجینیا","ポコソン","普庫森市"],"latitude":"37.12237","longitude":"-76.34578","feature_class":"P","feature_code":"PPLA2","country_code":"US","cc2":"","admin1_code":"VA","admin2_code":"735","admin3_code":"","admin4_code":"","population":"12150","elevation":"1","dem":"3","timezone":"America/New_York","modification_date":"2012-04-28"},{"geonameid":"4779999","name":"Portsmouth","asciiname":"Portsmouth","alternatenames":["Portsmouth","Portsmut","pocheumeoseu","potsumasu","pu ci mao si","pwrtsmwt","pwrtsmwth  wyrjynya","Портсмут","פורטסמות","پورتسموث، ویرجینیا","ポーツマス","朴次茅斯","포츠머스"],"latitude":"36.83543","longitude":"-76.29827","feature_class":"P","feature_code":"PPLA2","country_code":"US","cc2":"","admin1_code":"VA","admin2_code":"740","admin3_code":"","admin4_code":"","population":"95535","elevation":"3","dem":"6","timezone":"America/New_York","modification_date":"2012-04-28"},{"geonameid":"4780011","name":"Portsmouth Heights","asciiname":"Portsmouth Heights","alternatenames":[""],"latitude":"36.82098","longitude":"-76.36883","feature_class":"P","feature_code":"PPL","country_code":"US","cc2":"","admin1_code":"VA","admin2_code":"740","admin3_code":"","admin4_code":"","population":"99049","elevation":"3","dem":"7","timezone":"America/New_York","modification_date":"2006-01-17"},{"geonameid":"4780087","name":"Potomac Mills","asciiname":"Potomac Mills","alternatenames":[""],"latitude":"38.64595","longitude":"-77.29415","feature_class":"P","feature_code":"PPL","country_code":"US","cc2":"","admin1_code":"VA","admin2_code":"153","admin3_code":"","admin4_code":"","population":"5614","elevation":"64","dem":"61","timezone":"America/New_York","modification_date":"2011-05-14"},{"geonameid":"4780577","name":"Pulaski","asciiname":"Pulaski","alternatenames":[""],"latitude":"37.0479","longitude":"-80.77979","feature_class":"P","feature_code":"PPLA2","country_code":"US","cc2":"","admin1_code":"VA","admin2_code":"155","admin3_code":"","admin4_code":"","population":"9086","elevation":"580","dem":"582","timezone":"America/New_York","modification_date":"2011-05-14"},{"geonameid":"4780641","name":"Purcellville","asciiname":"Purcellville","alternatenames":["Perselvil","Purcelli Villa","Перселвил"],"latitude":"39.13677","longitude":"-77.71472","feature_class":"P","feature_code":"PPL","country_code":"US","cc2":"","admin1_code":"VA","admin2_code":"107","admin3_code":"","admin4_code":"","population":"7727","elevation":"170","dem":"172","timezone":"America/New_York","modification_date":"2011-05-14"},{"geonameid":"4780837","name":"Radford","asciiname":"Radford","alternatenames":["Radford","la de fu","radofodo","rdfwrd  wyrjynya","Радфорд","ردفورد، ویرجینیا","ラドフォード","拉德福"],"latitude":"37.13179","longitude":"-80.57645","feature_class":"P","feature_code":"PPLA2","country_code":"US","cc2":"","admin1_code":"VA","admin2_code":"750","admin3_code":"","admin4_code":"","population":"16408","elevation":"567","dem":"570","timezone":"America/New_York","modification_date":"2012-04-28"},{"geonameid":"4781530","name":"Reston","asciiname":"Reston","alternatenames":["Reston","resuton","Рестон","レストン"],"latitude":"38.96872","longitude":"-77.3411","feature_class":"P","feature_code":"PPL","country_code":"US","cc2":"","admin1_code":"VA","admin2_code":"059","admin3_code":"","admin4_code":"","population":"58404","elevation":"100","dem":"102","timezone":"America/New_York","modification_date":"2011-05-14"},{"geonameid":"4781708","name":"Richmond","asciiname":"Richmond","alternatenames":["Gorad Rychmand","RIC","Richmond","Richmund","Ricmonda","Ricmondas","Ricmondia","Ricmonds","Ritsmont","Ričmonda","Ričmondas","Ričmonds","li shi man","lichimeondeu","ricamanda","ricmant","ritchimondo","rychmwnd  wyrjynya","rytshmwnd","ryzmwnd","Ρίτσμοντ","Горад Рычманд","Ричмонд","Ричмънд","Ռիչմոնդ","ריצמונד","رجمونڈ","ريتشموند","ریچموند، ویرجینیا","रिचमंड","ரிச்மண்ட்","リッチモンド","里士满","리치먼드"],"latitude":"37.55376","longitude":"-77.46026","feature_class":"P","feature_code":"PPLA","country_code":"US","cc2":"","admin1_code":"VA","admin2_code":"760","admin3_code":"","admin4_code":"","population":"204214","elevation":"64","dem":"68","timezone":"America/New_York","modification_date":"2015-01-15"},{"geonameid":"4781711","name":"Richlands","asciiname":"Richlands","alternatenames":[""],"latitude":"37.09317","longitude":"-81.79373","feature_class":"P","feature_code":"PPL","country_code":"US","cc2":"","admin1_code":"VA","admin2_code":"185","admin3_code":"","admin4_code":"","population":"5823","elevation":"589","dem":"588","timezone":"America/New_York","modification_date":"2011-05-14"},{"geonameid":"4782167","name":"Roanoke","asciiname":"Roanoke","alternatenames":["ROA","Roanok","Rowrenoc","Rōwrenoc","luo a nuo ke","ro'anoka","roanoku","rwnwk  wyrjynya","Роанок","رونوک، ویرجینیا","रोआनोक","ロアノーク","羅阿諾克"],"latitude":"37.27097","longitude":"-79.94143","feature_class":"P","feature_code":"PPLA2","country_code":"US","cc2":"","admin1_code":"VA","admin2_code":"770","admin3_code":"","admin4_code":"","population":"97032","elevation":"285","dem":"296","timezone":"America/New_York","modification_date":"2012-04-28"},{"geonameid":"4782864","name":"Rose Hill","asciiname":"Rose Hill","alternatenames":[""],"latitude":"38.78872","longitude":"-77.11276","feature_class":"P","feature_code":"PPL","country_code":"US","cc2":"","admin1_code":"VA","admin2_code":"059","admin3_code":"","admin4_code":"","population":"20226","elevation":"72","dem":"70","timezone":"America/New_York","modification_date":"2011-05-14"},{"geonameid":"4784112","name":"Salem","asciiname":"Salem","alternatenames":["Salem","Sejlem","sai lei mu","seiramu","slym  wyrjynya","Салем","Сејлем","سلیم، ویرجینیا","セイラム","塞勒姆"],"latitude":"37.29347","longitude":"-80.05476","feature_class":"P","feature_code":"PPLA2","country_code":"US","cc2":"","admin1_code":"VA","admin2_code":"775","admin3_code":"","admin4_code":"","population":"24802","elevation":"325","dem":"326","timezone":"America/New_York","modification_date":"2012-04-28"},{"geonameid":"4784352","name":"Sandston","asciiname":"Sandston","alternatenames":[""],"latitude":"37.52348","longitude":"-77.31581","feature_class":"P","feature_code":"PPL","country_code":"US","cc2":"","admin1_code":"VA","admin2_code":"087","admin3_code":"","admin4_code":"","population":"7571","elevation":"51","dem":"51","timezone":"America/New_York","modification_date":"2011-05-14"},{"geonameid":"4784902","name":"Seven Corners","asciiname":"Seven Corners","alternatenames":[""],"latitude":"38.87206","longitude":"-77.15526","feature_class":"P","feature_code":"PPL","country_code":"US","cc2":"","admin1_code":"VA","admin2_code":"059","admin3_code":"","admin4_code":"","population":"9255","elevation":"117","dem":"119","timezone":"America/New_York","modification_date":"2011-05-14"},{"geonameid":"4785576","name":"Short Pump","asciiname":"Short Pump","alternatenames":[""],"latitude":"37.65042","longitude":"-77.61249","feature_class":"P","feature_code":"PPL","country_code":"US","cc2":"","admin1_code":"VA","admin2_code":"087","admin3_code":"","admin4_code":"","population":"24729","elevation":"89","dem":"88","timezone":"America/New_York","modification_date":"2011-05-14"},{"geonameid":"4786274","name":"Smithfield","asciiname":"Smithfield","alternatenames":["Smitfild","Smitfildas","Смитфилд"],"latitude":"36.98237","longitude":"-76.63107","feature_class":"P","feature_code":"PPL","country_code":"US","cc2":"","admin1_code":"VA","admin2_code":"093","admin3_code":"","admin4_code":"","population":"8089","elevation":"9","dem":"10","timezone":"America/New_York","modification_date":"2011-05-14"},{"geonameid":"4786522","name":"South Boston","asciiname":"South Boston","alternatenames":["Juzhnaja Boston","Saut Boston","Саут Бостон","Южная Бостон"],"latitude":"36.69875","longitude":"-78.9014","feature_class":"P","feature_code":"PPL","country_code":"US","cc2":"","admin1_code":"VA","admin2_code":"083","admin3_code":"","admin4_code":"","population":"8142","elevation":"131","dem":"122","timezone":"America/New_York","modification_date":"2011-05-14"},{"geonameid":"4786667","name":"South Riding","asciiname":"South Riding","alternatenames":[""],"latitude":"38.92094","longitude":"-77.50388","feature_class":"P","feature_code":"PPL","country_code":"US","cc2":"","admin1_code":"VA","admin2_code":"107","admin3_code":"","admin4_code":"","population":"24256","elevation":"98","dem":"101","timezone":"America/New_York","modification_date":"2011-05-14"},{"geonameid":"4786714","name":"South Suffolk","asciiname":"South Suffolk","alternatenames":[""],"latitude":"36.71709","longitude":"-76.59023","feature_class":"P","feature_code":"PPL","country_code":"US","cc2":"","admin1_code":"VA","admin2_code":"800","admin3_code":"","admin4_code":"","population":"80690","elevation":"16","dem":"22","timezone":"America/New_York","modification_date":"2006-01-17"},{"geonameid":"4787117","name":"Springfield","asciiname":"Springfield","alternatenames":["Springfild","Спрингфилд"],"latitude":"38.78928","longitude":"-77.1872","feature_class":"P","feature_code":"PPL","country_code":"US","cc2":"","admin1_code":"VA","admin2_code":"059","admin3_code":"","admin4_code":"","population":"30484","elevation":"75","dem":"77","timezone":"America/New_York","modification_date":"2011-05-14"},{"geonameid":"4787440","name":"Staunton","asciiname":"Staunton","alternatenames":["Stanton","Stonton","astntwn  wyrjynya","si tang dun","sutanton","Стантон","Стонтон","استنتون، ویرجینیا","スタントン","斯湯頓"],"latitude":"38.14991","longitude":"-79.0732","feature_class":"P","feature_code":"PPLA2","country_code":"US","cc2":"","admin1_code":"VA","admin2_code":"790","admin3_code":"","admin4_code":"","population":"23746","elevation":"432","dem":"434","timezone":"America/New_York","modification_date":"2015-06-08"},{"geonameid":"4787534","name":"Sterling","asciiname":"Sterling","alternatenames":["Sterling","Sturling","Стерлинг","Стърлинг"],"latitude":"39.00622","longitude":"-77.4286","feature_class":"P","feature_code":"PPL","country_code":"US","cc2":"","admin1_code":"VA","admin2_code":"107","admin3_code":"","admin4_code":"","population":"27822","elevation":"89","dem":"90","timezone":"America/New_York","modification_date":"2011-05-14"},{"geonameid":"4787974","name":"Strasburg","asciiname":"Strasburg","alternatenames":["Strazburg","Стразбург"],"latitude":"38.98872","longitude":"-78.35862","feature_class":"P","feature_code":"PPL","country_code":"US","cc2":"","admin1_code":"VA","admin2_code":"171","admin3_code":"","admin4_code":"","population":"6398","elevation":"174","dem":"174","timezone":"America/New_York","modification_date":"2011-05-14"},{"geonameid":"4788070","name":"Stuarts Draft","asciiname":"Stuarts Draft","alternatenames":[""],"latitude":"38.03014","longitude":"-79.03364","feature_class":"P","feature_code":"PPL","country_code":"US","cc2":"","admin1_code":"VA","admin2_code":"015","admin3_code":"","admin4_code":"","population":"9235","elevation":"433","dem":"433","timezone":"America/New_York","modification_date":"2011-05-14"},{"geonameid":"4788145","name":"Sudley","asciiname":"Sudley","alternatenames":[""],"latitude":"38.79289","longitude":"-77.49749","feature_class":"P","feature_code":"PPL","country_code":"US","cc2":"","admin1_code":"VA","admin2_code":"153","admin3_code":"","admin4_code":"","population":"16203","elevation":"64","dem":"65","timezone":"America/New_York","modification_date":"2011-05-14"},{"geonameid":"4788158","name":"Suffolk","asciiname":"Suffolk","alternatenames":["Saffolk","Safok","Suffolk","sa fu ke","safk  wyrjynya","safoku","seopeog","Сафок","Саффолк","سافک، ویرجینیا","サフォーク","薩福克","서퍽"],"latitude":"36.72836","longitude":"-76.58496","feature_class":"P","feature_code":"PPLA2","country_code":"US","cc2":"","admin1_code":"VA","admin2_code":"800","admin3_code":"","admin4_code":"","population":"84585","elevation":"15","dem":"22","timezone":"America/New_York","modification_date":"2015-03-19"},{"geonameid":"4788216","name":"Sugarland Run","asciiname":"Sugarland Run","alternatenames":[""],"latitude":"39.03761","longitude":"-77.37526","feature_class":"P","feature_code":"PPL","country_code":"US","cc2":"","admin1_code":"VA","admin2_code":"107","admin3_code":"","admin4_code":"","population":"11799","elevation":"88","dem":"83","timezone":"America/New_York","modification_date":"2011-05-14"},{"geonameid":"4789648","name":"Timberlake","asciiname":"Timberlake","alternatenames":[""],"latitude":"37.3207","longitude":"-79.25753","feature_class":"P","feature_code":"PPL","country_code":"US","cc2":"","admin1_code":"VA","admin2_code":"031","admin3_code":"","admin4_code":"","population":"12183","elevation":"279","dem":"282","timezone":"America/New_York","modification_date":"2011-05-14"},{"geonameid":"4790025","name":"Triangle","asciiname":"Triangle","alternatenames":[""],"latitude":"38.54679","longitude":"-77.33665","feature_class":"P","feature_code":"PPL","country_code":"US","cc2":"","admin1_code":"VA","admin2_code":"153","admin3_code":"","admin4_code":"","population":"8188","elevation":"30","dem":"34","timezone":"America/New_York","modification_date":"2011-05-14"},{"geonameid":"4790207","name":"Tuckahoe","asciiname":"Tuckahoe","alternatenames":[""],"latitude":"37.59015","longitude":"-77.55638","feature_class":"P","feature_code":"PPL","country_code":"US","cc2":"","admin1_code":"VA","admin2_code":"087","admin3_code":"","admin4_code":"","population":"44990","elevation":"67","dem":"80","timezone":"America/New_York","modification_date":"2011-05-14"},{"geonameid":"4790534","name":"Tysons Corner","asciiname":"Tysons Corner","alternatenames":["Tajsons Korner","Тајсонс Корнер"],"latitude":"38.91872","longitude":"-77.23109","feature_class":"P","feature_code":"PPL","country_code":"US","cc2":"","admin1_code":"VA","admin2_code":"059","admin3_code":"","admin4_code":"","population":"19627","elevation":"148","dem":"144","timezone":"America/New_York","modification_date":"2011-05-14"},{"geonameid":"4791160","name":"Vienna","asciiname":"Vienna","alternatenames":["Vijena","vu~ina","Вијена","ヴィーナ"],"latitude":"38.90122","longitude":"-77.26526","feature_class":"P","feature_code":"PPL","country_code":"US","cc2":"","admin1_code":"VA","admin2_code":"059","admin3_code":"","admin4_code":"","population":"15687","elevation":"109","dem":"111","timezone":"America/New_York","modification_date":"2011-05-14"},{"geonameid":"4791237","name":"Vinton","asciiname":"Vinton","alternatenames":[""],"latitude":"37.28097","longitude":"-79.89698","feature_class":"P","feature_code":"PPL","country_code":"US","cc2":"","admin1_code":"VA","admin2_code":"161","admin3_code":"","admin4_code":"","population":"8098","elevation":"282","dem":"280","timezone":"America/New_York","modification_date":"2011-05-14"},{"geonameid":"4791259","name":"Virginia Beach","asciiname":"Virginia Beach","alternatenames":["Gorad Virdzhynija-Bich","Litus Virginiae","Verdzhinija-Bich","Vijini Beach","Virciniya Bic","Virciniya Biç","Virdzhini-Bich","Virdzhinija Bijch","Virdzhinija-Bich","Virdzinija Bich","Virdzinija Bycas","Virdzinijabica","Virdžinija Byčas","Virdžīnijabīča","Virginia Beach","Virtzinia Bits","bajiniabichi","beojiniabichi","fyrjynya bytsh  fyrjynya","vharjiniya bica","virjinia-bichi","wei zhen ni ya hai tan","wexr ci neiy bich","wyrgynyh byz","wyrjynyabych","Βιρτζίνια Μπιτς","Верджиния-Бич","Вирджини-Бич","Вирджиния Бийч","Вирджиния-Бич","Вирџинија Бич","Вірджинія-Біч","Горад Вірджынія-Біч","Վիրջինիա Բիչ","וירגיניה ביץ","فيرجينيا بيتش، فيرجينيا","ویرجینیابیچ","व्हर्जिनिया बीच","เวอร์จิเนียบีช","ვირჯინია-ბიჩი","バージニアビーチ","維珍尼亞海灘","버지니아비치"],"latitude":"36.85293","longitude":"-75.97799","feature_class":"P","feature_code":"PPLA2","country_code":"US","cc2":"","admin1_code":"VA","admin2_code":"810","admin3_code":"","admin4_code":"","population":"437994","elevation":"3","dem":"4","timezone":"America/New_York","modification_date":"2014-10-27"},{"geonameid":"4792255","name":"Warrenton","asciiname":"Warrenton","alternatenames":["Vorenton","Ворентон"],"latitude":"38.71345","longitude":"-77.79527","feature_class":"P","feature_code":"PPLA2","country_code":"US","cc2":"","admin1_code":"VA","admin2_code":"061","admin3_code":"","admin4_code":"","population":"9611","elevation":"195","dem":"196","timezone":"America/New_York","modification_date":"2011-05-14"},{"geonameid":"4792522","name":"Waynesboro","asciiname":"Waynesboro","alternatenames":["Vejnsboro","u~einzuboro","wei en si bo lei","wynzbwrw  wyrjynya","Вејнсборо","وینزبورو، ویرجینیا","ウェインズボロ","韋恩斯伯勒"],"latitude":"38.06847","longitude":"-78.88947","feature_class":"P","feature_code":"PPLA2","country_code":"US","cc2":"","admin1_code":"VA","admin2_code":"820","admin3_code":"","admin4_code":"","population":"21006","elevation":"392","dem":"393","timezone":"America/New_York","modification_date":"2012-04-28"},{"geonameid":"4792829","name":"West Gate","asciiname":"West Gate","alternatenames":[""],"latitude":"38.78289","longitude":"-77.49749","feature_class":"P","feature_code":"PPL","country_code":"US","cc2":"","admin1_code":"VA","admin2_code":"153","admin3_code":"","admin4_code":"","population":"8046","elevation":"63","dem":"65","timezone":"America/New_York","modification_date":"2006-01-17"},{"geonameid":"4792867","name":"West Lynchburg","asciiname":"West Lynchburg","alternatenames":[""],"latitude":"37.4032","longitude":"-79.17808","feature_class":"P","feature_code":"PPL","country_code":"US","cc2":"","admin1_code":"VA","admin2_code":"680","admin3_code":"","admin4_code":"","population":"65517","elevation":"226","dem":"225","timezone":"America/New_York","modification_date":"2006-01-17"},{"geonameid":"4792901","name":"West Springfield","asciiname":"West Springfield","alternatenames":[""],"latitude":"38.77261","longitude":"-77.22109","feature_class":"P","feature_code":"PPL","country_code":"US","cc2":"","admin1_code":"VA","admin2_code":"059","admin3_code":"","admin4_code":"","population":"22460","elevation":"83","dem":"92","timezone":"America/New_York","modification_date":"2011-05-14"},{"geonameid":"4794120","name":"Winchester","asciiname":"Winchester","alternatenames":["Uinchestur","Vinchester","WGO","u~inchesuta","wen che si te","wincheseuteo","wynchstr  wyrjynya","Винчестер","Уинчестър","وینچستر، ویرجینیا","ウィンチェスター","溫徹斯特","윈체스터"],"latitude":"39.18566","longitude":"-78.16333","feature_class":"P","feature_code":"PPLA2","country_code":"US","cc2":"","admin1_code":"VA","admin2_code":"840","admin3_code":"","admin4_code":"","population":"26203","elevation":"216","dem":"217","timezone":"America/New_York","modification_date":"2012-04-28"},{"geonameid":"4794350","name":"Wolf Trap","asciiname":"Wolf Trap","alternatenames":[""],"latitude":"38.93983","longitude":"-77.28609","feature_class":"P","feature_code":"PPL","country_code":"US","cc2":"","admin1_code":"VA","admin2_code":"059","admin3_code":"","admin4_code":"","population":"16131","elevation":"86","dem":"89","timezone":"America/New_York","modification_date":"2011-05-14"},{"geonameid":"4794531","name":"Woodlawn","asciiname":"Woodlawn","alternatenames":[""],"latitude":"38.71678","longitude":"-77.13276","feature_class":"P","feature_code":"PPL","country_code":"US","cc2":"","admin1_code":"VA","admin2_code":"059","admin3_code":"","admin4_code":"","population":"20804","elevation":"8","dem":"11","timezone":"America/New_York","modification_date":"2011-05-14"},{"geonameid":"4794641","name":"Woodstock","asciiname":"Woodstock","alternatenames":["Vudstok","Вудсток"],"latitude":"38.88178","longitude":"-78.50584","feature_class":"P","feature_code":"PPLA2","country_code":"US","cc2":"","admin1_code":"VA","admin2_code":"171","admin3_code":"","admin4_code":"","population":"5097","elevation":"239","dem":"241","timezone":"America/New_York","modification_date":"2011-05-14"},{"geonameid":"4794814","name":"Wyndham","asciiname":"Wyndham","alternatenames":[""],"latitude":"37.69848","longitude":"-77.61249","feature_class":"P","feature_code":"PPL","country_code":"US","cc2":"","admin1_code":"VA","admin2_code":"087","admin3_code":"","admin4_code":"","population":"9785","elevation":"76","dem":"71","timezone":"America/New_York","modification_date":"2011-05-14"},{"geonameid":"4794837","name":"Wytheville","asciiname":"Wytheville","alternatenames":["Vidvil","wei si wei er","Видвил","威斯维尔"],"latitude":"36.94845","longitude":"-81.08481","feature_class":"P","feature_code":"PPLA2","country_code":"US","cc2":"","admin1_code":"VA","admin2_code":"197","admin3_code":"","admin4_code":"","population":"8211","elevation":"697","dem":"697","timezone":"America/New_York","modification_date":"2011-05-14"},{"geonameid":"4794966","name":"Yorkshire","asciiname":"Yorkshire","alternatenames":[""],"latitude":"38.79317","longitude":"-77.44777","feature_class":"P","feature_code":"PPL","country_code":"US","cc2":"","admin1_code":"VA","admin2_code":"153","admin3_code":"","admin4_code":"","population":"7541","elevation":"65","dem":"65","timezone":"America/New_York","modification_date":"2011-05-14"}]}