{"region_data":{"countryId":"1643084","adminCode1":"35","countryName":"Indonesia","fclName":"country, state, region,...","countryCode":"ID","lng":"106.66667","fcodeName":"first-order administrative division","toponymName":"Kepulauan Bangka Belitung","fcl":"A","numberOfChildren":7,"name":"Bangka–Belitung Islands","fcode":"ADM1","geonameId":1923047,"lat":"-2.66667","adminName1":"Bangka–Belitung Islands","population":1276873},"country_data":{"ISO":"ID","ISO3":"IDN","ISO_Numeric":"360","fips":"ID","country":"Indonesia","capital":"Jakarta","area":"1919440","Population":"242968342","Continent":"AS","tld":".id","CurrencyCode":"IDR","CurrencyName":"Rupiah","Phone":"62","Postal_Code_Format":"#####","Postal_Code_Regex":"^(\\d{5})$","Languages":"id,en,nl,jv","geonameid":"1643084","neighbours":"PG,TL,MY","EquivalentFipsCode":""},"cities":[{"geonameid":"1624877","name":"Tanjung Pandan","asciiname":"Tanjung Pandan","alternatenames":["Pandan","TJQ","Tandjoengpandan","Tandjong-pandan","Tandjungpandan","Tanjong Pandan","Tanjung Pandan","Tanjungpandan"],"latitude":"-2.73353","longitude":"107.63477","feature_class":"P","feature_code":"PPL","country_code":"ID","cc2":"","admin1_code":"35","admin2_code":"","admin3_code":"","admin4_code":"","population":"62374","elevation":"","dem":"8","timezone":"Asia/Jakarta","modification_date":"2013-09-01"},{"geonameid":"1625958","name":"Sungailiat","asciiname":"Sungailiat","alternatenames":["Soengailiat","Soengei Liat","Sungailiat"],"latitude":"-1.85442","longitude":"106.12215","feature_class":"P","feature_code":"PPLA2","country_code":"ID","cc2":"","admin1_code":"35","admin2_code":"","admin3_code":"","admin4_code":"","population":"74719","elevation":"","dem":"4","timezone":"Asia/Jakarta","modification_date":"2014-04-06"},{"geonameid":"1632654","name":"Pangkalpinang","asciiname":"Pangkalpinang","alternatenames":["Merawang","PGK","Pangkalpinang","Pankal Pinang"],"latitude":"-2.12914","longitude":"106.11377","feature_class":"P","feature_code":"PPLA","country_code":"ID","cc2":"","admin1_code":"35","admin2_code":"","admin3_code":"","admin4_code":"","population":"125933","elevation":"","dem":"10","timezone":"Asia/Jakarta","modification_date":"2013-05-09"},{"geonameid":"1634678","name":"Muntok","asciiname":"Muntok","alternatenames":["Mentok","Muntok"],"latitude":"-2.06719","longitude":"105.16228","feature_class":"P","feature_code":"PPLA2","country_code":"ID","cc2":"","admin1_code":"35","admin2_code":"","admin3_code":"","admin4_code":"","population":"26709","elevation":"","dem":"8","timezone":"Asia/Jakarta","modification_date":"2014-04-06"},{"geonameid":"1636426","name":"Manggar","asciiname":"Manggar","alternatenames":["Manggar"],"latitude":"-2.88333","longitude":"108.26667","feature_class":"P","feature_code":"PPLA3","country_code":"ID","cc2":"","admin1_code":"35","admin2_code":"","admin3_code":"","admin4_code":"","population":"34520","elevation":"","dem":"2","timezone":"Asia/Jakarta","modification_date":"2014-04-06"},{"geonameid":"1639840","name":"Koba","asciiname":"Koba","alternatenames":["Koba"],"latitude":"-2.49313","longitude":"106.4081","feature_class":"P","feature_code":"PPLA2","country_code":"ID","cc2":"","admin1_code":"35","admin2_code":"","admin3_code":"","admin4_code":"","population":"0","elevation":"","dem":"7","timezone":"Asia/Jakarta","modification_date":"2014-04-06"},{"geonameid":"1640289","name":"Kepoh","asciiname":"Kepoh","alternatenames":["Kepo","Kepo 2","Kepoh","Kĕpo 2"],"latitude":"-2.94454","longitude":"106.55743","feature_class":"P","feature_code":"PPLA3","country_code":"ID","cc2":"","admin1_code":"35","admin2_code":"","admin3_code":"","admin4_code":"","population":"0","elevation":"","dem":"10","timezone":"Asia/Jakarta","modification_date":"2014-03-05"},{"geonameid":"1640532","name":"Kelapa","asciiname":"Kelapa","alternatenames":["Kelapa"],"latitude":"-1.87757","longitude":"105.67661","feature_class":"P","feature_code":"PPLA3","country_code":"ID","cc2":"","admin1_code":"35","admin2_code":"","admin3_code":"","admin4_code":"","population":"0","elevation":"","dem":"36","timezone":"Asia/Jakarta","modification_date":"2014-04-06"},{"geonameid":"1642640","name":"Jebus","asciiname":"Jebus","alternatenames":["Djeboes","Djebus","Jebus"],"latitude":"-1.74302","longitude":"105.45527","feature_class":"P","feature_code":"PPLA3","country_code":"ID","cc2":"","admin1_code":"35","admin2_code":"","admin3_code":"","admin4_code":"","population":"0","elevation":"","dem":"15","timezone":"Asia/Jakarta","modification_date":"2014-04-06"},{"geonameid":"8741167","name":"Teritip","asciiname":"Teritip","alternatenames":["Teritip"],"latitude":"-1.83347","longitude":"105.36985","feature_class":"P","feature_code":"PPLA3","country_code":"ID","cc2":"","admin1_code":"35","admin2_code":"","admin3_code":"","admin4_code":"","population":"0","elevation":"","dem":"30","timezone":"Asia/Jakarta","modification_date":"2014-04-07"},{"geonameid":"8764300","name":"Mislak","asciiname":"Mislak","alternatenames":["Mislak"],"latitude":"-1.72806","longitude":"105.45325","feature_class":"P","feature_code":"PPLA4","country_code":"ID","cc2":"","admin1_code":"35","admin2_code":"","admin3_code":"","admin4_code":"","population":"0","elevation":"","dem":"27","timezone":"Asia/Jakarta","modification_date":"2014-04-08"}]}