{"region_data":{"countryId":"1643084","adminCode1":"05","countryName":"Indonesia","fclName":"country, state, region,...","countryCode":"ID","lng":"103","fcodeName":"first-order administrative division","toponymName":"Provinsi Jambi","fcl":"A","numberOfChildren":11,"name":"Provinsi Jambi","fcode":"ADM1","geonameId":1642856,"lat":"-1.5","adminName1":"Jambi","population":3249601},"country_data":{"ISO":"ID","ISO3":"IDN","ISO_Numeric":"360","fips":"ID","country":"Indonesia","capital":"Jakarta","area":"1919440","Population":"242968342","Continent":"AS","tld":".id","CurrencyCode":"IDR","CurrencyName":"Rupiah","Phone":"62","Postal_Code_Format":"#####","Postal_Code_Regex":"^(\\d{5})$","Languages":"id,en,nl,jv","geonameid":"1643084","neighbours":"PG,TL,MY","EquivalentFipsCode":""},"cities":[{"geonameid":"1625929","name":"Sungai Penuh","asciiname":"Sungai Penuh","alternatenames":["Soengaipenoeh","Sungai Penuh","Sungeipenu"],"latitude":"-2.0561","longitude":"101.3913","feature_class":"P","feature_code":"PPL","country_code":"ID","cc2":"","admin1_code":"05","admin2_code":"","admin3_code":"","admin4_code":"","population":"95913","elevation":"","dem":"811","timezone":"Asia/Jakarta","modification_date":"2013-02-08"},{"geonameid":"1626017","name":"Sungaibengkal","asciiname":"Sungaibengkal","alternatenames":["Soengaibengkal","Sungaibengkal","Sungaibengkali"],"latitude":"-1.536","longitude":"102.7211","feature_class":"P","feature_code":"PPLA4","country_code":"ID","cc2":"","admin1_code":"05","admin2_code":"","admin3_code":"","admin4_code":"","population":"0","elevation":"","dem":"33","timezone":"Asia/Jakarta","modification_date":"2013-11-08"},{"geonameid":"1626059","name":"Semurup","asciiname":"Semurup","alternatenames":["Semurup","Sumurup"],"latitude":"-1.9917","longitude":"101.369","feature_class":"P","feature_code":"PPLA3","country_code":"ID","cc2":"","admin1_code":"05","admin2_code":"","admin3_code":"","admin4_code":"","population":"0","elevation":"","dem":"808","timezone":"Asia/Jakarta","modification_date":"2013-02-08"},{"geonameid":"1627035","name":"Simpang","asciiname":"Simpang","alternatenames":["Simpang"],"latitude":"-1.26424","longitude":"104.09701","feature_class":"P","feature_code":"PPL","country_code":"ID","cc2":"","admin1_code":"05","admin2_code":"","admin3_code":"","admin4_code":"","population":"36652","elevation":"","dem":"5","timezone":"Asia/Jakarta","modification_date":"2014-04-06"},{"geonameid":"1627708","name":"Sengeti","asciiname":"Sengeti","alternatenames":["Sengeti","Sengiti","Singeti"],"latitude":"-1.4772","longitude":"103.50765","feature_class":"P","feature_code":"PPLA2","country_code":"ID","cc2":"","admin1_code":"05","admin2_code":"","admin3_code":"","admin4_code":"","population":"0","elevation":"","dem":"14","timezone":"Asia/Jakarta","modification_date":"2014-04-06"},{"geonameid":"1628144","name":"Sekernan","asciiname":"Sekernan","alternatenames":["Sekarnan","Sekernan"],"latitude":"-1.52342","longitude":"103.56752","feature_class":"P","feature_code":"PPLA3","country_code":"ID","cc2":"","admin1_code":"05","admin2_code":"","admin3_code":"","admin4_code":"","population":"0","elevation":"","dem":"18","timezone":"Asia/Jakarta","modification_date":"2014-04-06"},{"geonameid":"1628581","name":"Sarolangun","asciiname":"Sarolangun","alternatenames":["Sarolangoen","Sarolangun"],"latitude":"-2.3121","longitude":"102.7271","feature_class":"P","feature_code":"PPLA2","country_code":"ID","cc2":"","admin1_code":"05","admin2_code":"","admin3_code":"","admin4_code":"","population":"0","elevation":"","dem":"38","timezone":"Asia/Jakarta","modification_date":"2013-02-08"},{"geonameid":"1629992","name":"Rantaupangiang","asciiname":"Rantaupangiang","alternatenames":["Rantaupandjang","Rantaupangiang","Rantaupanjang"],"latitude":"-2.4962","longitude":"102.2505","feature_class":"P","feature_code":"PPLA3","country_code":"ID","cc2":"","admin1_code":"05","admin2_code":"","admin3_code":"","admin4_code":"","population":"0","elevation":"","dem":"194","timezone":"Asia/Jakarta","modification_date":"2013-02-08"},{"geonameid":"1629994","name":"Rantaupanjang","asciiname":"Rantaupanjang","alternatenames":["Rantaupandjang","Rantaupanjang"],"latitude":"-1.8446","longitude":"102.3081","feature_class":"P","feature_code":"PPLA3","country_code":"ID","cc2":"","admin1_code":"05","admin2_code":"","admin3_code":"","admin4_code":"","population":"0","elevation":"","dem":"70","timezone":"Asia/Jakarta","modification_date":"2013-11-08"},{"geonameid":"1631734","name":"Pelabuhan Dagang","asciiname":"Pelabuhan Dagang","alternatenames":["Palaboehandagang","Pelaboehandagang","Pelabuhan Dagang","Talaboehandagang"],"latitude":"-1.1463","longitude":"103.08494","feature_class":"P","feature_code":"PPLA3","country_code":"ID","cc2":"","admin1_code":"05","admin2_code":"","admin3_code":"","admin4_code":"","population":"0","elevation":"","dem":"12","timezone":"Asia/Jakarta","modification_date":"2013-11-08"},{"geonameid":"1631934","name":"Pauh","asciiname":"Pauh","alternatenames":["Paoeh","Pau","Pauh"],"latitude":"-2.1386","longitude":"102.8186","feature_class":"P","feature_code":"PPLA3","country_code":"ID","cc2":"","admin1_code":"05","admin2_code":"","admin3_code":"","admin4_code":"","population":"0","elevation":"","dem":"40","timezone":"Asia/Jakarta","modification_date":"2013-02-08"},{"geonameid":"1633936","name":"Nipah Panjang","asciiname":"Nipah Panjang","alternatenames":["Nipah Panjang","Nipahpandiang","Nipahpanjang"],"latitude":"-1.07518","longitude":"104.19438","feature_class":"P","feature_code":"PPLA3","country_code":"ID","cc2":"","admin1_code":"05","admin2_code":"","admin3_code":"","admin4_code":"","population":"0","elevation":"","dem":"7","timezone":"Asia/Jakarta","modification_date":"2014-04-06"},{"geonameid":"1634790","name":"Muara Tembesi","asciiname":"Muara Tembesi","alternatenames":["Moearatembesi","Muara Tembesi","Muaratemusi","Muarotembesi"],"latitude":"-1.7109","longitude":"103.1182","feature_class":"P","feature_code":"PPLA3","country_code":"ID","cc2":"","admin1_code":"05","admin2_code":"","admin3_code":"","admin4_code":"","population":"0","elevation":"","dem":"25","timezone":"Asia/Jakarta","modification_date":"2013-11-08"},{"geonameid":"1634792","name":"Muara Tebo","asciiname":"Muara Tebo","alternatenames":["Moearatebo","Muara Tebo","Muarotebo"],"latitude":"-1.476","longitude":"102.4435","feature_class":"P","feature_code":"PPLA3","country_code":"ID","cc2":"","admin1_code":"05","admin2_code":"","admin3_code":"","admin4_code":"","population":"0","elevation":"","dem":"46","timezone":"Asia/Jakarta","modification_date":"2013-11-08"},{"geonameid":"1634804","name":"Muarasiau","asciiname":"Muarasiau","alternatenames":["Moearasian","Moearasiau","Moearaslau","Muarasiau"],"latitude":"-2.273","longitude":"102.0998","feature_class":"P","feature_code":"PPLA3","country_code":"ID","cc2":"","admin1_code":"05","admin2_code":"","admin3_code":"","admin4_code":"","population":"0","elevation":"","dem":"224","timezone":"Asia/Jakarta","modification_date":"2013-02-08"},{"geonameid":"1634814","name":"Muara Sabak","asciiname":"Muara Sabak","alternatenames":["Moearasabak","Moenrasabak","Muara Sabak","Muarasabak"],"latitude":"-1.13612","longitude":"103.84987","feature_class":"P","feature_code":"PPLA2","country_code":"ID","cc2":"","admin1_code":"05","admin2_code":"","admin3_code":"","admin4_code":"","population":"0","elevation":"","dem":"0","timezone":"Asia/Jakarta","modification_date":"2014-04-06"},{"geonameid":"1634850","name":"Muaralimun","asciiname":"Muaralimun","alternatenames":["Muaralimun"],"latitude":"-2.3967","longitude":"102.6389","feature_class":"P","feature_code":"PPLA3","country_code":"ID","cc2":"","admin1_code":"05","admin2_code":"","admin3_code":"","admin4_code":"","population":"0","elevation":"","dem":"54","timezone":"Asia/Jakarta","modification_date":"2013-02-08"},{"geonameid":"1634904","name":"Muarabungo","asciiname":"Muarabungo","alternatenames":["Moearaboengo","Muarabungo"],"latitude":"-1.49018","longitude":"102.1149","feature_class":"P","feature_code":"PPLA2","country_code":"ID","cc2":"","admin1_code":"05","admin2_code":"","admin3_code":"","admin4_code":"","population":"0","elevation":"","dem":"53","timezone":"Asia/Jakarta","modification_date":"2013-11-08"},{"geonameid":"1634907","name":"Muara Bulian","asciiname":"Muara Bulian","alternatenames":["Moearaboelian","Muara Bulian"],"latitude":"-1.71327","longitude":"103.25902","feature_class":"P","feature_code":"PPLA3","country_code":"ID","cc2":"","admin1_code":"05","admin2_code":"","admin3_code":"","admin4_code":"","population":"0","elevation":"","dem":"19","timezone":"Asia/Jakarta","modification_date":"2013-11-08"},{"geonameid":"1635345","name":"Mersam","asciiname":"Mersam","alternatenames":["Mersam"],"latitude":"-1.69823","longitude":"102.9976","feature_class":"P","feature_code":"PPLA3","country_code":"ID","cc2":"","admin1_code":"05","admin2_code":"","admin3_code":"","admin4_code":"","population":"0","elevation":"","dem":"28","timezone":"Asia/Jakarta","modification_date":"2013-11-08"},{"geonameid":"1636507","name":"Mendaha","asciiname":"Mendaha","alternatenames":["Mandahara","Mendaha","Mendahara"],"latitude":"-1.0163","longitude":"103.59331","feature_class":"P","feature_code":"PPL","country_code":"ID","cc2":"","admin1_code":"05","admin2_code":"","admin3_code":"","admin4_code":"","population":"56268","elevation":"","dem":"5","timezone":"Asia/Jakarta","modification_date":"2014-04-06"},{"geonameid":"1639286","name":"Kualatungkal","asciiname":"Kualatungkal","alternatenames":["Koealatoengkal","Kuala Tungkal","Kualatungkal"],"latitude":"-0.81623","longitude":"103.46111","feature_class":"P","feature_code":"PPLA3","country_code":"ID","cc2":"","admin1_code":"05","admin2_code":"","admin3_code":"","admin4_code":"","population":"33683","elevation":"","dem":"6","timezone":"Asia/Jakarta","modification_date":"2013-07-04"},{"geonameid":"1642801","name":"Jangkat","asciiname":"Jangkat","alternatenames":["Djangkat","Jangkat"],"latitude":"-2.5072","longitude":"102.054","feature_class":"P","feature_code":"PPLA3","country_code":"ID","cc2":"","admin1_code":"05","admin2_code":"","admin3_code":"","admin4_code":"","population":"0","elevation":"","dem":"683","timezone":"Asia/Jakarta","modification_date":"2013-02-08"},{"geonameid":"1642858","name":"Jambi City","asciiname":"Jambi City","alternatenames":["DJB","Djambi","Dzhambi","Jambi","Jambi City","Sriindrapura","Telanaipura","jamby","Джамби","جامبي"],"latitude":"-1.6","longitude":"103.61667","feature_class":"P","feature_code":"PPLA","country_code":"ID","cc2":"","admin1_code":"05","admin2_code":"","admin3_code":"","admin4_code":"","population":"420323","elevation":"","dem":"21","timezone":"Asia/Jakarta","modification_date":"2014-05-29"},{"geonameid":"1649383","name":"Bejubang Dua","asciiname":"Bejubang Dua","alternatenames":["Badjoebang","Badjubang","Bedjoebang","Bedjubang","Bejubang","Bejubang 2","Bejubang Dua"],"latitude":"-1.7923","longitude":"103.3167","feature_class":"P","feature_code":"PPL","country_code":"ID","cc2":"","admin1_code":"05","admin2_code":"","admin3_code":"","admin4_code":"","population":"7957","elevation":"","dem":"65","timezone":"Asia/Jakarta","modification_date":"2013-11-08"},{"geonameid":"1650281","name":"Bangko","asciiname":"Bangko","alternatenames":["Bangko"],"latitude":"-2.0796","longitude":"102.2573","feature_class":"P","feature_code":"PPLA3","country_code":"ID","cc2":"","admin1_code":"05","admin2_code":"","admin3_code":"","admin4_code":"","population":"0","elevation":"","dem":"65","timezone":"Asia/Jakarta","modification_date":"2013-02-08"},{"geonameid":"8457821","name":"Rantauambacang","asciiname":"Rantauambacang","alternatenames":["Rantauambacang"],"latitude":"-1.3978","longitude":"101.9202","feature_class":"P","feature_code":"PPLA3","country_code":"ID","cc2":"","admin1_code":"05","admin2_code":"","admin3_code":"","admin4_code":"","population":"0","elevation":"","dem":"98","timezone":"Asia/Jakarta","modification_date":"2013-02-10"},{"geonameid":"8457881","name":"Siulakderasmudik","asciiname":"Siulakderasmudik","alternatenames":["Siulakderasmudik"],"latitude":"-1.9067","longitude":"101.2303","feature_class":"P","feature_code":"PPLA3","country_code":"ID","cc2":"","admin1_code":"05","admin2_code":"","admin3_code":"","admin4_code":"","population":"0","elevation":"","dem":"1160","timezone":"Asia/Jakarta","modification_date":"2013-02-10"},{"geonameid":"8640712","name":"Pulautemiang","asciiname":"Pulautemiang","alternatenames":["Pulautemiang"],"latitude":"-1.22495","longitude":"102.24228","feature_class":"P","feature_code":"PPLA3","country_code":"ID","cc2":"","admin1_code":"05","admin2_code":"","admin3_code":"","admin4_code":"","population":"0","elevation":"","dem":"47","timezone":"Asia/Jakarta","modification_date":"2013-11-14"},{"geonameid":"8776449","name":"Kenali Asam","asciiname":"Kenali Asam","alternatenames":["Kenali Asam"],"latitude":"-1.6646","longitude":"103.62041","feature_class":"P","feature_code":"PPLA4","country_code":"ID","cc2":"","admin1_code":"05","admin2_code":"","admin3_code":"","admin4_code":"","population":"0","elevation":"","dem":"45","timezone":"Asia/Jakarta","modification_date":"2014-04-08"}]}