{"region_data":{"countryId":"2233387","adminCode1":"05","countryName":"Cameroon","fclName":"country, state, region,...","countryCode":"CM","lng":"10.13333","fcodeName":"first-order administrative division","toponymName":"Littoral Region","fcl":"A","numberOfChildren":4,"name":"Littoral","fcode":"ADM1","geonameId":2229336,"lat":"4.26667","adminName1":"Littoral","population":2202340},"country_data":{"ISO":"CM","ISO3":"CMR","ISO_Numeric":"120","fips":"CM","country":"Cameroon","capital":"Yaounde","area":"475440","Population":"19294149","Continent":"AF","tld":".cm","CurrencyCode":"XAF","CurrencyName":"Franc","Phone":"237","Postal_Code_Format":"","Postal_Code_Regex":"","Languages":"en-CM,fr-CM","geonameid":"2233387","neighbours":"TD,CF,GA,GQ,CG,NG","EquivalentFipsCode":""},"cities":[{"geonameid":"2221046","name":"Yabassi","asciiname":"Yabassi","alternatenames":["Jabassi","Yabasi","Yabassi","Yabazi"],"latitude":"4.45697","longitude":"9.96822","feature_class":"P","feature_code":"PPL","country_code":"CM","cc2":"","admin1_code":"05","admin2_code":"","admin3_code":"","admin4_code":"","population":"7560","elevation":"","dem":"49","timezone":"Africa/Douala","modification_date":"2012-01-16"},{"geonameid":"2222623","name":"Penja","asciiname":"Penja","alternatenames":["Penja"],"latitude":"4.63911","longitude":"9.67987","feature_class":"P","feature_code":"PPL","country_code":"CM","cc2":"","admin1_code":"05","admin2_code":"","admin3_code":"","admin4_code":"","population":"28406","elevation":"","dem":"148","timezone":"Africa/Douala","modification_date":"2012-01-16"},{"geonameid":"2223763","name":"Nkongsamba","asciiname":"Nkongsamba","alternatenames":["NKS","Nkongsamba","Nkongsomba","Нконгсамба"],"latitude":"4.9547","longitude":"9.9404","feature_class":"P","feature_code":"PPL","country_code":"CM","cc2":"","admin1_code":"05","admin2_code":"","admin3_code":"","admin4_code":"","population":"117063","elevation":"","dem":"844","timezone":"Africa/Douala","modification_date":"2012-01-16"},{"geonameid":"2224863","name":"Ngambé","asciiname":"Ngambe","alternatenames":["Babimbi","Ngambe","Ngambé","Nganbe","Nganbé"],"latitude":"4.23343","longitude":"10.61532","feature_class":"P","feature_code":"PPL","country_code":"CM","cc2":"","admin1_code":"05","admin2_code":"2222269","admin3_code":"","admin4_code":"","population":"6414","elevation":"","dem":"575","timezone":"Africa/Douala","modification_date":"2015-02-28"},{"geonameid":"2225940","name":"Mouanko","asciiname":"Mouanko","alternatenames":["Mouangko","Mouanko","Muankoo"],"latitude":"3.63972","longitude":"9.77694","feature_class":"P","feature_code":"PPL","country_code":"CM","cc2":"","admin1_code":"05","admin2_code":"","admin3_code":"","admin4_code":"","population":"1604","elevation":"","dem":"13","timezone":"Africa/Douala","modification_date":"2012-01-16"},{"geonameid":"2227230","name":"Melong","asciiname":"Melong","alternatenames":["Melong"],"latitude":"5.12181","longitude":"9.96143","feature_class":"P","feature_code":"PPL","country_code":"CM","cc2":"","admin1_code":"05","admin2_code":"","admin3_code":"","admin4_code":"","population":"37086","elevation":"","dem":"792","timezone":"Africa/Douala","modification_date":"2014-04-05"},{"geonameid":"2228005","name":"Mbanga","asciiname":"Mbanga","alternatenames":["M'Bange","Mbanga","M’Bangé"],"latitude":"4.5016","longitude":"9.5671","feature_class":"P","feature_code":"PPL","country_code":"CM","cc2":"","admin1_code":"05","admin2_code":"","admin3_code":"","admin4_code":"","population":"42590","elevation":"","dem":"115","timezone":"Africa/Douala","modification_date":"2012-01-16"},{"geonameid":"2228499","name":"Manjo","asciiname":"Manjo","alternatenames":["Manjo"],"latitude":"4.8428","longitude":"9.8217","feature_class":"P","feature_code":"PPL","country_code":"CM","cc2":"","admin1_code":"05","admin2_code":"","admin3_code":"","admin4_code":"","population":"37661","elevation":"","dem":"526","timezone":"Africa/Douala","modification_date":"2012-01-16"},{"geonameid":"2229152","name":"Loum","asciiname":"Loum","alternatenames":["Loum","Lum","Лум"],"latitude":"4.7182","longitude":"9.7351","feature_class":"P","feature_code":"PPL","country_code":"CM","cc2":"","admin1_code":"05","admin2_code":"","admin3_code":"","admin4_code":"","population":"177429","elevation":"","dem":"235","timezone":"Africa/Douala","modification_date":"2012-01-16"},{"geonameid":"2232239","name":"Edéa","asciiname":"Edea","alternatenames":["Edea","Edéa","Ehdea","Édéa","Эдеа"],"latitude":"3.8","longitude":"10.13333","feature_class":"P","feature_code":"PPL","country_code":"CM","cc2":"","admin1_code":"05","admin2_code":"","admin3_code":"","admin4_code":"","population":"203149","elevation":"","dem":"27","timezone":"Africa/Douala","modification_date":"2012-01-16"},{"geonameid":"2232593","name":"Douala","asciiname":"Douala","alternatenames":["DLA","Douala","Doula","Duala","Dualao","Dóúala","Gorad Duala","Ntouala","dau'ala","do~uara","du a la","du xa la","dualla","dwala","Ντουάλα","Горад Дуала","Дуала","דואלה","دوالا","दौआला","ਦੌਆਲਾ","ดูอาลา","ドゥアラ","杜阿拉","두알라"],"latitude":"4.04827","longitude":"9.70428","feature_class":"P","feature_code":"PPLA","country_code":"CM","cc2":"","admin1_code":"05","admin2_code":"","admin3_code":"","admin4_code":"","population":"1338082","elevation":"","dem":"19","timezone":"Africa/Douala","modification_date":"2011-11-01"},{"geonameid":"2232997","name":"Dizangué","asciiname":"Dizangue","alternatenames":["Dizangue","Dizangué","Dizanque","Dizanqué"],"latitude":"3.76667","longitude":"9.98333","feature_class":"P","feature_code":"PPL","country_code":"CM","cc2":"","admin1_code":"05","admin2_code":"","admin3_code":"","admin4_code":"","population":"19243","elevation":"","dem":"61","timezone":"Africa/Douala","modification_date":"2012-01-16"},{"geonameid":"2233100","name":"Dibombari","asciiname":"Dibombari","alternatenames":["Dibombari"],"latitude":"4.1787","longitude":"9.6561","feature_class":"P","feature_code":"PPL","country_code":"CM","cc2":"","admin1_code":"05","admin2_code":"","admin3_code":"","admin4_code":"","population":"4811","elevation":"","dem":"57","timezone":"Africa/Douala","modification_date":"2012-01-16"},{"geonameid":"2233118","name":"Diang","asciiname":"Diang","alternatenames":[""],"latitude":"4.25","longitude":"10.01667","feature_class":"P","feature_code":"PPL","country_code":"CM","cc2":"","admin1_code":"05","admin2_code":"","admin3_code":"","admin4_code":"","population":"2062","elevation":"","dem":"56","timezone":"Africa/Douala","modification_date":"2011-03-06"},{"geonameid":"2233704","name":"Bonabéri","asciiname":"Bonaberi","alternatenames":["Bonaberi","Bonabéri","Boniberi","Bouaberi"],"latitude":"4.0779","longitude":"9.6759","feature_class":"P","feature_code":"PPL","country_code":"CM","cc2":"","admin1_code":"05","admin2_code":"","admin3_code":"","admin4_code":"","population":"8091","elevation":"","dem":"13","timezone":"Africa/Douala","modification_date":"2012-01-16"},{"geonameid":"2595172","name":"Ndom","asciiname":"Ndom","alternatenames":[""],"latitude":"4.4978","longitude":"9.5628","feature_class":"P","feature_code":"PPL","country_code":"CM","cc2":"","admin1_code":"05","admin2_code":"","admin3_code":"","admin4_code":"","population":"5498","elevation":"","dem":"123","timezone":"Africa/Douala","modification_date":"2006-01-17"}]}