{"region_data":{"countryId":"1835841","adminCode1":"13","countryName":"South Korea","fclName":"country, state, region,...","countryCode":"KR","lng":"127.25","fcodeName":"first-order administrative division","toponymName":"Gyeonggi-do","fcl":"A","numberOfChildren":51,"name":"Gyeonggi-do","fcode":"ADM1","geonameId":1841610,"lat":"37.6","adminName1":"Gyeonggi-do","population":12093000},"country_data":{"ISO":"KR","ISO3":"KOR","ISO_Numeric":"410","fips":"KS","country":"South Korea","capital":"Seoul","area":"98480","Population":"48422644","Continent":"AS","tld":".kr","CurrencyCode":"KRW","CurrencyName":"Won","Phone":"82","Postal_Code_Format":"SEOUL ###-###","Postal_Code_Regex":"^(?:SEOUL)*(\\d{6})$","Languages":"ko-KR,en","geonameid":"1835841","neighbours":"KP","EquivalentFipsCode":""},"cities":[{"geonameid":"1832743","name":"Yeoju","asciiname":"Yeoju","alternatenames":["Reishu","Reishū","Rishu","Rishū","Yeoju","Yoju","Yŏju","yeoju","여주"],"latitude":"37.29583","longitude":"127.63389","feature_class":"P","feature_code":"PPL","country_code":"KR","cc2":"","admin1_code":"13","admin2_code":"","admin3_code":"","admin4_code":"","population":"37490","elevation":"","dem":"50","timezone":"Asia/Seoul","modification_date":"2012-01-18"},{"geonameid":"1832830","name":"Yangp'yŏng","asciiname":"Yangp'yong","alternatenames":["Tohei","Yangp'yongumnae","Yangp'yŏngŭmnae","Yangpyeong","Yanp'yong","Yanp'yŏng","yangpyeong","yangpyeong-gun","양평","양평군"],"latitude":"37.48972","longitude":"127.49056","feature_class":"P","feature_code":"PPL","country_code":"KR","cc2":"","admin1_code":"13","admin2_code":"","admin3_code":"","admin4_code":"","population":"83367","elevation":"","dem":"38","timezone":"Asia/Seoul","modification_date":"2010-08-12"},{"geonameid":"1832847","name":"Yangju","asciiname":"Yangju","alternatenames":["Jandzhu","Yangju-gun","yang zhou shi","yangju","yangjusi","yangjw","Янджу","یانگجو","楊州市","양주","양주시"],"latitude":"37.83311","longitude":"127.06169","feature_class":"P","feature_code":"PPL","country_code":"KR","cc2":"","admin1_code":"13","admin2_code":"","admin3_code":"","admin4_code":"","population":"179923","elevation":"","dem":"76","timezone":"Asia/Seoul","modification_date":"2010-07-09"},{"geonameid":"1833788","name":"Uijeongbu-si","asciiname":"Uijeongbu-si","alternatenames":["Uijeongbu","Uijeongbu-si","uijeongbu","uijeongbusi","의정부","의정부시"],"latitude":"37.7415","longitude":"127.0474","feature_class":"P","feature_code":"PPL","country_code":"KR","cc2":"","admin1_code":"13","admin2_code":"","admin3_code":"","admin4_code":"","population":"479141","elevation":"","dem":"50","timezone":"Asia/Seoul","modification_date":"2014-01-19"},{"geonameid":"1835553","name":"Suwon-si","asciiname":"Suwon-si","alternatenames":["Suwon","Suwon-si","shui yuan shi","suwon","suwonsi","水原市","수원","수원시"],"latitude":"37.29111","longitude":"127.00889","feature_class":"P","feature_code":"PPLA","country_code":"KR","cc2":"","admin1_code":"13","admin2_code":"","admin3_code":"","admin4_code":"","population":"1242724","elevation":"","dem":"58","timezone":"Asia/Seoul","modification_date":"2014-01-06"},{"geonameid":"1838716","name":"Bucheon-si","asciiname":"Bucheon-si","alternatenames":["Bucheon","Bucheon-si","bucheon","bucheonsi","부천","부천시"],"latitude":"37.49889","longitude":"126.78306","feature_class":"P","feature_code":"PPL","country_code":"KR","cc2":"","admin1_code":"13","admin2_code":"","admin3_code":"","admin4_code":"","population":"850731","elevation":"","dem":"14","timezone":"Asia/Seoul","modification_date":"2014-01-19"},{"geonameid":"1839652","name":"Osan","asciiname":"Osan","alternatenames":["Osan","Osan-ni","Usan-ri","osan","오산"],"latitude":"37.15222","longitude":"127.07056","feature_class":"P","feature_code":"PPL","country_code":"KR","cc2":"","admin1_code":"13","admin2_code":"","admin3_code":"","admin4_code":"","population":"158978","elevation":"","dem":"22","timezone":"Asia/Seoul","modification_date":"2012-01-18"},{"geonameid":"1840862","name":"Munsan","asciiname":"Munsan","alternatenames":["Munsan","Munsan-ni","Мунсан"],"latitude":"37.85944","longitude":"126.785","feature_class":"P","feature_code":"PPL","country_code":"KR","cc2":"","admin1_code":"13","admin2_code":"","admin3_code":"","admin4_code":"","population":"43208","elevation":"","dem":"21","timezone":"Asia/Seoul","modification_date":"2012-01-18"},{"geonameid":"1841810","name":"Gwangju","asciiname":"Gwangju","alternatenames":["Gwangju","Kwangju","gwangju","광주"],"latitude":"37.41","longitude":"127.25722","feature_class":"P","feature_code":"PPL","country_code":"KR","cc2":"","admin1_code":"13","admin2_code":"","admin3_code":"","admin4_code":"","population":"81780","elevation":"","dem":"48","timezone":"Asia/Seoul","modification_date":"2015-07-03"},{"geonameid":"1841988","name":"Guri-si","asciiname":"Guri-si","alternatenames":["Guri","Guri-si","guli","gulisi","구리","구리시"],"latitude":"37.5986","longitude":"127.1394","feature_class":"P","feature_code":"PPL","country_code":"KR","cc2":"","admin1_code":"13","admin2_code":"","admin3_code":"","admin4_code":"","population":"195236","elevation":"","dem":"31","timezone":"Asia/Seoul","modification_date":"2014-01-06"},{"geonameid":"1842485","name":"Goyang-si","asciiname":"Goyang-si","alternatenames":["Goyang","Goyang-si","QYK","goyang","goyangsi","고양","고양시"],"latitude":"37.65639","longitude":"126.835","feature_class":"P","feature_code":"PPL","country_code":"KR","cc2":"","admin1_code":"13","admin2_code":"","admin3_code":"","admin4_code":"","population":"1073069","elevation":"","dem":"19","timezone":"Asia/Seoul","modification_date":"2014-01-30"},{"geonameid":"1843082","name":"Gapyeong","asciiname":"Gapyeong","alternatenames":["District de Gapyeong","Gapyeong County","Gapyeong gun","Kahei-gun","Kap'yong-gun","Kap'yŏng-gun","Kapkhjon","gapyeong","gapyeong-gun","jia ping jun","Капхён","加平郡","가평","가평군"],"latitude":"37.83101","longitude":"127.51059","feature_class":"P","feature_code":"PPL","country_code":"KR","cc2":"","admin1_code":"13","admin2_code":"","admin3_code":"","admin4_code":"","population":"55415","elevation":"","dem":"67","timezone":"Asia/Seoul","modification_date":"2013-09-28"},{"geonameid":"1843702","name":"Icheon-si","asciiname":"Icheon-si","alternatenames":["Icheon","Icheon-si","icheon","icheonsi","이천","이천시"],"latitude":"37.27917","longitude":"127.4425","feature_class":"P","feature_code":"PPL","country_code":"KR","cc2":"","admin1_code":"13","admin2_code":"","admin3_code":"","admin4_code":"","population":"196230","elevation":"","dem":"68","timezone":"Asia/Seoul","modification_date":"2014-03-08"},{"geonameid":"1843847","name":"Hwaseong-si","asciiname":"Hwaseong-si","alternatenames":["Hwaseong","Hwaseong-si","hwaseong","hwaseongsi","화성","화성시"],"latitude":"37.20682","longitude":"126.8169","feature_class":"P","feature_code":"PPL","country_code":"KR","cc2":"","admin1_code":"13","admin2_code":"","admin3_code":"","admin4_code":"","population":"476297","elevation":"","dem":"19","timezone":"Asia/Seoul","modification_date":"2014-01-07"},{"geonameid":"1846898","name":"Anyang-si","asciiname":"Anyang-si","alternatenames":["Anyang","Anyang-si","an-yang","an-yangsi","안양","안양시"],"latitude":"37.3925","longitude":"126.92694","feature_class":"P","feature_code":"PPL","country_code":"KR","cc2":"","admin1_code":"13","admin2_code":"","admin3_code":"","admin4_code":"","population":"634367","elevation":"","dem":"52","timezone":"Asia/Seoul","modification_date":"2014-01-07"},{"geonameid":"1846912","name":"Anseong","asciiname":"Anseong","alternatenames":["Anjo","Anjŏ","Anseong","Anson","Ansong","Ansŏng","an cheng shi","anseong","anseongsi","Ансон","安城市","안성","안성시"],"latitude":"37.01083","longitude":"127.27028","feature_class":"P","feature_code":"PPL","country_code":"KR","cc2":"","admin1_code":"13","admin2_code":"Ansŏng-si","admin3_code":"","admin4_code":"","population":"69255","elevation":"","dem":"37","timezone":"Asia/Seoul","modification_date":"2015-01-18"},{"geonameid":"1846918","name":"Ansan-si","asciiname":"Ansan-si","alternatenames":["Ansan","Ansan-si","an shan","an shan shi","ansan","ansansi","安山","安山市","안산","안산시"],"latitude":"37.32361","longitude":"126.82194","feature_class":"P","feature_code":"PPL","country_code":"KR","cc2":"","admin1_code":"13","admin2_code":"","admin3_code":"","admin4_code":"","population":"650728","elevation":"","dem":"15","timezone":"Asia/Seoul","modification_date":"2015-06-03"},{"geonameid":"1896953","name":"Pubal","asciiname":"Pubal","alternatenames":[""],"latitude":"37.29167","longitude":"127.50778","feature_class":"P","feature_code":"PPL","country_code":"KR","cc2":"","admin1_code":"13","admin2_code":"","admin3_code":"","admin4_code":"","population":"63026","elevation":"","dem":"55","timezone":"Asia/Seoul","modification_date":"2006-01-17"},{"geonameid":"1897000","name":"Seongnam-si","asciiname":"Seongnam-si","alternatenames":["Seongnam","Seongnam-si","seongnam","seongnamsi","성남","성남시"],"latitude":"37.43861","longitude":"127.13778","feature_class":"P","feature_code":"PPL","country_code":"KR","cc2":"","admin1_code":"13","admin2_code":"","admin3_code":"","admin4_code":"","population":"1031935","elevation":"","dem":"80","timezone":"Asia/Seoul","modification_date":"2014-01-19"},{"geonameid":"1897007","name":"Hanam","asciiname":"Hanam","alternatenames":["Hanam","hanam","하남"],"latitude":"37.54","longitude":"127.20556","feature_class":"P","feature_code":"PPL","country_code":"KR","cc2":"","admin1_code":"13","admin2_code":"","admin3_code":"","admin4_code":"","population":"134902","elevation":"","dem":"33","timezone":"Asia/Seoul","modification_date":"2012-01-19"},{"geonameid":"1897118","name":"Hwado","asciiname":"Hwado","alternatenames":[""],"latitude":"37.6525","longitude":"127.3075","feature_class":"P","feature_code":"PPL","country_code":"KR","cc2":"","admin1_code":"13","admin2_code":"","admin3_code":"","admin4_code":"","population":"106358","elevation":"","dem":"86","timezone":"Asia/Seoul","modification_date":"2006-01-17"},{"geonameid":"1897122","name":"Namyangju","asciiname":"Namyangju","alternatenames":["Namjandzhu","Namujandzhu","Namyangju","Namyangju-si","nam-yangju","nam-yangjusi","namyangjw","nan yang zhou shi","Намъянджу","Намянджу","Намянжү хот","نامیانگجو","南楊州市","남양주","남양주시"],"latitude":"37.63667","longitude":"127.21417","feature_class":"P","feature_code":"PPL","country_code":"KR","cc2":"","admin1_code":"13","admin2_code":"","admin3_code":"","admin4_code":"","population":"90798","elevation":"","dem":"63","timezone":"Asia/Seoul","modification_date":"2014-04-23"},{"geonameid":"1912209","name":"Wabu","asciiname":"Wabu","alternatenames":["Wabu","wabu","와부"],"latitude":"37.58972","longitude":"127.22028","feature_class":"P","feature_code":"PPL","country_code":"KR","cc2":"","admin1_code":"13","admin2_code":"","admin3_code":"","admin4_code":"","population":"96775","elevation":"","dem":"38","timezone":"Asia/Seoul","modification_date":"2015-07-03"},{"geonameid":"1948005","name":"Kwangmyŏng","asciiname":"Kwangmyong","alternatenames":["Kwangmyong","Kwangmyŏng"],"latitude":"37.47722","longitude":"126.86639","feature_class":"P","feature_code":"PPL","country_code":"KR","cc2":"","admin1_code":"13","admin2_code":"","admin3_code":"","admin4_code":"","population":"357545","elevation":"","dem":"30","timezone":"Asia/Seoul","modification_date":"2012-01-20"}]}