{"region_data":{"adminCode1":"02","lng":"-15.66","geonameId":2412716,"toponymName":"Lower River Division","countryId":"2413451","fcl":"A","population":73474,"numberOfChildren":6,"countryCode":"GM","name":"Lower River Division","fclName":"country, state, region,...","countryName":"Gambia","fcodeName":"first-order administrative division","adminName1":"Lower River","lat":"13.4","fcode":"ADM1"},"country_data":{"ISO":"GM","ISO3":"GMB","ISO_Numeric":"270","fips":"GA","country":"Gambia","capital":"Banjul","area":"11300","Population":"1593256","Continent":"AF","tld":".gm","CurrencyCode":"GMD","CurrencyName":"Dalasi","Phone":"220","Postal_Code_Format":"","Postal_Code_Regex":"","Languages":"en-GM,mnk,wof,wo,ff","geonameid":"2413451","neighbours":"SN","EquivalentFipsCode":""},"cities":[{"geonameid":"2411692","name":"Wellingara Ba","asciiname":"Wellingara Ba","alternatenames":["Sitafuma","Wellingara Ba","Willingara"],"latitude":"13.41667","longitude":"-15.4","feature_class":"P","feature_code":"PPL","country_code":"GM","cc2":"","admin1_code":"02","admin2_code":"","admin3_code":"","admin4_code":"","population":"1476","elevation":"","dem":"28","timezone":"Africa/Banjul","modification_date":"2012-01-18"},{"geonameid":"2411765","name":"Toniataba","asciiname":"Toniataba","alternatenames":["Toniataba","Tonitaba"],"latitude":"13.43333","longitude":"-15.58333","feature_class":"P","feature_code":"PPL","country_code":"GM","cc2":"","admin1_code":"02","admin2_code":"","admin3_code":"","admin4_code":"","population":"1755","elevation":"","dem":"4","timezone":"Africa/Banjul","modification_date":"2012-01-18"},{"geonameid":"2411862","name":"Sutukung","asciiname":"Sutukung","alternatenames":["Surukung","Sutukung"],"latitude":"13.46667","longitude":"-15.26667","feature_class":"P","feature_code":"PPL","country_code":"GM","cc2":"","admin1_code":"02","admin2_code":"","admin3_code":"","admin4_code":"","population":"1506","elevation":"","dem":"11","timezone":"Africa/Banjul","modification_date":"2012-01-18"},{"geonameid":"2411905","name":"Soma","asciiname":"Soma","alternatenames":["Soma"],"latitude":"13.43333","longitude":"-15.53333","feature_class":"P","feature_code":"PPL","country_code":"GM","cc2":"","admin1_code":"02","admin2_code":"","admin3_code":"","admin4_code":"","population":"9869","elevation":"","dem":"21","timezone":"Africa/Banjul","modification_date":"2012-01-18"},{"geonameid":"2411970","name":"Si Kunda","asciiname":"Si Kunda","alternatenames":[""],"latitude":"13.43333","longitude":"-15.56667","feature_class":"P","feature_code":"PPL","country_code":"GM","cc2":"","admin1_code":"02","admin2_code":"","admin3_code":"","admin4_code":"","population":"1344","elevation":"","dem":"28","timezone":"Africa/Banjul","modification_date":"2006-01-17"},{"geonameid":"2412158","name":"Sankwia","asciiname":"Sankwia","alternatenames":["Sankuia","Sankwia"],"latitude":"13.46667","longitude":"-15.51667","feature_class":"P","feature_code":"PPL","country_code":"GM","cc2":"","admin1_code":"02","admin2_code":"","admin3_code":"","admin4_code":"","population":"1831","elevation":"","dem":"4","timezone":"Africa/Banjul","modification_date":"2012-01-18"},{"geonameid":"2412408","name":"Nioro","asciiname":"Nioro","alternatenames":[""],"latitude":"13.35","longitude":"-15.75","feature_class":"P","feature_code":"PPL","country_code":"GM","cc2":"","admin1_code":"02","admin2_code":"","admin3_code":"","admin4_code":"","population":"1746","elevation":"","dem":"38","timezone":"Africa/Banjul","modification_date":"2006-01-17"},{"geonameid":"2412605","name":"Mansa Konko","asciiname":"Mansa Konko","alternatenames":["Mansa Konko"],"latitude":"13.46667","longitude":"-15.55","feature_class":"P","feature_code":"PPLA","country_code":"GM","cc2":"","admin1_code":"02","admin2_code":"","admin3_code":"","admin4_code":"","population":"1978","elevation":"","dem":"21","timezone":"Africa/Banjul","modification_date":"2012-01-18"},{"geonameid":"2413023","name":"Keneba","asciiname":"Keneba","alternatenames":["Keneba","Kenniba"],"latitude":"13.32889","longitude":"-16.015","feature_class":"P","feature_code":"PPL","country_code":"GM","cc2":"","admin1_code":"02","admin2_code":"","admin3_code":"","admin4_code":"","population":"1775","elevation":"","dem":"22","timezone":"Africa/Banjul","modification_date":"2012-01-18"},{"geonameid":"2413073","name":"Karantaba","asciiname":"Karantaba","alternatenames":[""],"latitude":"13.43333","longitude":"-15.51667","feature_class":"P","feature_code":"PPL","country_code":"GM","cc2":"","admin1_code":"02","admin2_code":"","admin3_code":"","admin4_code":"","population":"1372","elevation":"","dem":"37","timezone":"Africa/Banjul","modification_date":"2006-01-17"},{"geonameid":"2413160","name":"Kaiaf","asciiname":"Kaiaf","alternatenames":[""],"latitude":"13.4","longitude":"-15.61667","feature_class":"P","feature_code":"PPL","country_code":"GM","cc2":"","admin1_code":"02","admin2_code":"","admin3_code":"","admin4_code":"","population":"1819","elevation":"","dem":"29","timezone":"Africa/Banjul","modification_date":"2006-01-17"},{"geonameid":"2413235","name":"Jifarong","asciiname":"Jifarong","alternatenames":["Jifarong","Jiffarong"],"latitude":"13.3","longitude":"-15.86667","feature_class":"P","feature_code":"PPL","country_code":"GM","cc2":"","admin1_code":"02","admin2_code":"","admin3_code":"","admin4_code":"","population":"1038","elevation":"","dem":"28","timezone":"Africa/Banjul","modification_date":"2012-01-18"},{"geonameid":"2413246","name":"Jenoi","asciiname":"Jenoi","alternatenames":["Ginoi","Jenoi"],"latitude":"13.48333","longitude":"-15.56667","feature_class":"P","feature_code":"PPL","country_code":"GM","cc2":"","admin1_code":"02","admin2_code":"","admin3_code":"","admin4_code":"","population":"1254","elevation":"","dem":"8","timezone":"Africa/Banjul","modification_date":"2012-01-18"},{"geonameid":"2413344","name":"Jali","asciiname":"Jali","alternatenames":[""],"latitude":"13.35","longitude":"-15.96667","feature_class":"P","feature_code":"PPL","country_code":"GM","cc2":"","admin1_code":"02","admin2_code":"","admin3_code":"","admin4_code":"","population":"1024","elevation":"","dem":"31","timezone":"Africa/Banjul","modification_date":"2006-01-17"},{"geonameid":"2413703","name":"Bureng","asciiname":"Bureng","alternatenames":["Buraing","Bureng"],"latitude":"13.41667","longitude":"-15.28333","feature_class":"P","feature_code":"PPL","country_code":"GM","cc2":"","admin1_code":"02","admin2_code":"","admin3_code":"","admin4_code":"","population":"1472","elevation":"","dem":"6","timezone":"Africa/Banjul","modification_date":"2012-01-18"},{"geonameid":"2413830","name":"Baro Kunda","asciiname":"Baro Kunda","alternatenames":["Baro Kunda","Barukunda"],"latitude":"13.48333","longitude":"-15.26667","feature_class":"P","feature_code":"PPL","country_code":"GM","cc2":"","admin1_code":"02","admin2_code":"","admin3_code":"","admin4_code":"","population":"1991","elevation":"","dem":"16","timezone":"Africa/Banjul","modification_date":"2012-01-18"}]}