{"region_data":{"countryId":"661882","adminCode1":"213","countryName":"Åland","fclName":"country, state, region,...","countryCode":"AX","lng":"20.71799","fcodeName":"first-order administrative division","toponymName":"Ålands skärgård","fcl":"A","numberOfChildren":6,"name":"Ålands skärgård","fcode":"ADM1","geonameId":9611694,"lat":"60.17575","adminName1":"Ålands skärgård","population":2230},"country_data":{"ISO":"AX","ISO3":"ALA","ISO_Numeric":"248","fips":"","country":"Aland Islands","capital":"Mariehamn","area":"1580","Population":"26711","Continent":"EU","tld":".ax","CurrencyCode":"EUR","CurrencyName":"Euro","Phone":"+358-18","Postal_Code_Format":"#####","Postal_Code_Regex":"^(?:FI)*(\\d{5})$","Languages":"sv-AX","geonameid":"661882","neighbours":"","EquivalentFipsCode":"FI"},"cities":[{"geonameid":"632421","name":"Vårdö","asciiname":"Vardoe","alternatenames":[""],"latitude":"60.25","longitude":"20.38333","feature_class":"P","feature_code":"PPLA2","country_code":"AX","cc2":"FI","admin1_code":"213","admin2_code":"941","admin3_code":"","admin4_code":"","population":"411","elevation":"","dem":"10","timezone":"Europe/Mariehamn","modification_date":"2014-09-26"},{"geonameid":"636158","name":"Sottunga","asciiname":"Sottunga","alternatenames":["Sottunga"],"latitude":"60.13023","longitude":"20.66683","feature_class":"P","feature_code":"PPLA2","country_code":"AX","cc2":"FI","admin1_code":"213","admin2_code":"766","admin3_code":"","admin4_code":"","population":"144","elevation":"","dem":"12","timezone":"Europe/Mariehamn","modification_date":"2014-09-26"},{"geonameid":"650395","name":"Kumlinge","asciiname":"Kumlinge","alternatenames":["Kumlinge","Kumlinki"],"latitude":"60.26013","longitude":"20.77892","feature_class":"P","feature_code":"PPLA2","country_code":"AX","cc2":"FI","admin1_code":"213","admin2_code":"295","admin3_code":"","admin4_code":"","population":"384","elevation":"","dem":"5","timezone":"Europe/Mariehamn","modification_date":"2014-09-30"},{"geonameid":"651986","name":"Kökar","asciiname":"Koekar","alternatenames":["Koekar","Koeoekari","Kökar","Köökari"],"latitude":"59.92051","longitude":"20.90883","feature_class":"P","feature_code":"PPLA2","country_code":"AX","cc2":"FI","admin1_code":"213","admin2_code":"318","admin3_code":"","admin4_code":"","population":"355","elevation":"","dem":"7","timezone":"Europe/Mariehamn","modification_date":"2015-04-30"},{"geonameid":"659949","name":"Föglö","asciiname":"Foegloe","alternatenames":["Foegloe","Fogleo","Fögleö","Föglö"],"latitude":"60.01667","longitude":"20.41667","feature_class":"P","feature_code":"PPLA2","country_code":"AX","cc2":"FI","admin1_code":"213","admin2_code":"062","admin3_code":"","admin4_code":"","population":"632","elevation":"","dem":"-9999","timezone":"Europe/Mariehamn","modification_date":"2014-09-26"},{"geonameid":"660521","name":"Brändö","asciiname":"Braendoe","alternatenames":["Braendoe","Brändö"],"latitude":"60.41165","longitude":"21.04534","feature_class":"P","feature_code":"PPLA2","country_code":"AX","cc2":"FI","admin1_code":"213","admin2_code":"035","admin3_code":"","admin4_code":"","population":"515","elevation":"","dem":"10","timezone":"Europe/Mariehamn","modification_date":"2014-09-26"}]}