{"region_data":{"countryId":"660013","adminCode1":"08","countryName":"Finland","fclName":"country, state, region,...","countryCode":"FI","lng":"26.91667","fcodeName":"first-order administrative division","toponymName":"Kymenlaakso","fcl":"A","numberOfChildren":2,"name":"Kymenlaakso","fcode":"ADM1","geonameId":830703,"lat":"60.83333","adminName1":"Kymenlaakso","population":184317},"country_data":{"ISO":"FI","ISO3":"FIN","ISO_Numeric":"246","fips":"FI","country":"Finland","capital":"Helsinki","area":"337030","Population":"5244000","Continent":"EU","tld":".fi","CurrencyCode":"EUR","CurrencyName":"Euro","Phone":"358","Postal_Code_Format":"#####","Postal_Code_Regex":"^(?:FI)*(\\d{5})$","Languages":"fi-FI,sv-FI,smn","geonameid":"660013","neighbours":"NO,RU,SE","EquivalentFipsCode":""},"cities":[{"geonameid":"631388","name":"Virolahti","asciiname":"Virolahti","alternatenames":["Vederlax kyrkby","Virolahden Kirkonkyla","Virolahden Kirkonkylae","Virolahden Kirkonkylä","Virolahti","Virolakhti","Виролахти"],"latitude":"60.51667","longitude":"27.68306","feature_class":"P","feature_code":"PPLA3","country_code":"FI","cc2":"","admin1_code":"08","admin2_code":"082","admin3_code":"935","admin4_code":"","population":"0","elevation":"","dem":"10","timezone":"Europe/Helsinki","modification_date":"2014-12-10"},{"geonameid":"631393","name":"Virojoki","asciiname":"Virojoki","alternatenames":["Virojoki","Виройоки"],"latitude":"60.5794","longitude":"27.70354","feature_class":"P","feature_code":"PPL","country_code":"FI","cc2":"","admin1_code":"08","admin2_code":"082","admin3_code":"935","admin4_code":"","population":"1328","elevation":"","dem":"5","timezone":"Europe/Helsinki","modification_date":"2015-01-17"},{"geonameid":"650859","name":"Kouvola","asciiname":"Kouvola","alternatenames":["Kouvol","Kouvola","Kovvola","ke wo la","koubolla","kouvu~ora","kwfwla","kwwwwla","Коввола","Коувола","كوفولا","کوؤوولا","コウヴォラ","科沃拉","코우볼라"],"latitude":"60.86667","longitude":"26.7","feature_class":"P","feature_code":"PPLA","country_code":"FI","cc2":"","admin1_code":"08","admin2_code":"081","admin3_code":"286","admin4_code":"","population":"31133","elevation":"","dem":"81","timezone":"Europe/Helsinki","modification_date":"2014-09-25"},{"geonameid":"650946","name":"Kotka","asciiname":"Kotka","alternatenames":["Gorad Kotka","Kotk","Kotka","Kotka linn","Kotko","Kòtka","Ruotsinsalmi","Svensksund","ke te ka","koteuka","kotoka","kwtka","qwtqh","Κότκα","Горад Котка","Котка","קוטקה","كوتكا","コトカ","科特卡","코트카"],"latitude":"60.46667","longitude":"26.91667","feature_class":"P","feature_code":"PPLA3","country_code":"FI","cc2":"","admin1_code":"08","admin2_code":"082","admin3_code":"285","admin4_code":"","population":"54616","elevation":"","dem":"1","timezone":"Europe/Helsinki","modification_date":"2014-09-25"},{"geonameid":"654137","name":"Karhula","asciiname":"Karhula","alternatenames":["Karhula","Karkhula","Кархула"],"latitude":"60.52156","longitude":"26.93125","feature_class":"P","feature_code":"PPL","country_code":"FI","cc2":"","admin1_code":"08","admin2_code":"082","admin3_code":"285","admin4_code":"","population":"22867","elevation":"","dem":"4","timezone":"Europe/Helsinki","modification_date":"2015-01-17"},{"geonameid":"656183","name":"Jaala","asciiname":"Jaala","alternatenames":["Jaala","Яала"],"latitude":"61.05251","longitude":"26.48117","feature_class":"P","feature_code":"PPL","country_code":"FI","cc2":"","admin1_code":"08","admin2_code":"081","admin3_code":"286","admin4_code":"","population":"1893","elevation":"","dem":"108","timezone":"Europe/Helsinki","modification_date":"2015-01-17"},{"geonameid":"656807","name":"Iitti","asciiname":"Iitti","alternatenames":[""],"latitude":"60.89488","longitude":"26.33869","feature_class":"P","feature_code":"PPLA3","country_code":"FI","cc2":"","admin1_code":"08","admin2_code":"081","admin3_code":"142","admin4_code":"","population":"7246","elevation":"","dem":"80","timezone":"Europe/Helsinki","modification_date":"2014-09-25"},{"geonameid":"659169","name":"Hamina","asciiname":"Hamina","alternatenames":["Fredericia","Fredrikshamn","Gamina","Hamina","Khamina","ha mi na","hamina","hamyna","Гаміна","Хамина","هامينا","哈米納","하미나"],"latitude":"60.56974","longitude":"27.19794","feature_class":"P","feature_code":"PPLA3","country_code":"FI","cc2":"","admin1_code":"08","admin2_code":"082","admin3_code":"075","admin4_code":"","population":"21712","elevation":"","dem":"3","timezone":"Europe/Helsinki","modification_date":"2014-09-25"},{"geonameid":"660294","name":"Elimäki","asciiname":"Elimaeki","alternatenames":["Ehlimjaki","Elima","Elimae","Elimaeki","Elimä","Elimäki","Элимяки"],"latitude":"60.71667","longitude":"26.46667","feature_class":"P","feature_code":"PPLA3","country_code":"FI","cc2":"","admin1_code":"08","admin2_code":"081","admin3_code":"286","admin4_code":"","population":"8751","elevation":"","dem":"34","timezone":"Europe/Helsinki","modification_date":"2014-09-25"},{"geonameid":"661164","name":"Anjala","asciiname":"Anjala","alternatenames":["Anjala","Anujala","Анъяла"],"latitude":"60.68333","longitude":"26.83333","feature_class":"P","feature_code":"PPL","country_code":"FI","cc2":"","admin1_code":"08","admin2_code":"081","admin3_code":"286","admin4_code":"","population":"16779","elevation":"","dem":"18","timezone":"Europe/Helsinki","modification_date":"2014-09-25"}]}