{"region_data":{"countryId":"3996063","adminCode1":"25","countryName":"Mexico","fclName":"country, state, region,...","countryCode":"MX","lng":"-107.5","fcodeName":"first-order administrative division","toponymName":"Estado de Sinaloa","fcl":"A","numberOfChildren":18,"name":"Sinaloa","fcode":"ADM1","geonameId":3983035,"lat":"25","adminName1":"Sinaloa","population":2641696},"country_data":{"ISO":"MX","ISO3":"MEX","ISO_Numeric":"484","fips":"MX","country":"Mexico","capital":"Mexico City","area":"1972550","Population":"112468855","Continent":"NA","tld":".mx","CurrencyCode":"MXN","CurrencyName":"Peso","Phone":"52","Postal_Code_Format":"#####","Postal_Code_Regex":"^(\\d{5})$","Languages":"es-MX","geonameid":"3996063","neighbours":"GT,US,BZ","EquivalentFipsCode":""},"cities":[{"geonameid":"3976175","name":"Ojo de Agua de Palmillas","asciiname":"Ojo de Agua de Palmillas","alternatenames":[""],"latitude":"22.61972","longitude":"-105.60389","feature_class":"P","feature_code":"PPL","country_code":"MX","cc2":"","admin1_code":"25","admin2_code":"009","admin3_code":"","admin4_code":"","population":"2833","elevation":"","dem":"11","timezone":"America/Mazatlan","modification_date":"2013-07-31"},{"geonameid":"3976187","name":"Cristo Rey","asciiname":"Cristo Rey","alternatenames":[""],"latitude":"22.58167","longitude":"-105.72444","feature_class":"P","feature_code":"PPL","country_code":"MX","cc2":"","admin1_code":"25","admin2_code":"009","admin3_code":"","admin4_code":"","population":"1934","elevation":"","dem":"6","timezone":"America/Mazatlan","modification_date":"2013-07-31"},{"geonameid":"3976229","name":"Tecualilla","asciiname":"Tecualilla","alternatenames":[""],"latitude":"22.76667","longitude":"-105.67167","feature_class":"P","feature_code":"PPL","country_code":"MX","cc2":"","admin1_code":"25","admin2_code":"009","admin3_code":"","admin4_code":"","population":"1252","elevation":"","dem":"14","timezone":"America/Mazatlan","modification_date":"2013-07-31"},{"geonameid":"3976232","name":"Isla del Bosque","asciiname":"Isla del Bosque","alternatenames":[""],"latitude":"22.73306","longitude":"-105.84556","feature_class":"P","feature_code":"PPL","country_code":"MX","cc2":"","admin1_code":"25","admin2_code":"009","admin3_code":"","admin4_code":"","population":"5820","elevation":"","dem":"6","timezone":"America/Mazatlan","modification_date":"2013-07-31"},{"geonameid":"3976306","name":"El Huajote","asciiname":"El Huajote","alternatenames":[""],"latitude":"23.12889","longitude":"-106.05889","feature_class":"P","feature_code":"PPL","country_code":"MX","cc2":"","admin1_code":"25","admin2_code":"004","admin3_code":"","admin4_code":"","population":"1147","elevation":"","dem":"55","timezone":"America/Mazatlan","modification_date":"2013-08-01"},{"geonameid":"3976324","name":"Concordia","asciiname":"Concordia","alternatenames":["Concordia"],"latitude":"23.28694","longitude":"-106.06389","feature_class":"P","feature_code":"PPL","country_code":"MX","cc2":"","admin1_code":"25","admin2_code":"004","admin3_code":"","admin4_code":"","population":"8328","elevation":"","dem":"115","timezone":"America/Mazatlan","modification_date":"2013-07-31"},{"geonameid":"3976535","name":"Eldorado","asciiname":"Eldorado","alternatenames":[""],"latitude":"24.32444","longitude":"-107.36722","feature_class":"P","feature_code":"PPL","country_code":"MX","cc2":"","admin1_code":"25","admin2_code":"006","admin3_code":"","admin4_code":"","population":"13197","elevation":"","dem":"11","timezone":"America/Mazatlan","modification_date":"2013-08-01"},{"geonameid":"3976570","name":"Las Aguamitas","asciiname":"Las Aguamitas","alternatenames":[""],"latitude":"24.57556","longitude":"-107.80056","feature_class":"P","feature_code":"PPL","country_code":"MX","cc2":"","admin1_code":"25","admin2_code":"018","admin3_code":"","admin4_code":"","population":"1629","elevation":"","dem":"6","timezone":"America/Mazatlan","modification_date":"2013-08-01"},{"geonameid":"3976583","name":"Lo de Jesús (Campo Romero)","asciiname":"Lo de Jesus (Campo Romero)","alternatenames":[""],"latitude":"24.68","longitude":"-107.54556","feature_class":"P","feature_code":"PPL","country_code":"MX","cc2":"","admin1_code":"25","admin2_code":"018","admin3_code":"","admin4_code":"","population":"1108","elevation":"","dem":"17","timezone":"America/Mazatlan","modification_date":"2013-08-01"},{"geonameid":"3976594","name":"El Limón de los Ramos","asciiname":"El Limon de los Ramos","alternatenames":[""],"latitude":"24.91361","longitude":"-107.52333","feature_class":"P","feature_code":"PPL","country_code":"MX","cc2":"","admin1_code":"25","admin2_code":"006","admin3_code":"","admin4_code":"","population":"3191","elevation":"","dem":"63","timezone":"America/Mazatlan","modification_date":"2013-08-01"},{"geonameid":"3976595","name":"Dautillos","asciiname":"Dautillos","alternatenames":["Dautillos"],"latitude":"24.72167","longitude":"-107.97528","feature_class":"P","feature_code":"PPL","country_code":"MX","cc2":"","admin1_code":"25","admin2_code":"018","admin3_code":"","admin4_code":"","population":"2109","elevation":"","dem":"4","timezone":"America/Mazatlan","modification_date":"2013-07-31"},{"geonameid":"3976775","name":"Leyva Solano","asciiname":"Leyva Solano","alternatenames":["Gabriel Leyva Solano","Leyva Solano"],"latitude":"25.66163","longitude":"-108.637","feature_class":"P","feature_code":"PPL","country_code":"MX","cc2":"","admin1_code":"25","admin2_code":"011","admin3_code":"","admin4_code":"","population":"27536","elevation":"","dem":"24","timezone":"America/Mazatlan","modification_date":"2015-06-22"},{"geonameid":"3976792","name":"El Huitusi","asciiname":"El Huitusi","alternatenames":[""],"latitude":"25.50974","longitude":"-108.77875","feature_class":"P","feature_code":"PPL","country_code":"MX","cc2":"","admin1_code":"25","admin2_code":"011","admin3_code":"","admin4_code":"","population":"2286","elevation":"","dem":"7","timezone":"America/Mazatlan","modification_date":"2013-08-01"},{"geonameid":"3976893","name":"Benito Juárez (Vinatería)","asciiname":"Benito Juarez (Vinateria)","alternatenames":[""],"latitude":"25.97376","longitude":"-108.87315","feature_class":"P","feature_code":"PPL","country_code":"MX","cc2":"","admin1_code":"25","admin2_code":"010","admin3_code":"","admin4_code":"","population":"2093","elevation":"","dem":"30","timezone":"America/Mazatlan","modification_date":"2013-08-01"},{"geonameid":"3976907","name":"El Refugio","asciiname":"El Refugio","alternatenames":["El Refugio"],"latitude":"25.99619","longitude":"-109.2999","feature_class":"P","feature_code":"PPL","country_code":"MX","cc2":"","admin1_code":"25","admin2_code":"001","admin3_code":"","admin4_code":"","population":"1064","elevation":"","dem":"11","timezone":"America/Mazatlan","modification_date":"2014-06-04"},{"geonameid":"3980125","name":"Villa Unión","asciiname":"Villa Union","alternatenames":["Villa Union","Villa Unión"],"latitude":"23.18863","longitude":"-106.21645","feature_class":"P","feature_code":"PPL","country_code":"MX","cc2":"","admin1_code":"25","admin2_code":"012","admin3_code":"","admin4_code":"","population":"13683","elevation":"","dem":"14","timezone":"America/Mazatlan","modification_date":"2015-06-22"},{"geonameid":"3981345","name":"Topolobampo","asciiname":"Topolobampo","alternatenames":["Topolobampo"],"latitude":"25.60084","longitude":"-109.0523","feature_class":"P","feature_code":"PPL","country_code":"MX","cc2":"","admin1_code":"25","admin2_code":"001","admin3_code":"","admin4_code":"","population":"7580","elevation":"","dem":"3","timezone":"America/Mazatlan","modification_date":"2015-06-22"},{"geonameid":"3982287","name":"Teacapán","asciiname":"Teacapan","alternatenames":[""],"latitude":"22.53983","longitude":"-105.738","feature_class":"P","feature_code":"PPL","country_code":"MX","cc2":"","admin1_code":"25","admin2_code":"009","admin3_code":"","admin4_code":"","population":"4421","elevation":"","dem":"5","timezone":"America/Mazatlan","modification_date":"2015-06-22"},{"geonameid":"3982573","name":"Tamazula","asciiname":"Tamazula","alternatenames":[""],"latitude":"25.44639","longitude":"-108.45528","feature_class":"P","feature_code":"PPL","country_code":"MX","cc2":"","admin1_code":"25","admin2_code":"011","admin3_code":"","admin4_code":"","population":"3217","elevation":"","dem":"11","timezone":"America/Mazatlan","modification_date":"2013-07-31"},{"geonameid":"3983023","name":"Siqueros","asciiname":"Siqueros","alternatenames":["Siqueros"],"latitude":"23.34177","longitude":"-106.24124","feature_class":"P","feature_code":"PPL","country_code":"MX","cc2":"","admin1_code":"25","admin2_code":"012","admin3_code":"","admin4_code":"","population":"1038","elevation":"","dem":"41","timezone":"America/Mazatlan","modification_date":"2014-07-08"},{"geonameid":"3983032","name":"Sinaloa de Leyva","asciiname":"Sinaloa de Leyva","alternatenames":["Cinaloa","Sinaloa","Sinaloa de Leyva","Sinaloita"],"latitude":"25.8219","longitude":"-108.22261","feature_class":"P","feature_code":"PPLA2","country_code":"MX","cc2":"","admin1_code":"25","admin2_code":"017","admin3_code":"","admin4_code":"","population":"4297","elevation":"","dem":"69","timezone":"America/Mazatlan","modification_date":"2015-06-22"},{"geonameid":"3985301","name":"San Miguel Zapotitlan","asciiname":"San Miguel Zapotitlan","alternatenames":["San Miguel","San Miguel Zapotitlan","San Miguel Zapotitlán","Zapotitan","Zapotitán"],"latitude":"25.94831","longitude":"-109.04738","feature_class":"P","feature_code":"PPL","country_code":"MX","cc2":"","admin1_code":"25","admin2_code":"001","admin3_code":"","admin4_code":"","population":"6152","elevation":"","dem":"19","timezone":"America/Mazatlan","modification_date":"2015-06-22"},{"geonameid":"3986862","name":"San Ignacio","asciiname":"San Ignacio","alternatenames":["San Ignacio"],"latitude":"23.94105","longitude":"-106.42467","feature_class":"P","feature_code":"PPLA2","country_code":"MX","cc2":"","admin1_code":"25","admin2_code":"016","admin3_code":"","admin4_code":"","population":"4293","elevation":"","dem":"159","timezone":"America/Mazatlan","modification_date":"2015-06-22"},{"geonameid":"3987538","name":"San Blas","asciiname":"San Blas","alternatenames":["San Blas"],"latitude":"26.08019","longitude":"-108.7611","feature_class":"P","feature_code":"PPL","country_code":"MX","cc2":"","admin1_code":"25","admin2_code":"010","admin3_code":"","admin4_code":"","population":"6353","elevation":"","dem":"38","timezone":"America/Mazatlan","modification_date":"2015-06-22"},{"geonameid":"3987966","name":"Sanalona","asciiname":"Sanalona","alternatenames":[""],"latitude":"24.80222","longitude":"-107.14","feature_class":"P","feature_code":"PPL","country_code":"MX","cc2":"","admin1_code":"25","admin2_code":"006","admin3_code":"","admin4_code":"","population":"1096","elevation":"","dem":"108","timezone":"America/Mazatlan","modification_date":"2013-07-31"},{"geonameid":"3991148","name":"Quila","asciiname":"Quila","alternatenames":["Quila","Quilla"],"latitude":"24.42362","longitude":"-107.22186","feature_class":"P","feature_code":"PPL","country_code":"MX","cc2":"","admin1_code":"25","admin2_code":"006","admin3_code":"","admin4_code":"","population":"5603","elevation":"","dem":"43","timezone":"America/Mazatlan","modification_date":"2015-06-22"},{"geonameid":"3992369","name":"Plan de Ayala (Campo Cinco)","asciiname":"Plan de Ayala (Campo Cinco)","alternatenames":[""],"latitude":"25.7691","longitude":"-109.04121","feature_class":"P","feature_code":"PPL","country_code":"MX","cc2":"","admin1_code":"25","admin2_code":"001","admin3_code":"","admin4_code":"","population":"1323","elevation":"","dem":"7","timezone":"America/Mazatlan","modification_date":"2013-08-01"},{"geonameid":"3993774","name":"Palmito del Verde","asciiname":"Palmito del Verde","alternatenames":["Isla de Palmito del Verde","Palmarito del Verde","Palmito","Palmito Verde","Palmito del Verde"],"latitude":"22.65861","longitude":"-105.77111","feature_class":"P","feature_code":"PPL","country_code":"MX","cc2":"MX","admin1_code":"25","admin2_code":"009","admin3_code":"","admin4_code":"","population":"1499","elevation":"","dem":"5","timezone":"America/Mazatlan","modification_date":"2013-08-01"},{"geonameid":"3995017","name":"Navolato","asciiname":"Navolato","alternatenames":["Navolato"],"latitude":"24.7661","longitude":"-107.70225","feature_class":"P","feature_code":"PPL","country_code":"MX","cc2":"","admin1_code":"25","admin2_code":"018","admin3_code":"","admin4_code":"","population":"28457","elevation":"","dem":"18","timezone":"America/Mazatlan","modification_date":"2015-06-22"},{"geonameid":"3995652","name":"Mocorito","asciiname":"Mocorito","alternatenames":["Mocorito"],"latitude":"25.48202","longitude":"-107.92008","feature_class":"P","feature_code":"PPL","country_code":"MX","cc2":"","admin1_code":"25","admin2_code":"013","admin3_code":"","admin4_code":"","population":"5304","elevation":"","dem":"86","timezone":"America/Mazatlan","modification_date":"2015-06-22"},{"geonameid":"3995671","name":"Mochicahui","asciiname":"Mochicahui","alternatenames":[""],"latitude":"25.95156","longitude":"-108.93049","feature_class":"P","feature_code":"PPL","country_code":"MX","cc2":"","admin1_code":"25","admin2_code":"010","admin3_code":"","admin4_code":"","population":"4999","elevation":"","dem":"22","timezone":"America/Mazatlan","modification_date":"2015-06-22"},{"geonameid":"3996117","name":"Mesillas","asciiname":"Mesillas","alternatenames":["Mesillas"],"latitude":"23.24652","longitude":"-106.04783","feature_class":"P","feature_code":"PPL","country_code":"MX","cc2":"","admin1_code":"25","admin2_code":"004","admin3_code":"","admin4_code":"","population":"1676","elevation":"","dem":"138","timezone":"America/Mazatlan","modification_date":"2014-07-08"},{"geonameid":"3996322","name":"Mazatlán","asciiname":"Mazatlan","alternatenames":["Ciudad Mazatlan","Ciudad Mazatlán","MZT","Macatlan","Masatlan","Masatlanas","Mazatlan","Mazatlán","Mazātlān","ma sa te lan","masateullan","masatoran","mzatlan  synalwa","Мазатлан","Масатлан","Мацатлан","مزاتلان، سینالوآ","მასატლანი","マサトラン","馬薩特蘭","마사틀란"],"latitude":"23.2329","longitude":"-106.4062","feature_class":"P","feature_code":"PPLA2","country_code":"MX","cc2":"","admin1_code":"25","admin2_code":"012","admin3_code":"","admin4_code":"","population":"354717","elevation":"","dem":"10","timezone":"America/Mazatlan","modification_date":"2015-06-22"},{"geonameid":"3996993","name":"Macapule","asciiname":"Macapule","alternatenames":["Macapul","Macapule"],"latitude":"25.88607","longitude":"-109.1482","feature_class":"P","feature_code":"PPL","country_code":"MX","cc2":"","admin1_code":"25","admin2_code":"001","admin3_code":"","admin4_code":"","population":"1095","elevation":"","dem":"14","timezone":"America/Mazatlan","modification_date":"2014-06-05"},{"geonameid":"3997479","name":"Los Mochis","asciiname":"Los Mochis","alternatenames":["LMM","Los Mochis","Los-Mochis","Mochis","los-mochisi","luo si mo qi si","lws mwchys","rosumochisu","Лос Мочис","Лос-Мочис","لوس موچیس","ლოს-მოჩისი","ロスモチス","洛斯莫奇斯"],"latitude":"25.79535","longitude":"-108.99244","feature_class":"P","feature_code":"PPL","country_code":"MX","cc2":"","admin1_code":"25","admin2_code":"001","admin3_code":"","admin4_code":"","population":"214601","elevation":"","dem":"14","timezone":"America/Mazatlan","modification_date":"2015-06-22"},{"geonameid":"3998956","name":"La Trinidad","asciiname":"La Trinidad","alternatenames":["La Trinidad"],"latitude":"25.73367","longitude":"-108.48409","feature_class":"P","feature_code":"PPL","country_code":"MX","cc2":"","admin1_code":"25","admin2_code":"011","admin3_code":"","admin4_code":"","population":"4385","elevation":"","dem":"36","timezone":"America/Mazatlan","modification_date":"2015-06-22"},{"geonameid":"3999287","name":"Las Quemazones","asciiname":"Las Quemazones","alternatenames":["Las Quemazones"],"latitude":"25.68583","longitude":"-108.45243","feature_class":"P","feature_code":"PPL","country_code":"MX","cc2":"","admin1_code":"25","admin2_code":"011","admin3_code":"","admin4_code":"","population":"1319","elevation":"","dem":"36","timezone":"America/Mazatlan","modification_date":"2014-04-30"},{"geonameid":"4000490","name":"La Reforma","asciiname":"La Reforma","alternatenames":["La Reforma","Peonia","Peonía"],"latitude":"25.08164","longitude":"-108.05673","feature_class":"P","feature_code":"PPL","country_code":"MX","cc2":"","admin1_code":"25","admin2_code":"002","admin3_code":"","admin4_code":"","population":"6943","elevation":"","dem":"8","timezone":"America/Mazatlan","modification_date":"2015-06-22"},{"geonameid":"4001568","name":"La Loma (La Loma de Quila)","asciiname":"La Loma (La Loma de Quila)","alternatenames":["La Loma","Loma"],"latitude":"24.38061","longitude":"-107.22649","feature_class":"P","feature_code":"PPL","country_code":"MX","cc2":"","admin1_code":"25","admin2_code":"006","admin3_code":"","admin4_code":"","population":"1362","elevation":"","dem":"40","timezone":"America/Mazatlan","modification_date":"2013-08-01"},{"geonameid":"4002745","name":"La Cruz","asciiname":"La Cruz","alternatenames":["La Cruz"],"latitude":"23.92126","longitude":"-106.8925","feature_class":"P","feature_code":"PPL","country_code":"MX","cc2":"","admin1_code":"25","admin2_code":"008","admin3_code":"","admin4_code":"","population":"15500","elevation":"","dem":"32","timezone":"America/Mazatlan","modification_date":"2015-06-22"},{"geonameid":"4003317","name":"La Brecha","asciiname":"La Brecha","alternatenames":["Brecha","La Brecha"],"latitude":"25.37078","longitude":"-108.41922","feature_class":"P","feature_code":"PPL","country_code":"MX","cc2":"","admin1_code":"25","admin2_code":"011","admin3_code":"","admin4_code":"","population":"2085","elevation":"","dem":"7","timezone":"America/Mazatlan","modification_date":"2013-07-31"},{"geonameid":"4004611","name":"Huepaco","asciiname":"Huepaco","alternatenames":[""],"latitude":"25.98417","longitude":"-108.86056","feature_class":"P","feature_code":"PPL","country_code":"MX","cc2":"","admin1_code":"25","admin2_code":"010","admin3_code":"","admin4_code":"","population":"1374","elevation":"","dem":"25","timezone":"America/Mazatlan","modification_date":"2013-08-01"},{"geonameid":"4004830","name":"Higueras de Abuya","asciiname":"Higueras de Abuya","alternatenames":["Higueras de Abuya"],"latitude":"24.26058","longitude":"-107.0709","feature_class":"P","feature_code":"PPL","country_code":"MX","cc2":"","admin1_code":"25","admin2_code":"006","admin3_code":"","admin4_code":"","population":"1648","elevation":"","dem":"64","timezone":"America/Mazatlan","modification_date":"2014-07-08"},{"geonameid":"4004847","name":"El Higueral","asciiname":"El Higueral","alternatenames":["El Higueral","Higueral","Higueras"],"latitude":"24.31044","longitude":"-107.348","feature_class":"P","feature_code":"PPL","country_code":"MX","cc2":"","admin1_code":"25","admin2_code":"006","admin3_code":"","admin4_code":"","population":"1913","elevation":"","dem":"13","timezone":"America/Mazatlan","modification_date":"2014-07-08"},{"geonameid":"4004850","name":"Higuera de Zaragoza","asciiname":"Higuera de Zaragoza","alternatenames":["Higuera de Zaragoza","Higueras de Zaragoza"],"latitude":"25.96892","longitude":"-109.3042","feature_class":"P","feature_code":"PPL","country_code":"MX","cc2":"","admin1_code":"25","admin2_code":"001","admin3_code":"","admin4_code":"","population":"9037","elevation":"","dem":"12","timezone":"America/Mazatlan","modification_date":"2015-06-22"},{"geonameid":"4005219","name":"Guasave","asciiname":"Guasave","alternatenames":["Guasava","Guasave"],"latitude":"25.56745","longitude":"-108.46756","feature_class":"P","feature_code":"PPL","country_code":"MX","cc2":"","admin1_code":"25","admin2_code":"011","admin3_code":"","admin4_code":"","population":"68449","elevation":"","dem":"18","timezone":"America/Mazatlan","modification_date":"2015-06-22"},{"geonameid":"4005297","name":"Guamúchil","asciiname":"Guamuchil","alternatenames":["Guamuchil","Guamúchil"],"latitude":"25.46404","longitude":"-108.08199","feature_class":"P","feature_code":"PPL","country_code":"MX","cc2":"","admin1_code":"25","admin2_code":"015","admin3_code":"","admin4_code":"","population":"59276","elevation":"","dem":"45","timezone":"America/Mazatlan","modification_date":"2014-09-19"},{"geonameid":"4005864","name":"Juan Jose Rios","asciiname":"Juan Jose Rios","alternatenames":["Colonia Juan Jose Rios","Colonia Juan José Rios","General Juan Jose Rios","General Juan José Ríos","Juan Jose Rios"],"latitude":"25.75694","longitude":"-108.8247","feature_class":"P","feature_code":"PPL","country_code":"MX","cc2":"","admin1_code":"25","admin2_code":"011","admin3_code":"","admin4_code":"","population":"26380","elevation":"","dem":"20","timezone":"America/Mazatlan","modification_date":"2015-06-22"},{"geonameid":"4006283","name":"Flor Azul","asciiname":"Flor Azul","alternatenames":[""],"latitude":"25.86987","longitude":"-109.00839","feature_class":"P","feature_code":"PPL","country_code":"MX","cc2":"","admin1_code":"25","admin2_code":"001","admin3_code":"","admin4_code":"","population":"1446","elevation":"","dem":"18","timezone":"America/Mazatlan","modification_date":"2013-07-31"},{"geonameid":"4006622","name":"Escuinapa de Hidalgo","asciiname":"Escuinapa de Hidalgo","alternatenames":["Escuinapa","Escuinapa de Hidalgo"],"latitude":"22.83253","longitude":"-105.77539","feature_class":"P","feature_code":"PPL","country_code":"MX","cc2":"","admin1_code":"25","admin2_code":"009","admin3_code":"","admin4_code":"","population":"28248","elevation":"","dem":"24","timezone":"America/Mazatlan","modification_date":"2015-06-22"},{"geonameid":"4007812","name":"El Rosario","asciiname":"El Rosario","alternatenames":[""],"latitude":"24.25556","longitude":"-107.18278","feature_class":"P","feature_code":"PPL","country_code":"MX","cc2":"","admin1_code":"25","admin2_code":"006","admin3_code":"","admin4_code":"","population":"14577","elevation":"","dem":"17","timezone":"America/Mazatlan","modification_date":"2015-06-22"},{"geonameid":"4007858","name":"El Roble","asciiname":"El Roble","alternatenames":["El Roble","Roble"],"latitude":"23.24556","longitude":"-106.20583","feature_class":"P","feature_code":"PPL","country_code":"MX","cc2":"MX","admin1_code":"25","admin2_code":"012","admin3_code":"","admin4_code":"","population":"2627","elevation":"","dem":"32","timezone":"America/Mazatlan","modification_date":"2013-07-31"},{"geonameid":"4008404","name":"El Potrero de Sataya","asciiname":"El Potrero de Sataya","alternatenames":[""],"latitude":"24.69","longitude":"-107.70917","feature_class":"P","feature_code":"PPL","country_code":"MX","cc2":"","admin1_code":"25","admin2_code":"018","admin3_code":"","admin4_code":"","population":"1351","elevation":"","dem":"13","timezone":"America/Mazatlan","modification_date":"2013-08-01"},{"geonameid":"4009646","name":"El Habal","asciiname":"El Habal","alternatenames":["El Habal","Habal"],"latitude":"23.35014","longitude":"-106.41834","feature_class":"P","feature_code":"PPL","country_code":"MX","cc2":"MX","admin1_code":"25","admin2_code":"012","admin3_code":"","admin4_code":"","population":"1144","elevation":"","dem":"64","timezone":"America/Mazatlan","modification_date":"2015-01-13"},{"geonameid":"4009788","name":"El Fuerte de Montes Claros","asciiname":"El Fuerte de Montes Claros","alternatenames":["El Fuerte","El Fuerte de Montes Claros","Fuerte"],"latitude":"26.41686","longitude":"-108.61828","feature_class":"P","feature_code":"PPL","country_code":"MX","cc2":"","admin1_code":"25","admin2_code":"010","admin3_code":"","admin4_code":"","population":"11171","elevation":"","dem":"84","timezone":"America/Mazatlan","modification_date":"2015-06-22"},{"geonameid":"4009984","name":"El Dorado","asciiname":"El Dorado","alternatenames":["El Dorado","Eldorado"],"latitude":"24.32283","longitude":"-107.36298","feature_class":"P","feature_code":"PPL","country_code":"MX","cc2":"","admin1_code":"25","admin2_code":"006","admin3_code":"","admin4_code":"","population":"14136","elevation":"","dem":"13","timezone":"America/Mazatlan","modification_date":"2015-06-22"},{"geonameid":"4010589","name":"El Carrizo","asciiname":"El Carrizo","alternatenames":["El Carrizo"],"latitude":"24.01416","longitude":"-106.85196","feature_class":"P","feature_code":"PPL","country_code":"MX","cc2":"","admin1_code":"25","admin2_code":"008","admin3_code":"","admin4_code":"","population":"4931","elevation":"","dem":"50","timezone":"America/Mazatlan","modification_date":"2015-06-22"},{"geonameid":"4010897","name":"El Burrión","asciiname":"El Burrion","alternatenames":["El Burrion","El Burrión"],"latitude":"25.53878","longitude":"-108.41286","feature_class":"P","feature_code":"PPL","country_code":"MX","cc2":"","admin1_code":"25","admin2_code":"011","admin3_code":"","admin4_code":"","population":"4169","elevation":"","dem":"17","timezone":"America/Mazatlan","modification_date":"2015-06-22"},{"geonameid":"4012173","name":"Culiacancito","asciiname":"Culiacancito","alternatenames":["Culiacancito"],"latitude":"24.82538","longitude":"-107.53445","feature_class":"P","feature_code":"PPL","country_code":"MX","cc2":"","admin1_code":"25","admin2_code":"006","admin3_code":"","admin4_code":"","population":"4201","elevation":"","dem":"33","timezone":"America/Mazatlan","modification_date":"2015-06-22"},{"geonameid":"4012176","name":"Culiacán","asciiname":"Culiacan","alternatenames":["CUL","Colhuahcan Rosales","Cuilacan","Culiacan","Culiacan Rosales","Culiacana","Culiacán","Culiacán Rosales","Cōlhuahcān Rosales","Kul'jakan","Kuliakan","Kulijakan","Kuljakanas","ku leiy kan","ku li ya kan","kuriakan","Кулиакан","Кулијакан","Кульякан","กูเลียกัน","კულიაკანი","クリアカン","库利亚坎"],"latitude":"24.79032","longitude":"-107.38782","feature_class":"P","feature_code":"PPLA","country_code":"MX","cc2":"","admin1_code":"25","admin2_code":"006","admin3_code":"","admin4_code":"","population":"675000","elevation":"","dem":"95","timezone":"America/Mazatlan","modification_date":"2015-06-22"},{"geonameid":"4012693","name":"Villa de Costa Rica","asciiname":"Villa de Costa Rica","alternatenames":["Costa Rica","Kosta-Rika","Villa de Costa Rica","Коста-Рика"],"latitude":"24.59167","longitude":"-107.38836","feature_class":"P","feature_code":"PPL","country_code":"MX","cc2":"","admin1_code":"25","admin2_code":"006","admin3_code":"","admin4_code":"","population":"21662","elevation":"","dem":"31","timezone":"America/Mazatlan","modification_date":"2015-06-22"},{"geonameid":"4012707","name":"Cosalá","asciiname":"Cosala","alternatenames":["Cosala","Cosalá"],"latitude":"24.41501","longitude":"-106.69073","feature_class":"P","feature_code":"PPL","country_code":"MX","cc2":"","admin1_code":"25","admin2_code":"005","admin3_code":"","admin4_code":"","population":"5910","elevation":"","dem":"389","timezone":"America/Mazatlan","modification_date":"2015-06-22"},{"geonameid":"4012966","name":"La Constancia","asciiname":"La Constancia","alternatenames":["Constancia","La Constancia"],"latitude":"24.22363","longitude":"-107.1861","feature_class":"P","feature_code":"PPL","country_code":"MX","cc2":"","admin1_code":"25","admin2_code":"006","admin3_code":"","admin4_code":"","population":"5836","elevation":"","dem":"15","timezone":"America/Mazatlan","modification_date":"2015-06-22"},{"geonameid":"4013063","name":"La Concha (La Concepción)","asciiname":"La Concha (La Concepcion)","alternatenames":["Concepcion","Concepción","La Concepcion","La Concepción"],"latitude":"22.5325","longitude":"-105.4525","feature_class":"P","feature_code":"PPL","country_code":"MX","cc2":"MX","admin1_code":"25","admin2_code":"009","admin3_code":"","admin4_code":"","population":"1400","elevation":"","dem":"18","timezone":"America/Mazatlan","modification_date":"2013-08-01"},{"geonameid":"4013553","name":"Cofradía de Navolato (Cofradía de los Rocha)","asciiname":"Cofradia de Navolato (Cofradia de los Rocha)","alternatenames":["Cofradia","Cofradia de los Rocha","Cofradía","Cofradía de los Rocha"],"latitude":"24.76806","longitude":"-107.64806","feature_class":"P","feature_code":"PPL","country_code":"MX","cc2":"MX","admin1_code":"25","admin2_code":"018","admin3_code":"","admin4_code":"","population":"1503","elevation":"","dem":"19","timezone":"America/Mazatlan","modification_date":"2013-08-01"},{"geonameid":"4014109","name":"Choix","asciiname":"Choix","alternatenames":["Choix","Villa Choix"],"latitude":"26.70901","longitude":"-108.32545","feature_class":"P","feature_code":"PPL","country_code":"MX","cc2":"","admin1_code":"25","admin2_code":"007","admin3_code":"","admin4_code":"","population":"7623","elevation":"","dem":"240","timezone":"America/Mazatlan","modification_date":"2014-11-24"},{"geonameid":"4014579","name":"Chametla","asciiname":"Chametla","alternatenames":[""],"latitude":"22.8775","longitude":"-105.9575","feature_class":"P","feature_code":"PPL","country_code":"MX","cc2":"","admin1_code":"25","admin2_code":"014","admin3_code":"","admin4_code":"","population":"1842","elevation":"","dem":"19","timezone":"America/Mazatlan","modification_date":"2013-07-31"},{"geonameid":"4015938","name":"Villa Juárez","asciiname":"Villa Juarez","alternatenames":["Campo Gobierno","Villa Juarez","Villa Juárez"],"latitude":"24.65869","longitude":"-107.54059","feature_class":"P","feature_code":"PPL","country_code":"MX","cc2":"","admin1_code":"25","admin2_code":"018","admin3_code":"","admin4_code":"","population":"20985","elevation":"","dem":"12","timezone":"America/Mazatlan","modification_date":"2015-06-22"},{"geonameid":"4017739","name":"Bagojo Colectivo","asciiname":"Bagojo Colectivo","alternatenames":[""],"latitude":"25.87417","longitude":"-109.11778","feature_class":"P","feature_code":"PPL","country_code":"MX","cc2":"","admin1_code":"25","admin2_code":"001","admin3_code":"","admin4_code":"","population":"4997","elevation":"","dem":"9","timezone":"America/Mazatlan","modification_date":"2013-08-01"},{"geonameid":"4017743","name":"Badiraguato","asciiname":"Badiraguato","alternatenames":["Badiraguato","Badiriguato"],"latitude":"25.36525","longitude":"-107.55083","feature_class":"P","feature_code":"PPL","country_code":"MX","cc2":"","admin1_code":"25","admin2_code":"003","admin3_code":"","admin4_code":"","population":"3634","elevation":"","dem":"208","timezone":"America/Mazatlan","modification_date":"2015-06-22"},{"geonameid":"4017760","name":"Bacubirito","asciiname":"Bacubirito","alternatenames":["Bacubirito","Bacurrito"],"latitude":"25.80944","longitude":"-107.915","feature_class":"P","feature_code":"PPL","country_code":"MX","cc2":"MX","admin1_code":"25","admin2_code":"017","admin3_code":"","admin4_code":"","population":"1172","elevation":"","dem":"174","timezone":"America/Mazatlan","modification_date":"2013-07-31"},{"geonameid":"4017783","name":"Bachomobampo Número Dos","asciiname":"Bachomobampo Numero Dos","alternatenames":["Bachomobampo","Bachomobampo Numero Dos","Bachomobampo Número Dos","Bachomobempo","Ejido Bachomobampo Numero Dos","Ejido Bachomobampo Número Dos"],"latitude":"25.73888","longitude":"-109.14776","feature_class":"P","feature_code":"PPL","country_code":"MX","cc2":"","admin1_code":"25","admin2_code":"001","admin3_code":"","admin4_code":"","population":"1365","elevation":"","dem":"8","timezone":"America/Mazatlan","modification_date":"2014-11-05"},{"geonameid":"4018499","name":"Angostura","asciiname":"Angostura","alternatenames":["Angostura"],"latitude":"25.36586","longitude":"-108.16107","feature_class":"P","feature_code":"PPL","country_code":"MX","cc2":"","admin1_code":"25","admin2_code":"002","admin3_code":"","admin4_code":"","population":"4587","elevation":"","dem":"28","timezone":"America/Mazatlan","modification_date":"2015-06-22"},{"geonameid":"4018786","name":"Alhuey","asciiname":"Alhuey","alternatenames":[""],"latitude":"25.37806","longitude":"-108.13028","feature_class":"P","feature_code":"PPL","country_code":"MX","cc2":"","admin1_code":"25","admin2_code":"002","admin3_code":"","admin4_code":"","population":"2686","elevation":"","dem":"26","timezone":"America/Mazatlan","modification_date":"2013-07-31"},{"geonameid":"4019098","name":"Ahome","asciiname":"Ahome","alternatenames":["Ahoma","Ahome"],"latitude":"25.91985","longitude":"-109.1732","feature_class":"P","feature_code":"PPL","country_code":"MX","cc2":"","admin1_code":"25","admin2_code":"001","admin3_code":"","admin4_code":"","population":"10806","elevation":"","dem":"13","timezone":"America/Mazatlan","modification_date":"2015-06-22"},{"geonameid":"4019219","name":"Agua Verde","asciiname":"Agua Verde","alternatenames":[""],"latitude":"22.89339","longitude":"-105.97479","feature_class":"P","feature_code":"PPL","country_code":"MX","cc2":"","admin1_code":"25","admin2_code":"014","admin3_code":"","admin4_code":"","population":"4192","elevation":"","dem":"11","timezone":"America/Mazatlan","modification_date":"2015-06-22"},{"geonameid":"4019598","name":"Agua Caliente Grande (De Gastélum)","asciiname":"Agua Caliente Grande (De Gastelum)","alternatenames":[""],"latitude":"26.53762","longitude":"-108.34814","feature_class":"P","feature_code":"PPL","country_code":"MX","cc2":"","admin1_code":"25","admin2_code":"007","admin3_code":"","admin4_code":"","population":"1540","elevation":"","dem":"272","timezone":"America/Mazatlan","modification_date":"2013-08-01"},{"geonameid":"4019727","name":"Adolfo Ruíz Cortínes","asciiname":"Adolfo Ruiz Cortines","alternatenames":["Adolfo Ruiz Cortines","Adolfo Ruiz Cortinez","Adolfo Ruiz Cortínez","Adolfo Ruíz Cortínes","Ruiz Cortines","Ruiz Cortines Numero Tres","Ruíz Cortines Número Tres"],"latitude":"25.75","longitude":"-108.75","feature_class":"P","feature_code":"PPL","country_code":"MX","cc2":"","admin1_code":"25","admin2_code":"011","admin3_code":"","admin4_code":"","population":"12947","elevation":"","dem":"19","timezone":"America/Mazatlan","modification_date":"2015-06-22"},{"geonameid":"8858101","name":"Licenciado Benito Juárez (Campo Gobierno)","asciiname":"Licenciado Benito Juarez (Campo Gobierno)","alternatenames":["Licenciado Benito Juarez (Campo Gobierno)","Licenciado Benito Juárez (Campo Gobierno)"],"latitude":"24.65667","longitude":"-107.545","feature_class":"P","feature_code":"PPL","country_code":"MX","cc2":"","admin1_code":"25","admin2_code":"018","admin3_code":"","admin4_code":"","population":"24185","elevation":"","dem":"11","timezone":"America/Mazatlan","modification_date":"2014-04-11"},{"geonameid":"8858163","name":"General Ángel Flores (La Palma)","asciiname":"General Angel Flores (La Palma)","alternatenames":["General Angel Flores (La Palma)","General Ángel Flores (La Palma)"],"latitude":"24.81917","longitude":"-107.65667","feature_class":"P","feature_code":"PPL","country_code":"MX","cc2":"","admin1_code":"25","admin2_code":"018","admin3_code":"","admin4_code":"","population":"9812","elevation":"","dem":"17","timezone":"America/Mazatlan","modification_date":"2014-04-11"},{"geonameid":"8858203","name":"El Diez","asciiname":"El Diez","alternatenames":["El Diez"],"latitude":"24.72389","longitude":"-107.45194","feature_class":"P","feature_code":"PPL","country_code":"MX","cc2":"","admin1_code":"25","admin2_code":"006","admin3_code":"","admin4_code":"","population":"6939","elevation":"","dem":"31","timezone":"America/Mazatlan","modification_date":"2014-04-11"},{"geonameid":"8858221","name":"Fraccionamiento los Ángeles","asciiname":"Fraccionamiento los Angeles","alternatenames":["Fraccionamiento los Angeles","Fraccionamiento los Ángeles"],"latitude":"23.18833","longitude":"-106.33","feature_class":"P","feature_code":"PPL","country_code":"MX","cc2":"","admin1_code":"25","admin2_code":"012","admin3_code":"","admin4_code":"","population":"6282","elevation":"","dem":"8","timezone":"America/Mazatlan","modification_date":"2014-04-11"},{"geonameid":"8858251","name":"Adolfo López Mateos (El Tamarindo)","asciiname":"Adolfo Lopez Mateos (El Tamarindo)","alternatenames":["Adolfo Lopez Mateos (El Tamarindo)","Adolfo López Mateos (El Tamarindo)"],"latitude":"24.89639","longitude":"-107.63278","feature_class":"P","feature_code":"PPL","country_code":"MX","cc2":"","admin1_code":"25","admin2_code":"006","admin3_code":"","admin4_code":"","population":"5546","elevation":"","dem":"42","timezone":"America/Mazatlan","modification_date":"2014-04-11"},{"geonameid":"8858370","name":"Alfonso G. Calderón (Poblado Siete)","asciiname":"Alfonso G. Calderon (Poblado Siete)","alternatenames":["Alfonso G. Calderon (Poblado Siete)","Alfonso G. Calderón (Poblado Siete)"],"latitude":"26.06528","longitude":"-109.01972","feature_class":"P","feature_code":"PPL","country_code":"MX","cc2":"","admin1_code":"25","admin2_code":"001","admin3_code":"","admin4_code":"","population":"3456","elevation":"","dem":"30","timezone":"America/Mazatlan","modification_date":"2014-04-11"},{"geonameid":"8858378","name":"Genaro Estrada","asciiname":"Genaro Estrada","alternatenames":["Genaro Estrada"],"latitude":"25.93611","longitude":"-108.39639","feature_class":"P","feature_code":"PPL","country_code":"MX","cc2":"","admin1_code":"25","admin2_code":"017","admin3_code":"","admin4_code":"","population":"3355","elevation":"","dem":"97","timezone":"America/Mazatlan","modification_date":"2014-04-11"},{"geonameid":"8858426","name":"Nuevo San Miguel","asciiname":"Nuevo San Miguel","alternatenames":["Nuevo San Miguel"],"latitude":"25.96306","longitude":"-109.05401","feature_class":"P","feature_code":"PPL","country_code":"MX","cc2":"","admin1_code":"25","admin2_code":"001","admin3_code":"","admin4_code":"","population":"3025","elevation":"","dem":"18","timezone":"America/Mazatlan","modification_date":"2014-04-11"},{"geonameid":"8858448","name":"Juan Aldama (El Tigre)","asciiname":"Juan Aldama (El Tigre)","alternatenames":["Juan Aldama (El Tigre)"],"latitude":"24.93972","longitude":"-107.82083","feature_class":"P","feature_code":"PPL","country_code":"MX","cc2":"","admin1_code":"25","admin2_code":"018","admin3_code":"","admin4_code":"","population":"2889","elevation":"","dem":"20","timezone":"America/Mazatlan","modification_date":"2014-04-11"},{"geonameid":"8858492","name":"Colonia Agrícola México (Palmitas)","asciiname":"Colonia Agricola Mexico (Palmitas)","alternatenames":["Colonia Agricola Mexico (Palmitas)","Colonia Agrícola México (Palmitas)"],"latitude":"25.10972","longitude":"-107.94472","feature_class":"P","feature_code":"PPL","country_code":"MX","cc2":"","admin1_code":"25","admin2_code":"002","admin3_code":"","admin4_code":"","population":"2692","elevation":"","dem":"25","timezone":"America/Mazatlan","modification_date":"2014-04-11"},{"geonameid":"8858493","name":"Cerrillos (Campo 35)","asciiname":"Cerrillos (Campo 35)","alternatenames":["Cerrillos (Campo 35)"],"latitude":"25.87806","longitude":"-108.90139","feature_class":"P","feature_code":"PPL","country_code":"MX","cc2":"","admin1_code":"25","admin2_code":"001","admin3_code":"","admin4_code":"","population":"2677","elevation":"","dem":"48","timezone":"America/Mazatlan","modification_date":"2014-04-11"},{"geonameid":"8858494","name":"El Varal (San Sebastián Número Uno)","asciiname":"El Varal (San Sebastian Numero Uno)","alternatenames":["El Varal (San Sebastian Numero Uno)","El Varal (San Sebastián Número Uno)"],"latitude":"25.64278","longitude":"-108.425","feature_class":"P","feature_code":"PPL","country_code":"MX","cc2":"","admin1_code":"25","admin2_code":"011","admin3_code":"","admin4_code":"","population":"2677","elevation":"","dem":"27","timezone":"America/Mazatlan","modification_date":"2014-04-11"},{"geonameid":"8858503","name":"Poblado Número Cinco","asciiname":"Poblado Numero Cinco","alternatenames":["Poblado Numero Cinco","Poblado Número Cinco"],"latitude":"26.2225","longitude":"-109.06167","feature_class":"P","feature_code":"PPL","country_code":"MX","cc2":"","admin1_code":"25","admin2_code":"001","admin3_code":"","admin4_code":"","population":"2651","elevation":"","dem":"11","timezone":"America/Mazatlan","modification_date":"2014-04-11"},{"geonameid":"8858545","name":"Gabriel Leyva Velázquez","asciiname":"Gabriel Leyva Velazquez","alternatenames":["Gabriel Leyva Velazquez","Gabriel Leyva Velázquez"],"latitude":"25.79111","longitude":"-108.56333","feature_class":"P","feature_code":"PPL","country_code":"MX","cc2":"","admin1_code":"25","admin2_code":"017","admin3_code":"","admin4_code":"","population":"2529","elevation":"","dem":"45","timezone":"America/Mazatlan","modification_date":"2014-04-11"},{"geonameid":"8858621","name":"Pueblos Unidos","asciiname":"Pueblos Unidos","alternatenames":["Pueblos Unidos"],"latitude":"24.2925","longitude":"-107.15139","feature_class":"P","feature_code":"PPL","country_code":"MX","cc2":"","admin1_code":"25","admin2_code":"006","admin3_code":"","admin4_code":"","population":"2287","elevation":"","dem":"39","timezone":"America/Mazatlan","modification_date":"2014-04-11"},{"geonameid":"8858625","name":"Alfonso G. Calderón Velarde","asciiname":"Alfonso G. Calderon Velarde","alternatenames":["Alfonso G. Calderon Velarde","Alfonso G. Calderón Velarde"],"latitude":"25.78556","longitude":"-108.60222","feature_class":"P","feature_code":"PPL","country_code":"MX","cc2":"","admin1_code":"25","admin2_code":"017","admin3_code":"","admin4_code":"","population":"2265","elevation":"","dem":"43","timezone":"America/Mazatlan","modification_date":"2014-04-11"},{"geonameid":"8858704","name":"Heriberto Valdez Romero (El Guayabo)","asciiname":"Heriberto Valdez Romero (El Guayabo)","alternatenames":["Heriberto Valdez Romero (El Guayabo)"],"latitude":"25.94056","longitude":"-109.13722","feature_class":"P","feature_code":"PPL","country_code":"MX","cc2":"","admin1_code":"25","admin2_code":"001","admin3_code":"","admin4_code":"","population":"2065","elevation":"","dem":"19","timezone":"America/Mazatlan","modification_date":"2014-04-11"},{"geonameid":"8858733","name":"Ricardo Flores Magón","asciiname":"Ricardo Flores Magon","alternatenames":["Ricardo Flores Magon","Ricardo Flores Magón"],"latitude":"25.74056","longitude":"-108.99583","feature_class":"P","feature_code":"PPL","country_code":"MX","cc2":"","admin1_code":"25","admin2_code":"001","admin3_code":"","admin4_code":"","population":"1993","elevation":"","dem":"13","timezone":"America/Mazatlan","modification_date":"2014-04-11"},{"geonameid":"8858738","name":"Oso Viejo","asciiname":"Oso Viejo","alternatenames":["Oso Viejo"],"latitude":"24.39944","longitude":"-107.17139","feature_class":"P","feature_code":"PPL","country_code":"MX","cc2":"","admin1_code":"25","admin2_code":"006","admin3_code":"","admin4_code":"","population":"1980","elevation":"","dem":"62","timezone":"America/Mazatlan","modification_date":"2014-04-11"},{"geonameid":"8858744","name":"El Pozole","asciiname":"El Pozole","alternatenames":["El Pozole"],"latitude":"22.91472","longitude":"-105.91333","feature_class":"P","feature_code":"PPL","country_code":"MX","cc2":"","admin1_code":"25","admin2_code":"014","admin3_code":"","admin4_code":"","population":"1971","elevation":"","dem":"16","timezone":"America/Mazatlan","modification_date":"2014-04-11"},{"geonameid":"8858873","name":"Ejido Cajón Ojo de Agua Número Dos","asciiname":"Ejido Cajon Ojo de Agua Numero Dos","alternatenames":["Ejido Cajon Ojo de Agua Numero Dos","Ejido Cajón Ojo de Agua Número Dos"],"latitude":"22.9","longitude":"-105.97139","feature_class":"P","feature_code":"PPL","country_code":"MX","cc2":"","admin1_code":"25","admin2_code":"014","admin3_code":"","admin4_code":"","population":"1750","elevation":"","dem":"10","timezone":"America/Mazatlan","modification_date":"2014-04-11"},{"geonameid":"8858902","name":"Campo la Arrocera","asciiname":"Campo la Arrocera","alternatenames":["Campo la Arrocera"],"latitude":"25.845","longitude":"-108.91833","feature_class":"P","feature_code":"PPL","country_code":"MX","cc2":"","admin1_code":"25","admin2_code":"001","admin3_code":"","admin4_code":"","population":"1709","elevation":"","dem":"20","timezone":"America/Mazatlan","modification_date":"2014-04-11"},{"geonameid":"8858903","name":"Pueblo Nuevo","asciiname":"Pueblo Nuevo","alternatenames":["Pueblo Nuevo"],"latitude":"23.99111","longitude":"-106.95639","feature_class":"P","feature_code":"PPL","country_code":"MX","cc2":"","admin1_code":"25","admin2_code":"008","admin3_code":"","admin4_code":"","population":"1709","elevation":"","dem":"20","timezone":"America/Mazatlan","modification_date":"2014-04-11"},{"geonameid":"8858957","name":"Estación Obispo","asciiname":"Estacion Obispo","alternatenames":["Estacion Obispo","Estación Obispo"],"latitude":"24.29306","longitude":"-107.15944","feature_class":"P","feature_code":"PPL","country_code":"MX","cc2":"","admin1_code":"25","admin2_code":"006","admin3_code":"","admin4_code":"","population":"1622","elevation":"","dem":"38","timezone":"America/Mazatlan","modification_date":"2014-04-11"},{"geonameid":"8858975","name":"San Isidro","asciiname":"San Isidro","alternatenames":["San Isidro"],"latitude":"25.97722","longitude":"-109.25111","feature_class":"P","feature_code":"PPL","country_code":"MX","cc2":"","admin1_code":"25","admin2_code":"001","admin3_code":"","admin4_code":"","population":"1606","elevation":"","dem":"11","timezone":"America/Mazatlan","modification_date":"2014-04-11"},{"geonameid":"8859033","name":"Miguel Valdez Quintero (El Corazón)","asciiname":"Miguel Valdez Quintero (El Corazon)","alternatenames":["Miguel Valdez Quintero (El Corazon)","Miguel Valdez Quintero (El Corazón)"],"latitude":"24.49417","longitude":"-107.31778","feature_class":"P","feature_code":"PPL","country_code":"MX","cc2":"","admin1_code":"25","admin2_code":"006","admin3_code":"","admin4_code":"","population":"1530","elevation":"","dem":"33","timezone":"America/Mazatlan","modification_date":"2014-04-11"},{"geonameid":"8859078","name":"Colonia 24 de Febrero","asciiname":"Colonia 24 de Febrero","alternatenames":["Colonia 24 de Febrero"],"latitude":"25.64722","longitude":"-108.64917","feature_class":"P","feature_code":"PPL","country_code":"MX","cc2":"","admin1_code":"25","admin2_code":"011","admin3_code":"","admin4_code":"","population":"1486","elevation":"","dem":"17","timezone":"America/Mazatlan","modification_date":"2014-04-11"},{"geonameid":"8859113","name":"Goros Número Dos","asciiname":"Goros Numero Dos","alternatenames":["Goros Numero Dos","Goros Número Dos"],"latitude":"25.87694","longitude":"-109.04417","feature_class":"P","feature_code":"PPL","country_code":"MX","cc2":"","admin1_code":"25","admin2_code":"001","admin3_code":"","admin4_code":"","population":"1453","elevation":"","dem":"21","timezone":"America/Mazatlan","modification_date":"2014-04-11"},{"geonameid":"8859118","name":"Gabriel Leyva Solano (Zapotillo Dos)","asciiname":"Gabriel Leyva Solano (Zapotillo Dos)","alternatenames":["Gabriel Leyva Solano (Zapotillo Dos)"],"latitude":"25.88306","longitude":"-109.00917","feature_class":"P","feature_code":"PPL","country_code":"MX","cc2":"","admin1_code":"25","admin2_code":"001","admin3_code":"","admin4_code":"","population":"1450","elevation":"","dem":"22","timezone":"America/Mazatlan","modification_date":"2014-04-11"},{"geonameid":"8859143","name":"Javier Rojo Gómez","asciiname":"Javier Rojo Gomez","alternatenames":["Javier Rojo Gomez","Javier Rojo Gómez"],"latitude":"25.49472","longitude":"-108.3775","feature_class":"P","feature_code":"PPL","country_code":"MX","cc2":"","admin1_code":"25","admin2_code":"011","admin3_code":"","admin4_code":"","population":"1429","elevation":"","dem":"17","timezone":"America/Mazatlan","modification_date":"2014-04-11"},{"geonameid":"8859172","name":"Orba (Infiernito)","asciiname":"Orba (Infiernito)","alternatenames":["Orba (Infiernito)"],"latitude":"25.68944","longitude":"-108.36278","feature_class":"P","feature_code":"PPL","country_code":"MX","cc2":"","admin1_code":"25","admin2_code":"011","admin3_code":"","admin4_code":"","population":"1407","elevation":"","dem":"35","timezone":"America/Mazatlan","modification_date":"2014-04-11"},{"geonameid":"8859222","name":"Buen Retiro (El Retiro)","asciiname":"Buen Retiro (El Retiro)","alternatenames":["Buen Retiro (El Retiro)"],"latitude":"25.46194","longitude":"-108.47833","feature_class":"P","feature_code":"PPL","country_code":"MX","cc2":"","admin1_code":"25","admin2_code":"011","admin3_code":"","admin4_code":"","population":"1364","elevation":"","dem":"17","timezone":"America/Mazatlan","modification_date":"2014-04-11"},{"geonameid":"8859251","name":"Alfredo V. Bonfil (Siete Ejidos)","asciiname":"Alfredo V. Bonfil (Siete Ejidos)","alternatenames":["Alfredo V. Bonfil (Siete Ejidos)"],"latitude":"25.64306","longitude":"-108.23333","feature_class":"P","feature_code":"PPL","country_code":"MX","cc2":"","admin1_code":"25","admin2_code":"017","admin3_code":"","admin4_code":"","population":"1345","elevation":"","dem":"54","timezone":"America/Mazatlan","modification_date":"2014-04-11"},{"geonameid":"8859358","name":"Empaque Tarriba","asciiname":"Empaque Tarriba","alternatenames":["Empaque Tarriba"],"latitude":"23.90028","longitude":"-106.93111","feature_class":"P","feature_code":"PPL","country_code":"MX","cc2":"","admin1_code":"25","admin2_code":"008","admin3_code":"","admin4_code":"","population":"1268","elevation":"","dem":"7","timezone":"America/Mazatlan","modification_date":"2014-04-11"},{"geonameid":"8859363","name":"Estación Capomas","asciiname":"Estacion Capomas","alternatenames":["Estacion Capomas","Estación Capomas"],"latitude":"25.60111","longitude":"-108.22361","feature_class":"P","feature_code":"PPL","country_code":"MX","cc2":"","admin1_code":"25","admin2_code":"011","admin3_code":"","admin4_code":"","population":"1265","elevation":"","dem":"44","timezone":"America/Mazatlan","modification_date":"2014-04-11"},{"geonameid":"8859381","name":"Higuera de los Vega","asciiname":"Higuera de los Vega","alternatenames":["Higuera de los Vega"],"latitude":"25.655","longitude":"-107.95778","feature_class":"P","feature_code":"PPL","country_code":"MX","cc2":"","admin1_code":"25","admin2_code":"013","admin3_code":"","admin4_code":"","population":"1256","elevation":"","dem":"181","timezone":"America/Mazatlan","modification_date":"2014-04-11"},{"geonameid":"8859440","name":"CERESO Nuevo","asciiname":"CERESO Nuevo","alternatenames":["CERESO Nuevo"],"latitude":"25.89139","longitude":"-109.04222","feature_class":"P","feature_code":"PPL","country_code":"MX","cc2":"","admin1_code":"25","admin2_code":"001","admin3_code":"","admin4_code":"","population":"1227","elevation":"","dem":"17","timezone":"America/Mazatlan","modification_date":"2014-04-11"},{"geonameid":"8859442","name":"Ladrilleras de Ocoro","asciiname":"Ladrilleras de Ocoro","alternatenames":["Ladrilleras de Ocoro"],"latitude":"25.59806","longitude":"-108.44944","feature_class":"P","feature_code":"PPL","country_code":"MX","cc2":"","admin1_code":"25","admin2_code":"011","admin3_code":"","admin4_code":"","population":"1226","elevation":"","dem":"18","timezone":"America/Mazatlan","modification_date":"2014-04-11"},{"geonameid":"8859478","name":"Potrero de los Sánchez (Estación Techa)","asciiname":"Potrero de los Sanchez (Estacion Techa)","alternatenames":["Potrero de los Sanchez (Estacion Techa)","Potrero de los Sánchez (Estación Techa)"],"latitude":"25.11","longitude":"-107.90111","feature_class":"P","feature_code":"PPL","country_code":"MX","cc2":"","admin1_code":"25","admin2_code":"013","admin3_code":"","admin4_code":"","population":"1205","elevation":"","dem":"43","timezone":"America/Mazatlan","modification_date":"2014-04-11"},{"geonameid":"8859481","name":"La Palmita y Anexos (La Presita)","asciiname":"La Palmita y Anexos (La Presita)","alternatenames":["La Palmita y Anexos (La Presita)"],"latitude":"24.90917","longitude":"-107.45194","feature_class":"P","feature_code":"PPL","country_code":"MX","cc2":"","admin1_code":"25","admin2_code":"006","admin3_code":"","admin4_code":"","population":"1203","elevation":"","dem":"76","timezone":"America/Mazatlan","modification_date":"2014-04-11"},{"geonameid":"8859578","name":"Gambino","asciiname":"Gambino","alternatenames":["Gambino"],"latitude":"25.65167","longitude":"-108.38639","feature_class":"P","feature_code":"PPL","country_code":"MX","cc2":"","admin1_code":"25","admin2_code":"011","admin3_code":"","admin4_code":"","population":"1151","elevation":"","dem":"29","timezone":"America/Mazatlan","modification_date":"2014-04-11"},{"geonameid":"8859674","name":"Los Pozos","asciiname":"Los Pozos","alternatenames":["Los Pozos"],"latitude":"23.00944","longitude":"-106.1525","feature_class":"P","feature_code":"PPL","country_code":"MX","cc2":"","admin1_code":"25","admin2_code":"014","admin3_code":"","admin4_code":"","population":"1110","elevation":"","dem":"9","timezone":"America/Mazatlan","modification_date":"2014-04-11"},{"geonameid":"8859703","name":"Vallejo (Porvenir Vallejo)","asciiname":"Vallejo (Porvenir Vallejo)","alternatenames":["Vallejo (Porvenir Vallejo)"],"latitude":"25.88278","longitude":"-109.07361","feature_class":"P","feature_code":"PPL","country_code":"MX","cc2":"","admin1_code":"25","admin2_code":"001","admin3_code":"","admin4_code":"","population":"1098","elevation":"","dem":"16","timezone":"America/Mazatlan","modification_date":"2014-04-11"},{"geonameid":"8859739","name":"Concentración 5 de Febrero","asciiname":"Concentracion 5 de Febrero","alternatenames":["Concentracion 5 de Febrero","Concentración 5 de Febrero"],"latitude":"25.85639","longitude":"-108.62944","feature_class":"P","feature_code":"PPL","country_code":"MX","cc2":"","admin1_code":"25","admin2_code":"017","admin3_code":"","admin4_code":"","population":"1080","elevation":"","dem":"61","timezone":"America/Mazatlan","modification_date":"2014-04-11"}]}