{"region_data":{"countryId":"3996063","adminCode1":"12","countryName":"Mexico","fclName":"country, state, region,...","countryCode":"MX","lng":"-100","fcodeName":"first-order administrative division","toponymName":"Estado de Guerrero","fcl":"A","numberOfChildren":81,"name":"Guerrero","fcode":"ADM1","geonameId":3527213,"lat":"17.66667","adminName1":"Guerrero","population":3237579},"country_data":{"ISO":"MX","ISO3":"MEX","ISO_Numeric":"484","fips":"MX","country":"Mexico","capital":"Mexico City","area":"1972550","Population":"112468855","Continent":"NA","tld":".mx","CurrencyCode":"MXN","CurrencyName":"Peso","Phone":"52","Postal_Code_Format":"#####","Postal_Code_Regex":"^(\\d{5})$","Languages":"es-MX","geonameid":"3996063","neighbours":"GT,US,BZ","EquivalentFipsCode":""},"cities":[{"geonameid":"3513967","name":"Zumpango del Río","asciiname":"Zumpango del Rio","alternatenames":["Xumpango","Zumpango","Zumpango del Rio","Zumpango del Río","Zumpango-del'-Rio","Зумпанго-дель-Рио"],"latitude":"17.65319","longitude":"-99.52607","feature_class":"P","feature_code":"PPL","country_code":"MX","cc2":"","admin1_code":"12","admin2_code":"075","admin3_code":"","admin4_code":"","population":"21143","elevation":"","dem":"1047","timezone":"America/Mexico_City","modification_date":"2015-06-22"},{"geonameid":"3514021","name":"Zitlala","asciiname":"Zitlala","alternatenames":["Zitlala"],"latitude":"17.69049","longitude":"-99.18642","feature_class":"P","feature_code":"PPL","country_code":"MX","cc2":"","admin1_code":"12","admin2_code":"074","admin3_code":"","admin4_code":"","population":"6065","elevation":"","dem":"1369","timezone":"America/Mexico_City","modification_date":"2014-09-05"},{"geonameid":"3514440","name":"Xochistlahuaca","asciiname":"Xochistlahuaca","alternatenames":["Xochistlahuaca"],"latitude":"16.78915","longitude":"-98.24172","feature_class":"P","feature_code":"PPL","country_code":"MX","cc2":"","admin1_code":"12","admin2_code":"071","admin3_code":"","admin4_code":"","population":"3566","elevation":"","dem":"375","timezone":"America/Mexico_City","modification_date":"2015-06-22"},{"geonameid":"3514454","name":"Xochihuehuetlán","asciiname":"Xochihuehuetlan","alternatenames":["Xochihuehuetlan","Xochihuehuetlán"],"latitude":"17.90619","longitude":"-98.48818","feature_class":"P","feature_code":"PPL","country_code":"MX","cc2":"","admin1_code":"12","admin2_code":"070","admin3_code":"","admin4_code":"","population":"5158","elevation":"","dem":"1041","timezone":"America/Mexico_City","modification_date":"2015-06-22"},{"geonameid":"3514583","name":"Xaltianguis","asciiname":"Xaltianguis","alternatenames":["Jaltianguis","Xaltianguis"],"latitude":"17.09869","longitude":"-99.71532","feature_class":"P","feature_code":"PPL","country_code":"MX","cc2":"","admin1_code":"12","admin2_code":"001","admin3_code":"","admin4_code":"","population":"6933","elevation":"","dem":"543","timezone":"America/Mexico_City","modification_date":"2015-06-22"},{"geonameid":"3514592","name":"Xalpatlahuac","asciiname":"Xalpatlahuac","alternatenames":["Xalpatlahuac"],"latitude":"17.47066","longitude":"-98.60675","feature_class":"P","feature_code":"PPL","country_code":"MX","cc2":"","admin1_code":"12","admin2_code":"069","admin3_code":"","admin4_code":"","population":"4054","elevation":"","dem":"1547","timezone":"America/Mexico_City","modification_date":"2015-06-22"},{"geonameid":"3515384","name":"Tlapa de Comonfort","asciiname":"Tlapa de Comonfort","alternatenames":["Tlapa","Tlapa de Comonfort","Tlapa-de-Komonfort","Тлапа-де-Комонфорт"],"latitude":"17.54042","longitude":"-98.57952","feature_class":"P","feature_code":"PPL","country_code":"MX","cc2":"","admin1_code":"12","admin2_code":"066","admin3_code":"","admin4_code":"","population":"36873","elevation":"","dem":"1113","timezone":"America/Mexico_City","modification_date":"2015-06-22"},{"geonameid":"3515404","name":"Tlamixtlahuacan","asciiname":"Tlamixtlahuacan","alternatenames":[""],"latitude":"17.50306","longitude":"-99.22583","feature_class":"P","feature_code":"PPL","country_code":"MX","cc2":"","admin1_code":"12","admin2_code":"028","admin3_code":"","admin4_code":"","population":"3031","elevation":"","dem":"1218","timezone":"America/Mexico_City","modification_date":"2013-08-01"},{"geonameid":"3515410","name":"Tlamacazapa","asciiname":"Tlamacazapa","alternatenames":["San Juan Tlamacazapa","Tlamacaxapa","Tlamacaxpan","Tlamacazapa"],"latitude":"18.49685","longitude":"-99.50185","feature_class":"P","feature_code":"PPL","country_code":"MX","cc2":"","admin1_code":"12","admin2_code":"055","admin3_code":"","admin4_code":"","population":"6234","elevation":"","dem":"1958","timezone":"America/Mexico_City","modification_date":"2013-07-31"},{"geonameid":"3515477","name":"Tlacotepec","asciiname":"Tlacotepec","alternatenames":["Tlacotepec"],"latitude":"17.78978","longitude":"-99.97961","feature_class":"P","feature_code":"PPL","country_code":"MX","cc2":"","admin1_code":"12","admin2_code":"032","admin3_code":"","admin4_code":"","population":"6513","elevation":"","dem":"1540","timezone":"America/Mexico_City","modification_date":"2015-06-22"},{"geonameid":"3515490","name":"Tlacoachistlahuaca","asciiname":"Tlacoachistlahuaca","alternatenames":["Tlacoachistlahuaca","Tlacoachixtlahuaca"],"latitude":"16.81045","longitude":"-98.30078","feature_class":"P","feature_code":"PPL","country_code":"MX","cc2":"","admin1_code":"12","admin2_code":"062","admin3_code":"","admin4_code":"","population":"4359","elevation":"","dem":"414","timezone":"America/Mexico_City","modification_date":"2014-10-01"},{"geonameid":"3515510","name":"Tixtla de Guerrero","asciiname":"Tixtla de Guerrero","alternatenames":["Tikhtla-de-Gerrero","Tixtla","Тихтла-де-Герреро"],"latitude":"17.56732","longitude":"-99.39799","feature_class":"P","feature_code":"PPL","country_code":"MX","cc2":"","admin1_code":"12","admin2_code":"061","admin3_code":"","admin4_code":"","population":"21130","elevation":"","dem":"1354","timezone":"America/Mexico_City","modification_date":"2015-06-22"},{"geonameid":"3515643","name":"Tierra Colorada","asciiname":"Tierra Colorada","alternatenames":["Tierra Colorada"],"latitude":"17.16471","longitude":"-99.52706","feature_class":"P","feature_code":"PPL","country_code":"MX","cc2":"","admin1_code":"12","admin2_code":"039","admin3_code":"","admin4_code":"","population":"10202","elevation":"","dem":"283","timezone":"America/Mexico_City","modification_date":"2015-06-22"},{"geonameid":"3515746","name":"Tetipac","asciiname":"Tetipac","alternatenames":["Teticpac","Tetipac"],"latitude":"18.64778","longitude":"-99.64778","feature_class":"P","feature_code":"PPL","country_code":"MX","cc2":"MX","admin1_code":"12","admin2_code":"060","admin3_code":"","admin4_code":"","population":"2042","elevation":"","dem":"1676","timezone":"America/Mexico_City","modification_date":"2013-07-31"},{"geonameid":"3515900","name":"Tepecoacuilco de Trujano","asciiname":"Tepecoacuilco de Trujano","alternatenames":["Tepecoacuilco","Tepecoacuilco de Trujano","Tepecuacuilco de Trujano"],"latitude":"18.27723","longitude":"-99.47039","feature_class":"P","feature_code":"PPL","country_code":"MX","cc2":"","admin1_code":"12","admin2_code":"059","admin3_code":"","admin4_code":"","population":"5922","elevation":"","dem":"829","timezone":"America/Mexico_City","modification_date":"2015-06-22"},{"geonameid":"3516060","name":"Teloloapan","asciiname":"Teloloapan","alternatenames":["Teloloapan"],"latitude":"18.3674","longitude":"-99.86776","feature_class":"P","feature_code":"PPLA2","country_code":"MX","cc2":"","admin1_code":"12","admin2_code":"058","admin3_code":"","admin4_code":"","population":"21244","elevation":"","dem":"1642","timezone":"America/Mexico_City","modification_date":"2015-06-22"},{"geonameid":"3516171","name":"Barra de Tecoanapa","asciiname":"Barra de Tecoanapa","alternatenames":["Barra Tecoana","Barra de Tecoanapa","Tecoanapa"],"latitude":"16.50864","longitude":"-98.73216","feature_class":"P","feature_code":"PPL","country_code":"MX","cc2":"","admin1_code":"12","admin2_code":"077","admin3_code":"","admin4_code":"","population":"3675","elevation":"","dem":"6","timezone":"America/Mexico_City","modification_date":"2015-06-22"},{"geonameid":"3516225","name":"Taxco de Alarcón","asciiname":"Taxco de Alarcon","alternatenames":["Tasco","Tasko-de-Alarkon","Taxco","Taxco de Alarcon","Taxco de Alarcón","Таско-де-Аларкон"],"latitude":"18.55629","longitude":"-99.60491","feature_class":"P","feature_code":"PPL","country_code":"MX","cc2":"","admin1_code":"12","admin2_code":"055","admin3_code":"","admin4_code":"","population":"53217","elevation":"","dem":"1771","timezone":"America/Mexico_City","modification_date":"2015-06-22"},{"geonameid":"3518461","name":"San Marcos","asciiname":"San Marcos","alternatenames":["San Marcos"],"latitude":"16.79772","longitude":"-99.38921","feature_class":"P","feature_code":"PPL","country_code":"MX","cc2":"","admin1_code":"12","admin2_code":"053","admin3_code":"","admin4_code":"","population":"12278","elevation":"","dem":"90","timezone":"America/Mexico_City","modification_date":"2015-06-22"},{"geonameid":"3519358","name":"San Francisco Ozomatlán","asciiname":"San Francisco Ozomatlan","alternatenames":[""],"latitude":"17.92537","longitude":"-99.33902","feature_class":"P","feature_code":"PPL","country_code":"MX","cc2":"","admin1_code":"12","admin2_code":"034","admin3_code":"","admin4_code":"","population":"1410","elevation":"","dem":"534","timezone":"America/Mexico_City","modification_date":"2013-08-01"},{"geonameid":"3519975","name":"San Agustín Oapan","asciiname":"San Agustin Oapan","alternatenames":["San Agustin Coapan","San Agustin Oapan","San Agustín Coapan","San Agustín Oapan"],"latitude":"17.9525","longitude":"-99.43806","feature_class":"P","feature_code":"PPL","country_code":"MX","cc2":"MX","admin1_code":"12","admin2_code":"059","admin3_code":"","admin4_code":"","population":"1912","elevation":"","dem":"514","timezone":"America/Mexico_City","modification_date":"2013-07-31"},{"geonameid":"3520922","name":"Quechultenango","asciiname":"Quechultenango","alternatenames":["Quechultenango"],"latitude":"17.41222","longitude":"-99.24321","feature_class":"P","feature_code":"PPL","country_code":"MX","cc2":"","admin1_code":"12","admin2_code":"051","admin3_code":"","admin4_code":"","population":"5112","elevation":"","dem":"841","timezone":"America/Mexico_City","modification_date":"2015-06-22"},{"geonameid":"3521607","name":"Petaquillas","asciiname":"Petaquillas","alternatenames":["Petaquilla","Petaquillas"],"latitude":"17.48636","longitude":"-99.45633","feature_class":"P","feature_code":"PPL","country_code":"MX","cc2":"","admin1_code":"12","admin2_code":"029","admin3_code":"","admin4_code":"","population":"6033","elevation":"","dem":"1153","timezone":"America/Mexico_City","modification_date":"2015-06-22"},{"geonameid":"3522215","name":"San Martín Pachivia (Pachivia)","asciiname":"San Martin Pachivia (Pachivia)","alternatenames":[""],"latitude":"18.40855","longitude":"-99.78759","feature_class":"P","feature_code":"PPL","country_code":"MX","cc2":"","admin1_code":"12","admin2_code":"037","admin3_code":"","admin4_code":"","population":"1141","elevation":"","dem":"1370","timezone":"America/Mexico_City","modification_date":"2013-08-01"},{"geonameid":"3522343","name":"Ometepec","asciiname":"Ometepec","alternatenames":["Ometepec"],"latitude":"16.69008","longitude":"-98.40797","feature_class":"P","feature_code":"PPL","country_code":"MX","cc2":"","admin1_code":"12","admin2_code":"046","admin3_code":"","admin4_code":"","population":"17801","elevation":"","dem":"334","timezone":"America/Mexico_City","modification_date":"2015-06-22"},{"geonameid":"3522364","name":"Olinalá","asciiname":"Olinala","alternatenames":["Olinala","Olinalá"],"latitude":"17.77861","longitude":"-98.73944","feature_class":"P","feature_code":"PPL","country_code":"MX","cc2":"","admin1_code":"12","admin2_code":"045","admin3_code":"","admin4_code":"","population":"5452","elevation":"","dem":"1339","timezone":"America/Mexico_City","modification_date":"2015-06-22"},{"geonameid":"3523096","name":"Mohoneras","asciiname":"Mohoneras","alternatenames":["Cuadrilla Mohonera","Mohoneras","Mojoneras"],"latitude":"17.235","longitude":"-99.51611","feature_class":"P","feature_code":"PPL","country_code":"MX","cc2":"MX","admin1_code":"12","admin2_code":"029","admin3_code":"","admin4_code":"","population":"1777","elevation":"","dem":"712","timezone":"America/Mexico_City","modification_date":"2013-07-31"},{"geonameid":"3523260","name":"Mezcala","asciiname":"Mezcala","alternatenames":["Mexcala"],"latitude":"17.9324","longitude":"-99.60257","feature_class":"P","feature_code":"PPL","country_code":"MX","cc2":"","admin1_code":"12","admin2_code":"075","admin3_code":"","admin4_code":"","population":"3763","elevation":"","dem":"494","timezone":"America/Mexico_City","modification_date":"2015-06-22"},{"geonameid":"3523412","name":"Mazatlán","asciiname":"Mazatlan","alternatenames":["Masatlan","Mazatlan","Mazatlán","Mochitlan","Mochitlán","Масатлан"],"latitude":"17.4362","longitude":"-99.46483","feature_class":"P","feature_code":"PPL","country_code":"MX","cc2":"","admin1_code":"12","admin2_code":"029","admin3_code":"","admin4_code":"","population":"4948","elevation":"","dem":"1282","timezone":"America/Mexico_City","modification_date":"2015-06-22"},{"geonameid":"3523431","name":"Mayanalán","asciiname":"Mayanalan","alternatenames":["Mayanalan","Mayanalán"],"latitude":"18.1729","longitude":"-99.43259","feature_class":"P","feature_code":"PPL","country_code":"MX","cc2":"","admin1_code":"12","admin2_code":"059","admin3_code":"","admin4_code":"","population":"2898","elevation":"","dem":"859","timezone":"America/Mexico_City","modification_date":"2014-09-05"},{"geonameid":"3523683","name":"Malinaltepec","asciiname":"Malinaltepec","alternatenames":["Malinaltepec"],"latitude":"17.24501","longitude":"-98.67091","feature_class":"P","feature_code":"PPL","country_code":"MX","cc2":"","admin1_code":"12","admin2_code":"041","admin3_code":"","admin4_code":"","population":"26613","elevation":"","dem":"1522","timezone":"America/Mexico_City","modification_date":"2015-06-22"},{"geonameid":"3525702","name":"La Guadalupe","asciiname":"La Guadalupe","alternatenames":["Guadalupe","La Guadalupe"],"latitude":"16.68883","longitude":"-98.26222","feature_class":"P","feature_code":"PPL","country_code":"MX","cc2":"","admin1_code":"12","admin2_code":"046","admin3_code":"","admin4_code":"","population":"1147","elevation":"","dem":"432","timezone":"America/Mexico_City","modification_date":"2014-10-01"},{"geonameid":"3526730","name":"Ixcateopan de Cuauhtémoc","asciiname":"Ixcateopan de Cuauhtemoc","alternatenames":["Ichcateopan","Ixcateopan","Ixcateopan de Cuauhtemoc","Ixcateopan de Cuauhtémoc"],"latitude":"18.50139","longitude":"-99.79139","feature_class":"P","feature_code":"PPL","country_code":"MX","cc2":"MX","admin1_code":"12","admin2_code":"037","admin3_code":"","admin4_code":"","population":"2502","elevation":"","dem":"1827","timezone":"America/Mexico_City","modification_date":"2013-08-01"},{"geonameid":"3526798","name":"Iguala de la Independencia","asciiname":"Iguala de la Independencia","alternatenames":["Iguala","Iguala de la Independencia","Iguala-de-la-Independensija","aygwala","yi gua la de la du li zhen","Игуала-де-ла-Индепенденсия","ایگوالا","伊瓜拉德拉獨立鎮"],"latitude":"18.34928","longitude":"-99.53936","feature_class":"P","feature_code":"PPL","country_code":"MX","cc2":"","admin1_code":"12","admin2_code":"035","admin3_code":"","admin4_code":"","population":"112106","elevation":"","dem":"744","timezone":"America/Mexico_City","modification_date":"2015-06-22"},{"geonameid":"3526864","name":"Huitzuco de los Figueroa","asciiname":"Huitzuco de los Figueroa","alternatenames":["Huitzuco","Huitzuco de los Figueroa","Huizuco"],"latitude":"18.30668","longitude":"-99.33541","feature_class":"P","feature_code":"PPL","country_code":"MX","cc2":"","admin1_code":"12","admin2_code":"034","admin3_code":"","admin4_code":"","population":"16238","elevation":"","dem":"948","timezone":"America/Mexico_City","modification_date":"2015-06-22"},{"geonameid":"3526877","name":"Huitziltepec","asciiname":"Huitziltepec","alternatenames":["Huitziltepec","Huixiltepec"],"latitude":"17.75633","longitude":"-99.48013","feature_class":"P","feature_code":"PPL","country_code":"MX","cc2":"","admin1_code":"12","admin2_code":"075","admin3_code":"","admin4_code":"","population":"4419","elevation":"","dem":"1316","timezone":"America/Mexico_City","modification_date":"2015-06-22"},{"geonameid":"3526896","name":"Huixtepec","asciiname":"Huixtepec","alternatenames":["Huistepec","Huitepec","Huixtepec"],"latitude":"16.65361","longitude":"-98.30455","feature_class":"P","feature_code":"PPL","country_code":"MX","cc2":"","admin1_code":"12","admin2_code":"046","admin3_code":"","admin4_code":"","population":"3370","elevation":"","dem":"371","timezone":"America/Mexico_City","modification_date":"2013-08-01"},{"geonameid":"3527017","name":"Huamuxtitlán","asciiname":"Huamuxtitlan","alternatenames":["Huamuctitilan","Huamuxtitan","Huamuxtitlan","Huamuxtitlán"],"latitude":"17.80287","longitude":"-98.56417","feature_class":"P","feature_code":"PPL","country_code":"MX","cc2":"","admin1_code":"12","admin2_code":"033","admin3_code":"","admin4_code":"","population":"5921","elevation":"","dem":"893","timezone":"America/Mexico_City","modification_date":"2015-06-22"},{"geonameid":"3528601","name":"El Ocotito","asciiname":"El Ocotito","alternatenames":["El Ocotito","Ocotito"],"latitude":"17.24621","longitude":"-99.51646","feature_class":"P","feature_code":"PPL","country_code":"MX","cc2":"","admin1_code":"12","admin2_code":"029","admin3_code":"","admin4_code":"","population":"5983","elevation":"","dem":"713","timezone":"America/Mexico_City","modification_date":"2015-06-22"},{"geonameid":"3529933","name":"Cuetzala del Progreso","asciiname":"Cuetzala del Progreso","alternatenames":["Cuetzala","Cuetzala de Progreso","Cuetzala del Progreso","Cuetzalá de Progreso"],"latitude":"18.13472","longitude":"-99.8319","feature_class":"P","feature_code":"PPLA2","country_code":"MX","cc2":"","admin1_code":"12","admin2_code":"026","admin3_code":"","admin4_code":"","population":"0","elevation":"","dem":"1126","timezone":"America/Mexico_City","modification_date":"2015-06-22"},{"geonameid":"3529994","name":"Cuautepec","asciiname":"Cuautepec","alternatenames":["Cuautepec"],"latitude":"16.75004","longitude":"-99.0024","feature_class":"P","feature_code":"PPLA2","country_code":"MX","cc2":"","admin1_code":"12","admin2_code":"025","admin3_code":"","admin4_code":"","population":"3483","elevation":"","dem":"200","timezone":"America/Mexico_City","modification_date":"2015-06-22"},{"geonameid":"3530046","name":"Cuajinicuilapa de Santa Maria","asciiname":"Cuajinicuilapa de Santa Maria","alternatenames":["Cuajinicualapa","Cuajinicuilapa","Cuajinicuilapa de Santa Maria","Cuajiniouilapan"],"latitude":"16.47347","longitude":"-98.41389","feature_class":"P","feature_code":"PPL","country_code":"MX","cc2":"","admin1_code":"12","admin2_code":"023","admin3_code":"","admin4_code":"","population":"9390","elevation":"","dem":"51","timezone":"America/Mexico_City","modification_date":"2015-06-22"},{"geonameid":"3530066","name":"Cruz Grande","asciiname":"Cruz Grande","alternatenames":["Cruz Grande","Florencio Villarreal"],"latitude":"16.72241","longitude":"-99.12356","feature_class":"P","feature_code":"PPL","country_code":"MX","cc2":"","admin1_code":"12","admin2_code":"030","admin3_code":"","admin4_code":"","population":"9876","elevation":"","dem":"52","timezone":"America/Mexico_City","modification_date":"2015-06-22"},{"geonameid":"3530259","name":"Copalillo","asciiname":"Copalillo","alternatenames":["Copalillo"],"latitude":"18.03427","longitude":"-99.04124","feature_class":"P","feature_code":"PPL","country_code":"MX","cc2":"","admin1_code":"12","admin2_code":"019","admin3_code":"","admin4_code":"","population":"5993","elevation":"","dem":"886","timezone":"America/Mexico_City","modification_date":"2015-06-22"},{"geonameid":"3530264","name":"Copala","asciiname":"Copala","alternatenames":["Copala"],"latitude":"16.60774","longitude":"-98.97821","feature_class":"P","feature_code":"PPL","country_code":"MX","cc2":"","admin1_code":"12","admin2_code":"018","admin3_code":"","admin4_code":"","population":"6875","elevation":"","dem":"49","timezone":"America/Mexico_City","modification_date":"2015-06-22"},{"geonameid":"3530396","name":"Colotepec","asciiname":"Colotepec","alternatenames":["Colotepec"],"latitude":"17.06667","longitude":"-99.28333","feature_class":"P","feature_code":"PPL","country_code":"MX","cc2":"","admin1_code":"12","admin2_code":"056","admin3_code":"","admin4_code":"","population":"2690","elevation":"","dem":"896","timezone":"America/Mexico_City","modification_date":"2015-06-22"},{"geonameid":"3530482","name":"Cocula","asciiname":"Cocula","alternatenames":["Cocula"],"latitude":"18.24116","longitude":"-99.66202","feature_class":"P","feature_code":"PPL","country_code":"MX","cc2":"","admin1_code":"12","admin2_code":"017","admin3_code":"","admin4_code":"","population":"4546","elevation":"","dem":"616","timezone":"America/Mexico_City","modification_date":"2015-06-22"},{"geonameid":"3530870","name":"Chilpancingo de los Bravos","asciiname":"Chilpancingo de los Bravos","alternatenames":["Chilpancingo","Chilpancingo de los Bravo","Chilpancingo de los Bravos","Ciudad Bravos"],"latitude":"17.5506","longitude":"-99.50578","feature_class":"P","feature_code":"PPLA","country_code":"MX","cc2":"","admin1_code":"12","admin2_code":"029","admin3_code":"","admin4_code":"","population":"165250","elevation":"","dem":"1242","timezone":"America/Mexico_City","modification_date":"2015-06-22"},{"geonameid":"3530886","name":"Chilapa de Alvarez","asciiname":"Chilapa de Alvarez","alternatenames":["Chilapa","Chilapa de Alvarez"],"latitude":"17.59459","longitude":"-99.17639","feature_class":"P","feature_code":"PPL","country_code":"MX","cc2":"","admin1_code":"12","admin2_code":"028","admin3_code":"","admin4_code":"","population":"23665","elevation":"","dem":"1413","timezone":"America/Mexico_City","modification_date":"2015-06-22"},{"geonameid":"3530955","name":"Chichihualco","asciiname":"Chichihualco","alternatenames":["Chichihualco"],"latitude":"17.65902","longitude":"-99.67624","feature_class":"P","feature_code":"PPLA2","country_code":"MX","cc2":"","admin1_code":"12","admin2_code":"040","admin3_code":"","admin4_code":"","population":"10391","elevation":"","dem":"1148","timezone":"America/Mexico_City","modification_date":"2015-06-22"},{"geonameid":"3531885","name":"Cacalotenango","asciiname":"Cacalotenango","alternatenames":[""],"latitude":"18.54639","longitude":"-99.64361","feature_class":"P","feature_code":"PPL","country_code":"MX","cc2":"","admin1_code":"12","admin2_code":"055","admin3_code":"","admin4_code":"","population":"1877","elevation":"","dem":"1606","timezone":"America/Mexico_City","modification_date":"2013-07-31"},{"geonameid":"3531972","name":"Buenavista de Cuéllar","asciiname":"Buenavista de Cuellar","alternatenames":["Buenavista","Buenavista de Cuellar","Buenavista de Cuéllar"],"latitude":"18.46","longitude":"-99.40848","feature_class":"P","feature_code":"PPL","country_code":"MX","cc2":"","admin1_code":"12","admin2_code":"015","admin3_code":"","admin4_code":"","population":"7170","elevation":"","dem":"1253","timezone":"America/Mexico_City","modification_date":"2015-06-22"},{"geonameid":"3532423","name":"Nuevo Balsas","asciiname":"Nuevo Balsas","alternatenames":[""],"latitude":"18.03253","longitude":"-99.75913","feature_class":"P","feature_code":"PPL","country_code":"MX","cc2":"","admin1_code":"12","admin2_code":"017","admin3_code":"","admin4_code":"","population":"1711","elevation":"","dem":"487","timezone":"America/Mexico_City","modification_date":"2013-08-01"},{"geonameid":"3532446","name":"Bajos del Ejido","asciiname":"Bajos del Ejido","alternatenames":["Bajos del Ejido"],"latitude":"16.96086","longitude":"-99.97169","feature_class":"P","feature_code":"PPL","country_code":"MX","cc2":"","admin1_code":"12","admin2_code":"021","admin3_code":"","admin4_code":"","population":"5637","elevation":"","dem":"15","timezone":"America/Mexico_City","modification_date":"2015-06-22"},{"geonameid":"3532490","name":"Azoyú","asciiname":"Azoyu","alternatenames":["Azoyu","Azoyú"],"latitude":"16.73314","longitude":"-98.60166","feature_class":"P","feature_code":"PPL","country_code":"MX","cc2":"","admin1_code":"12","admin2_code":"013","admin3_code":"","admin4_code":"","population":"4462","elevation":"","dem":"369","timezone":"America/Mexico_City","modification_date":"2015-06-22"},{"geonameid":"3532499","name":"Ayutla de los Libres","asciiname":"Ayutla de los Libres","alternatenames":["Ayutla","Ayutla de los Libres"],"latitude":"16.96376","longitude":"-99.09616","feature_class":"P","feature_code":"PPLA2","country_code":"MX","cc2":"","admin1_code":"12","admin2_code":"012","admin3_code":"","admin4_code":"","population":"9897","elevation":"","dem":"376","timezone":"America/Mexico_City","modification_date":"2015-06-22"},{"geonameid":"3532540","name":"San Miguel Axoxuca","asciiname":"San Miguel Axoxuca","alternatenames":[""],"latitude":"17.5493","longitude":"-98.66163","feature_class":"P","feature_code":"PPL","country_code":"MX","cc2":"","admin1_code":"12","admin2_code":"066","admin3_code":"","admin4_code":"","population":"1441","elevation":"","dem":"1383","timezone":"America/Mexico_City","modification_date":"2013-08-01"},{"geonameid":"3532546","name":"Axixintla","asciiname":"Axixintla","alternatenames":[""],"latitude":"18.60222","longitude":"-99.51806","feature_class":"P","feature_code":"PPL","country_code":"MX","cc2":"","admin1_code":"12","admin2_code":"055","admin3_code":"","admin4_code":"","population":"1647","elevation":"","dem":"1222","timezone":"America/Mexico_City","modification_date":"2013-08-01"},{"geonameid":"3532597","name":"Atliaca","asciiname":"Atliaca","alternatenames":["Atiaca","Atliaca"],"latitude":"17.65166","longitude":"-99.37519","feature_class":"P","feature_code":"PPL","country_code":"MX","cc2":"","admin1_code":"12","admin2_code":"061","admin3_code":"","admin4_code":"","population":"6766","elevation":"","dem":"1291","timezone":"America/Mexico_City","modification_date":"2015-06-22"},{"geonameid":"3532802","name":"Apaxtla de Castrejón","asciiname":"Apaxtla de Castrejon","alternatenames":["Apaxtla","Apaxtla de Castrejon","Apaxtla de Castrejón"],"latitude":"18.13127","longitude":"-99.93255","feature_class":"P","feature_code":"PPLA2","country_code":"MX","cc2":"","admin1_code":"12","admin2_code":"006","admin3_code":"","admin4_code":"","population":"7413","elevation":"","dem":"1213","timezone":"America/Mexico_City","modification_date":"2015-06-22"},{"geonameid":"3532813","name":"Mártir de Cuilapan","asciiname":"Martir de Cuilapan","alternatenames":["Apango","Martir de Cuilapan","Mártir de Cuilapan"],"latitude":"17.74121","longitude":"-99.32909","feature_class":"P","feature_code":"PPL","country_code":"MX","cc2":"","admin1_code":"12","admin2_code":"042","admin3_code":"","admin4_code":"","population":"3863","elevation":"","dem":"1097","timezone":"America/Mexico_City","modification_date":"2015-06-22"},{"geonameid":"3533022","name":"Alpoyeca","asciiname":"Alpoyeca","alternatenames":["Alpoyeca"],"latitude":"17.67301","longitude":"-98.50968","feature_class":"P","feature_code":"PPL","country_code":"MX","cc2":"","admin1_code":"12","admin2_code":"005","admin3_code":"","admin4_code":"","population":"3284","elevation":"","dem":"970","timezone":"America/Mexico_City","modification_date":"2015-06-22"},{"geonameid":"3533458","name":"Acatepec","asciiname":"Acatepec","alternatenames":["Acatepec"],"latitude":"16.7375","longitude":"-98.4275","feature_class":"P","feature_code":"PPL","country_code":"MX","cc2":"","admin1_code":"12","admin2_code":"046","admin3_code":"","admin4_code":"","population":"3296","elevation":"","dem":"628","timezone":"America/Mexico_City","modification_date":"2013-08-01"},{"geonameid":"3533461","name":"Acatempan","asciiname":"Acatempan","alternatenames":["Acatempa","Acatempan"],"latitude":"18.31809","longitude":"-99.88298","feature_class":"P","feature_code":"PPL","country_code":"MX","cc2":"","admin1_code":"12","admin2_code":"058","admin3_code":"","admin4_code":"","population":"1391","elevation":"","dem":"1657","timezone":"America/Mexico_City","modification_date":"2014-09-05"},{"geonameid":"3533462","name":"Acapulco de Juárez","asciiname":"Acapulco de Juarez","alternatenames":["ACA","Acapolco","Acapulco","Acapulco de Juarez","Acapulco de Juárez","Acapulco  Acapulco de Juarez","Acapulcum","Akapoulko","Akapul'ko","Akapulkas","Akapulko","Akapúlkó","Gorad Akapul'ka","a ka pu er ke","akabwlkw","akapulko","akapuruko","akapwlkw  gwyrrw","xa ka pul ko","Ācapōlco","Ακαπούλκο","Акапулко","Акапулько","Горад Акапулька","אקפולקו","آکاپولکو، گوئررو","أكابولكو","അക്കാപുൽകോ","อากาปุลโก","აკაპულკო","アカプルコ","阿卡普尔科","아카풀코"],"latitude":"16.86336","longitude":"-99.8901","feature_class":"P","feature_code":"PPL","country_code":"MX","cc2":"","admin1_code":"12","admin2_code":"001","admin3_code":"","admin4_code":"","population":"652136","elevation":"","dem":"18","timezone":"America/Mexico_City","modification_date":"2015-06-22"},{"geonameid":"3533473","name":"Acamixtla","asciiname":"Acamixtla","alternatenames":["Acamixtla","Acamixtlan"],"latitude":"18.56216","longitude":"-99.57206","feature_class":"P","feature_code":"PPL","country_code":"MX","cc2":"","admin1_code":"12","admin2_code":"055","admin3_code":"","admin4_code":"","population":"4866","elevation":"","dem":"1602","timezone":"America/Mexico_City","modification_date":"2015-06-22"},{"geonameid":"3533487","name":"Acahuizotla","asciiname":"Acahuizotla","alternatenames":[""],"latitude":"17.36054","longitude":"-99.46759","feature_class":"P","feature_code":"PPL","country_code":"MX","cc2":"","admin1_code":"12","admin2_code":"029","admin3_code":"","admin4_code":"","population":"1148","elevation":"","dem":"831","timezone":"America/Mexico_City","modification_date":"2013-07-31"},{"geonameid":"3800876","name":"El Jicaral","asciiname":"El Jicaral","alternatenames":["El Jicaral"],"latitude":"17.12617","longitude":"-98.19697","feature_class":"P","feature_code":"PPL","country_code":"MX","cc2":"","admin1_code":"12","admin2_code":"016","admin3_code":"","admin4_code":"","population":"1089","elevation":"","dem":"829","timezone":"America/Mexico_City","modification_date":"2014-10-02"},{"geonameid":"3817354","name":"Pilcaya","asciiname":"Pilcaya","alternatenames":["Pilcaya"],"latitude":"18.74841","longitude":"-99.67545","feature_class":"P","feature_code":"PPLA2","country_code":"MX","cc2":"","admin1_code":"12","admin2_code":"049","admin3_code":"","admin4_code":"","population":"4718","elevation":"","dem":"1625","timezone":"America/Mexico_City","modification_date":"2015-06-22"},{"geonameid":"3818963","name":"Ixcamilpa","asciiname":"Ixcamilpa","alternatenames":["Ixcamilpa"],"latitude":"18.02769","longitude":"-98.69643","feature_class":"P","feature_code":"PPLA2","country_code":"MX","cc2":"","admin1_code":"12","admin2_code":"081","admin3_code":"","admin4_code":"","population":"1354","elevation":"","dem":"720","timezone":"America/Mexico_City","modification_date":"2014-09-06"},{"geonameid":"3821494","name":"San Juan de Dios (Naranjas de Dios)","asciiname":"San Juan de Dios (Naranjas de Dios)","alternatenames":[""],"latitude":"18.54972","longitude":"-99.55583","feature_class":"P","feature_code":"PPL","country_code":"MX","cc2":"","admin1_code":"12","admin2_code":"055","admin3_code":"","admin4_code":"","population":"1457","elevation":"","dem":"1499","timezone":"America/Mexico_City","modification_date":"2013-08-01"},{"geonameid":"3821554","name":"Tecuexcontitlán (Tecoescontitlán)","asciiname":"Tecuexcontitlan (Tecoescontitlan)","alternatenames":[""],"latitude":"18.14254","longitude":"-99.57787","feature_class":"P","feature_code":"PPL","country_code":"MX","cc2":"","admin1_code":"12","admin2_code":"059","admin3_code":"","admin4_code":"","population":"1252","elevation":"","dem":"798","timezone":"America/Mexico_City","modification_date":"2013-08-01"},{"geonameid":"3821566","name":"Maxela","asciiname":"Maxela","alternatenames":["Maxela"],"latitude":"18.05347","longitude":"-99.59351","feature_class":"P","feature_code":"PPL","country_code":"MX","cc2":"","admin1_code":"12","admin2_code":"059","admin3_code":"","admin4_code":"","population":"1318","elevation":"","dem":"939","timezone":"America/Mexico_City","modification_date":"2014-09-06"},{"geonameid":"3821623","name":"Axaxacualco","asciiname":"Axaxacualco","alternatenames":["Axaxacualco"],"latitude":"17.80291","longitude":"-99.46164","feature_class":"P","feature_code":"PPL","country_code":"MX","cc2":"","admin1_code":"12","admin2_code":"075","admin3_code":"","admin4_code":"","population":"1331","elevation":"","dem":"1480","timezone":"America/Mexico_City","modification_date":"2013-07-31"},{"geonameid":"3821660","name":"El Fresno","asciiname":"El Fresno","alternatenames":[""],"latitude":"17.43143","longitude":"-99.58605","feature_class":"P","feature_code":"PPL","country_code":"MX","cc2":"","admin1_code":"12","admin2_code":"029","admin3_code":"","admin4_code":"","population":"1107","elevation":"","dem":"1957","timezone":"America/Mexico_City","modification_date":"2013-07-31"},{"geonameid":"3821693","name":"Julián Blanco (Dos Caminos)","asciiname":"Julian Blanco (Dos Caminos)","alternatenames":[""],"latitude":"17.21889","longitude":"-99.52472","feature_class":"P","feature_code":"PPL","country_code":"MX","cc2":"","admin1_code":"12","admin2_code":"029","admin3_code":"","admin4_code":"","population":"1955","elevation":"","dem":"640","timezone":"America/Mexico_City","modification_date":"2013-08-01"},{"geonameid":"3821732","name":"Lomas de Chapultepec","asciiname":"Lomas de Chapultepec","alternatenames":["Lomas de Chapultepec"],"latitude":"16.71615","longitude":"-99.61021","feature_class":"P","feature_code":"PPL","country_code":"MX","cc2":"","admin1_code":"12","admin2_code":"001","admin3_code":"","admin4_code":"","population":"2173","elevation":"","dem":"21","timezone":"America/Mexico_City","modification_date":"2014-09-06"},{"geonameid":"3821734","name":"Cerro de Piedra","asciiname":"Cerro de Piedra","alternatenames":["Cerro de Piedra"],"latitude":"16.77646","longitude":"-99.63037","feature_class":"P","feature_code":"PPL","country_code":"MX","cc2":"","admin1_code":"12","admin2_code":"001","admin3_code":"","admin4_code":"","population":"1487","elevation":"","dem":"45","timezone":"America/Mexico_City","modification_date":"2014-10-02"},{"geonameid":"3821741","name":"Llano de la Puerta","asciiname":"Llano de la Puerta","alternatenames":["Llano de la Puerta"],"latitude":"16.74355","longitude":"-99.52721","feature_class":"P","feature_code":"PPL","country_code":"MX","cc2":"","admin1_code":"12","admin2_code":"053","admin3_code":"","admin4_code":"","population":"1322","elevation":"","dem":"75","timezone":"America/Mexico_City","modification_date":"2014-09-06"},{"geonameid":"3821745","name":"Campanario","asciiname":"Campanario","alternatenames":["Campanario"],"latitude":"16.83534","longitude":"-99.57178","feature_class":"P","feature_code":"PPL","country_code":"MX","cc2":"","admin1_code":"12","admin2_code":"001","admin3_code":"","admin4_code":"","population":"1213","elevation":"","dem":"177","timezone":"America/Mexico_City","modification_date":"2014-10-02"},{"geonameid":"3821782","name":"Llano Grande","asciiname":"Llano Grande","alternatenames":["Llano Grande"],"latitude":"16.9401","longitude":"-99.43353","feature_class":"P","feature_code":"PPL","country_code":"MX","cc2":"","admin1_code":"12","admin2_code":"053","admin3_code":"","admin4_code":"","population":"1348","elevation":"","dem":"325","timezone":"America/Mexico_City","modification_date":"2014-10-02"},{"geonameid":"3821784","name":"Ocotlán","asciiname":"Ocotlan","alternatenames":["Ocotitlan","Ocotitlán","Ocotlan","Ocotlán"],"latitude":"16.93947","longitude":"-99.36919","feature_class":"P","feature_code":"PPL","country_code":"MX","cc2":"","admin1_code":"12","admin2_code":"056","admin3_code":"","admin4_code":"","population":"1253","elevation":"","dem":"471","timezone":"America/Mexico_City","modification_date":"2014-10-02"},{"geonameid":"3821826","name":"Tecolcuautla","asciiname":"Tecolcuautla","alternatenames":["Tecolcuautla"],"latitude":"17.7865","longitude":"-98.94828","feature_class":"P","feature_code":"PPL","country_code":"MX","cc2":"","admin1_code":"12","admin2_code":"002","admin3_code":"","admin4_code":"","population":"1085","elevation":"","dem":"1059","timezone":"America/Mexico_City","modification_date":"2014-10-02"},{"geonameid":"3821844","name":"Pochutla","asciiname":"Pochutla","alternatenames":["Pochultla","Pochutla"],"latitude":"17.65907","longitude":"-98.89798","feature_class":"P","feature_code":"PPL","country_code":"MX","cc2":"","admin1_code":"12","admin2_code":"002","admin3_code":"","admin4_code":"","population":"1201","elevation":"","dem":"1156","timezone":"America/Mexico_City","modification_date":"2014-10-02"},{"geonameid":"3821861","name":"Santa Catarina","asciiname":"Santa Catarina","alternatenames":["Santa Catarina"],"latitude":"17.54835","longitude":"-99.175","feature_class":"P","feature_code":"PPL","country_code":"MX","cc2":"","admin1_code":"12","admin2_code":"028","admin3_code":"","admin4_code":"","population":"1936","elevation":"","dem":"1699","timezone":"America/Mexico_City","modification_date":"2014-09-06"},{"geonameid":"3821940","name":"San Francisco","asciiname":"San Francisco","alternatenames":[""],"latitude":"17.00583","longitude":"-99.28306","feature_class":"P","feature_code":"PPL","country_code":"MX","cc2":"","admin1_code":"12","admin2_code":"056","admin3_code":"","admin4_code":"","population":"1674","elevation":"","dem":"491","timezone":"America/Mexico_City","modification_date":"2013-07-31"},{"geonameid":"3821992","name":"La Dicha","asciiname":"La Dicha","alternatenames":["La Dicha"],"latitude":"16.7672","longitude":"-99.01058","feature_class":"P","feature_code":"PPL","country_code":"MX","cc2":"","admin1_code":"12","admin2_code":"025","admin3_code":"","admin4_code":"","population":"1204","elevation":"","dem":"336","timezone":"America/Mexico_City","modification_date":"2014-10-02"},{"geonameid":"3821997","name":"Las Vigas","asciiname":"Las Vigas","alternatenames":["Las Vigas"],"latitude":"16.76144","longitude":"-99.22942","feature_class":"P","feature_code":"PPL","country_code":"MX","cc2":"","admin1_code":"12","admin2_code":"053","admin3_code":"","admin4_code":"","population":"4504","elevation":"","dem":"34","timezone":"America/Mexico_City","modification_date":"2014-10-02"},{"geonameid":"3822029","name":"Marquelia","asciiname":"Marquelia","alternatenames":["Marquelia"],"latitude":"16.58335","longitude":"-98.81686","feature_class":"P","feature_code":"PPL","country_code":"MX","cc2":"","admin1_code":"12","admin2_code":"077","admin3_code":"","admin4_code":"","population":"6874","elevation":"","dem":"13","timezone":"America/Mexico_City","modification_date":"2015-06-22"},{"geonameid":"3822073","name":"Xalatzala","asciiname":"Xalatzala","alternatenames":["Xalatzala"],"latitude":"17.47355","longitude":"-98.57355","feature_class":"P","feature_code":"PPL","country_code":"MX","cc2":"","admin1_code":"12","admin2_code":"066","admin3_code":"","admin4_code":"","population":"2042","elevation":"","dem":"1703","timezone":"America/Mexico_City","modification_date":"2014-10-02"},{"geonameid":"3822099","name":"Paraje Montero (Paraje Montero de Zaragoza)","asciiname":"Paraje Montero (Paraje Montero de Zaragoza)","alternatenames":[""],"latitude":"17.16349","longitude":"-98.70394","feature_class":"P","feature_code":"PPL","country_code":"MX","cc2":"","admin1_code":"12","admin2_code":"041","admin3_code":"","admin4_code":"","population":"1146","elevation":"","dem":"1988","timezone":"America/Mexico_City","modification_date":"2013-08-01"},{"geonameid":"3822109","name":"San Pablo Atzompa","asciiname":"San Pablo Atzompa","alternatenames":[""],"latitude":"17.24722","longitude":"-98.37","feature_class":"P","feature_code":"PPL","country_code":"MX","cc2":"","admin1_code":"12","admin2_code":"043","admin3_code":"","admin4_code":"","population":"1252","elevation":"","dem":"2181","timezone":"America/Mexico_City","modification_date":"2013-08-01"},{"geonameid":"3822140","name":"Rancho Viejo (Rancho Nuevo de la Democracia)","asciiname":"Rancho Viejo (Rancho Nuevo de la Democracia)","alternatenames":[""],"latitude":"17.03257","longitude":"-98.22389","feature_class":"P","feature_code":"PPL","country_code":"MX","cc2":"","admin1_code":"12","admin2_code":"062","admin3_code":"","admin4_code":"","population":"1087","elevation":"","dem":"862","timezone":"America/Mexico_City","modification_date":"2013-08-01"},{"geonameid":"3822167","name":"San Luis Acatlán","asciiname":"San Luis Acatlan","alternatenames":[""],"latitude":"16.80722","longitude":"-98.73417","feature_class":"P","feature_code":"PPL","country_code":"MX","cc2":"","admin1_code":"12","admin2_code":"052","admin3_code":"","admin4_code":"","population":"8276","elevation":"","dem":"280","timezone":"America/Mexico_City","modification_date":"2014-04-11"},{"geonameid":"3822198","name":"El Pitahayo","asciiname":"El Pitahayo","alternatenames":["El Pitahayo"],"latitude":"16.53236","longitude":"-98.5276","feature_class":"P","feature_code":"PPL","country_code":"MX","cc2":"","admin1_code":"12","admin2_code":"023","admin3_code":"","admin4_code":"","population":"1617","elevation":"","dem":"22","timezone":"America/Mexico_City","modification_date":"2014-10-02"},{"geonameid":"3979647","name":"Zirándaro","asciiname":"Zirandaro","alternatenames":["Zirandara","Zirandaro","Zirándaro"],"latitude":"18.47763","longitude":"-100.97857","feature_class":"P","feature_code":"PPL","country_code":"MX","cc2":"","admin1_code":"12","admin2_code":"073","admin3_code":"","admin4_code":"","population":"3663","elevation":"","dem":"212","timezone":"America/Mexico_City","modification_date":"2015-06-22"},{"geonameid":"3979673","name":"Ixtapa-Zihuatanejo","asciiname":"Ixtapa-Zihuatanejo","alternatenames":["Ixtapa Zihuatanejo","Ixtapa-Zihuatanejo","Jose Azueta","José Azueta","Siuatanekho","ZIH","Zihuatanejo","khwzh azwta  gwyrrw","xi wa ta nei huo","Сиуатанехо","خوزه ازوتا، گوئررو","锡瓦塔内霍"],"latitude":"17.64344","longitude":"-101.55212","feature_class":"P","feature_code":"PPL","country_code":"MX","cc2":"","admin1_code":"12","admin2_code":"038","admin3_code":"","admin4_code":"","population":"61308","elevation":"","dem":"13","timezone":"America/Mexico_City","modification_date":"2013-12-07"},{"geonameid":"3979821","name":"Zacualpan","asciiname":"Zacualpan","alternatenames":["Zacualpa","Zacualpan"],"latitude":"17.08895","longitude":"-100.3259","feature_class":"P","feature_code":"PPL","country_code":"MX","cc2":"","admin1_code":"12","admin2_code":"011","admin3_code":"","admin4_code":"","population":"2488","elevation":"","dem":"19","timezone":"America/Mexico_City","modification_date":"2014-09-05"},{"geonameid":"3981462","name":"Tlapehuala","asciiname":"Tlapehuala","alternatenames":["Tlalpehuala","Tlapehuala"],"latitude":"18.24101","longitude":"-100.5379","feature_class":"P","feature_code":"PPL","country_code":"MX","cc2":"","admin1_code":"12","admin2_code":"067","admin3_code":"","admin4_code":"","population":"8651","elevation":"","dem":"281","timezone":"America/Mexico_City","modification_date":"2015-06-22"},{"geonameid":"3981466","name":"Tlalchapa","asciiname":"Tlalchapa","alternatenames":["Talchapa","Tlalchapa"],"latitude":"18.41027","longitude":"-100.47623","feature_class":"P","feature_code":"PPL","country_code":"MX","cc2":"","admin1_code":"12","admin2_code":"064","admin3_code":"","admin4_code":"","population":"4183","elevation":"","dem":"409","timezone":"America/Mexico_City","modification_date":"2015-06-22"},{"geonameid":"3982170","name":"Tecpan de Galeana","asciiname":"Tecpan de Galeana","alternatenames":["Tecpan","Tecpan de Galeana","Tecpan de Galena"],"latitude":"17.22278","longitude":"-100.64121","feature_class":"P","feature_code":"PPL","country_code":"MX","cc2":"","admin1_code":"12","admin2_code":"057","admin3_code":"","admin4_code":"","population":"14638","elevation":"","dem":"30","timezone":"America/Mexico_City","modification_date":"2015-06-22"},{"geonameid":"3985621","name":"San Luis de la Paz","asciiname":"San Luis de la Paz","alternatenames":["San Luis de la Paz"],"latitude":"21.29787","longitude":"-100.51676","feature_class":"P","feature_code":"PPL","country_code":"MX","cc2":"","admin1_code":"12","admin2_code":"","admin3_code":"","admin4_code":"","population":"47321","elevation":"","dem":"2021","timezone":"America/Mexico_City","modification_date":"2012-12-05"},{"geonameid":"3986553","name":"San Jerónimo de Juárez","asciiname":"San Jeronimo de Juarez","alternatenames":["San Jeronimo","San Jeronimo de Juarez","San Jerónimo","San Jerónimo de Juárez"],"latitude":"17.13674","longitude":"-100.46832","feature_class":"P","feature_code":"PPL","country_code":"MX","cc2":"","admin1_code":"12","admin2_code":"014","admin3_code":"","admin4_code":"","population":"7326","elevation":"","dem":"19","timezone":"America/Mexico_City","modification_date":"2015-06-22"},{"geonameid":"3986600","name":"San Jeronimito","asciiname":"San Jeronimito","alternatenames":["San Goronimito","San Jeronimito","San Jeronimo","San Jerónimo"],"latitude":"17.56818","longitude":"-101.34499","feature_class":"P","feature_code":"PPL","country_code":"MX","cc2":"","admin1_code":"12","admin2_code":"048","admin3_code":"","admin4_code":"","population":"6385","elevation":"","dem":"32","timezone":"America/Mexico_City","modification_date":"2015-06-22"},{"geonameid":"3992842","name":"Petatlán","asciiname":"Petatlan","alternatenames":["Petatlan","Petatlán","Petlatlan","Petlatlán","Potatlan","Петатлан"],"latitude":"17.53768","longitude":"-101.26798","feature_class":"P","feature_code":"PPLA2","country_code":"MX","cc2":"","admin1_code":"12","admin2_code":"048","admin3_code":"","admin4_code":"","population":"21038","elevation":"","dem":"39","timezone":"America/Mexico_City","modification_date":"2015-06-22"},{"geonameid":"3998919","name":"La Unión","asciiname":"La Union","alternatenames":["La Union","La Unión"],"latitude":"17.98561","longitude":"-101.80655","feature_class":"P","feature_code":"PPLA2","country_code":"MX","cc2":"","admin1_code":"12","admin2_code":"068","admin3_code":"","admin4_code":"","population":"3189","elevation":"","dem":"64","timezone":"America/Mexico_City","modification_date":"2015-06-22"},{"geonameid":"4004294","name":"Ixtapa","asciiname":"Ixtapa","alternatenames":[""],"latitude":"17.66782","longitude":"-101.64165","feature_class":"P","feature_code":"PPL","country_code":"MX","cc2":"","admin1_code":"12","admin2_code":"038","admin3_code":"","admin4_code":"","population":"5207","elevation":"","dem":"10","timezone":"America/Mexico_City","modification_date":"2015-06-22"},{"geonameid":"4010311","name":"El Coacoyul","asciiname":"El Coacoyul","alternatenames":["Coacoyul","El Coacoyul"],"latitude":"17.6381","longitude":"-101.47571","feature_class":"P","feature_code":"PPL","country_code":"MX","cc2":"","admin1_code":"12","admin2_code":"038","admin3_code":"","admin4_code":"","population":"5658","elevation":"","dem":"22","timezone":"America/Mexico_City","modification_date":"2015-06-22"},{"geonameid":"4012085","name":"Cutzamala de Pinzón","asciiname":"Cutzamala de Pinzon","alternatenames":["Cutzamala","Cutzamala de Pinzon","Cutzamala de Pinzón"],"latitude":"18.46783","longitude":"-100.58089","feature_class":"P","feature_code":"PPL","country_code":"MX","cc2":"","admin1_code":"12","admin2_code":"027","admin3_code":"","admin4_code":"","population":"5057","elevation":"","dem":"282","timezone":"America/Mexico_City","modification_date":"2015-06-22"},{"geonameid":"4012607","name":"Coyuca de Catalán","asciiname":"Coyuca de Catalan","alternatenames":["Coyuca","Coyuca de Catalan","Coyuca de Catalán"],"latitude":"18.32614","longitude":"-100.69898","feature_class":"P","feature_code":"PPL","country_code":"MX","cc2":"","admin1_code":"12","admin2_code":"022","admin3_code":"","admin4_code":"","population":"6992","elevation":"","dem":"256","timezone":"America/Mexico_City","modification_date":"2015-06-22"},{"geonameid":"4012608","name":"Coyuca de Benítez","asciiname":"Coyuca de Benitez","alternatenames":["Coyuca","Coyuca de Benitez","Coyuca de Benítez","Tixtlacingo"],"latitude":"17.00895","longitude":"-100.08714","feature_class":"P","feature_code":"PPL","country_code":"MX","cc2":"","admin1_code":"12","admin2_code":"021","admin3_code":"","admin4_code":"","population":"12487","elevation":"","dem":"22","timezone":"America/Mexico_City","modification_date":"2015-06-22"},{"geonameid":"4013727","name":"Ciudad Altamirano","asciiname":"Ciudad Altamirano","alternatenames":["Ciudad Altamirano","Pungarabato","S'judad-Al'tamirano","Сьюдад-Альтамирано"],"latitude":"18.3582","longitude":"-100.66965","feature_class":"P","feature_code":"PPL","country_code":"MX","cc2":"","admin1_code":"12","admin2_code":"050","admin3_code":"","admin4_code":"","population":"24533","elevation":"","dem":"250","timezone":"America/Mexico_City","modification_date":"2015-06-22"},{"geonameid":"4017984","name":"Atoyac de Álvarez","asciiname":"Atoyac de Alvarez","alternatenames":["Atojak-de-Al'vares","Atoyac","Atoyac de Alvarez","Атояк-де-Альварес"],"latitude":"17.20667","longitude":"-100.43306","feature_class":"P","feature_code":"PPL","country_code":"MX","cc2":"","admin1_code":"12","admin2_code":"011","admin3_code":"","admin4_code":"","population":"21407","elevation":"","dem":"59","timezone":"America/Mexico_City","modification_date":"2013-08-01"},{"geonameid":"4018320","name":"Arcelia","asciiname":"Arcelia","alternatenames":["Arcelia"],"latitude":"18.31847","longitude":"-100.28148","feature_class":"P","feature_code":"PPLA2","country_code":"MX","cc2":"","admin1_code":"12","admin2_code":"007","admin3_code":"","admin4_code":"","population":"16940","elevation":"","dem":"393","timezone":"America/Mexico_City","modification_date":"2015-06-22"},{"geonameid":"4019039","name":"Ajuchitlán del Progreso","asciiname":"Ajuchitlan del Progreso","alternatenames":["Ajuchitlan"],"latitude":"18.15189","longitude":"-100.48353","feature_class":"P","feature_code":"PPL","country_code":"MX","cc2":"","admin1_code":"12","admin2_code":"003","admin3_code":"","admin4_code":"","population":"6329","elevation":"","dem":"297","timezone":"America/Mexico_City","modification_date":"2015-06-22"},{"geonameid":"4019820","name":"Acapetlahuaya","asciiname":"Acapetlahuaya","alternatenames":["Acapetlahuaya"],"latitude":"18.41942","longitude":"-100.07237","feature_class":"P","feature_code":"PPLA2","country_code":"MX","cc2":"","admin1_code":"12","admin2_code":"031","admin3_code":"","admin4_code":"","population":"0","elevation":"","dem":"1181","timezone":"America/Mexico_City","modification_date":"2015-06-22"},{"geonameid":"4026952","name":"Pantla","asciiname":"Pantla","alternatenames":[""],"latitude":"17.73861","longitude":"-101.63639","feature_class":"P","feature_code":"PPL","country_code":"MX","cc2":"","admin1_code":"12","admin2_code":"038","admin3_code":"","admin4_code":"","population":"3917","elevation":"","dem":"25","timezone":"America/Mexico_City","modification_date":"2013-07-31"},{"geonameid":"4026954","name":"San José Ixtapa (Barrio Viejo)","asciiname":"San Jose Ixtapa (Barrio Viejo)","alternatenames":[""],"latitude":"17.70222","longitude":"-101.61944","feature_class":"P","feature_code":"PPL","country_code":"MX","cc2":"","admin1_code":"12","admin2_code":"038","admin3_code":"","admin4_code":"","population":"8698","elevation":"","dem":"14","timezone":"America/Mexico_City","modification_date":"2013-08-01"},{"geonameid":"4026975","name":"Los Almendros","asciiname":"Los Almendros","alternatenames":[""],"latitude":"17.61167","longitude":"-101.43917","feature_class":"P","feature_code":"PPL","country_code":"MX","cc2":"","admin1_code":"12","admin2_code":"038","admin3_code":"","admin4_code":"","population":"1198","elevation":"","dem":"32","timezone":"America/Mexico_City","modification_date":"2013-08-01"},{"geonameid":"4027251","name":"San Jerónimo el Grande","asciiname":"San Jeronimo el Grande","alternatenames":[""],"latitude":"18.21167","longitude":"-100.50179","feature_class":"P","feature_code":"PPL","country_code":"MX","cc2":"","admin1_code":"12","admin2_code":"003","admin3_code":"","admin4_code":"","population":"1472","elevation":"","dem":"276","timezone":"America/Mexico_City","modification_date":"2013-08-01"},{"geonameid":"4027555","name":"El Ticui","asciiname":"El Ticui","alternatenames":[""],"latitude":"17.21639","longitude":"-100.44472","feature_class":"P","feature_code":"PPL","country_code":"MX","cc2":"","admin1_code":"12","admin2_code":"011","admin3_code":"","admin4_code":"","population":"3389","elevation":"","dem":"55","timezone":"America/Mexico_City","modification_date":"2013-08-01"},{"geonameid":"4027573","name":"Arenal de Álvarez (Arenal de Paco)","asciiname":"Arenal de Alvarez (Arenal de Paco)","alternatenames":[""],"latitude":"17.12611","longitude":"-100.455","feature_class":"P","feature_code":"PPL","country_code":"MX","cc2":"","admin1_code":"12","admin2_code":"014","admin3_code":"","admin4_code":"","population":"1311","elevation":"","dem":"17","timezone":"America/Mexico_City","modification_date":"2013-08-01"},{"geonameid":"4027760","name":"Colonia Luces en el Mar","asciiname":"Colonia Luces en el Mar","alternatenames":["Colonia Luces en el Mar","Luces en el Mar"],"latitude":"16.92162","longitude":"-100.01526","feature_class":"P","feature_code":"PPL","country_code":"MX","cc2":"","admin1_code":"12","admin2_code":"021","admin3_code":"","admin4_code":"","population":"1200","elevation":"","dem":"11","timezone":"America/Mexico_City","modification_date":"2014-09-06"},{"geonameid":"8858115","name":"Ciudad de Huitzuco","asciiname":"Ciudad de Huitzuco","alternatenames":["Ciudad de Huitzuco"],"latitude":"18.30111","longitude":"-99.33111","feature_class":"P","feature_code":"PPL","country_code":"MX","cc2":"","admin1_code":"12","admin2_code":"034","admin3_code":"","admin4_code":"","population":"17475","elevation":"","dem":"942","timezone":"America/Mexico_City","modification_date":"2014-04-11"},{"geonameid":"8858201","name":"El Súchil","asciiname":"El Suchil","alternatenames":["El Suchil","El Súchil"],"latitude":"17.22694","longitude":"-100.63917","feature_class":"P","feature_code":"PPL","country_code":"MX","cc2":"","admin1_code":"12","admin2_code":"057","admin3_code":"","admin4_code":"","population":"6962","elevation":"","dem":"43","timezone":"America/Mexico_City","modification_date":"2014-04-11"},{"geonameid":"8858219","name":"Kilómetro 30","asciiname":"Kilometro 30","alternatenames":["Kilometro 30","Kilómetro 30"],"latitude":"16.99778","longitude":"-99.78","feature_class":"P","feature_code":"PPL","country_code":"MX","cc2":"","admin1_code":"12","admin2_code":"001","admin3_code":"","admin4_code":"","population":"6301","elevation":"","dem":"266","timezone":"America/Mexico_City","modification_date":"2014-04-11"},{"geonameid":"8858316","name":"Nejapa","asciiname":"Nejapa","alternatenames":["Nejapa"],"latitude":"17.61389","longitude":"-99.145","feature_class":"P","feature_code":"PPL","country_code":"MX","cc2":"","admin1_code":"12","admin2_code":"028","admin3_code":"","admin4_code":"","population":"3944","elevation":"","dem":"1364","timezone":"America/Mexico_City","modification_date":"2014-04-11"},{"geonameid":"8858390","name":"Amatillo","asciiname":"Amatillo","alternatenames":["Amatillo"],"latitude":"16.82028","longitude":"-99.66611","feature_class":"P","feature_code":"PPL","country_code":"MX","cc2":"","admin1_code":"12","admin2_code":"001","admin3_code":"","admin4_code":"","population":"3298","elevation":"","dem":"42","timezone":"America/Mexico_City","modification_date":"2014-04-11"},{"geonameid":"8858412","name":"Pochahuizco","asciiname":"Pochahuizco","alternatenames":["Pochahuizco"],"latitude":"17.66472","longitude":"-99.22278","feature_class":"P","feature_code":"PPL","country_code":"MX","cc2":"","admin1_code":"12","admin2_code":"074","admin3_code":"","admin4_code":"","population":"3130","elevation":"","dem":"1554","timezone":"America/Mexico_City","modification_date":"2014-04-11"},{"geonameid":"8858413","name":"Corral Falso","asciiname":"Corral Falso","alternatenames":["Corral Falso"],"latitude":"18.24472","longitude":"-100.56","feature_class":"P","feature_code":"PPL","country_code":"MX","cc2":"","admin1_code":"12","admin2_code":"003","admin3_code":"","admin4_code":"","population":"3123","elevation":"","dem":"273","timezone":"America/Mexico_City","modification_date":"2014-04-11"},{"geonameid":"8858419","name":"Changata","asciiname":"Changata","alternatenames":["Changata"],"latitude":"18.27306","longitude":"-100.58528","feature_class":"P","feature_code":"PPL","country_code":"MX","cc2":"","admin1_code":"12","admin2_code":"003","admin3_code":"","admin4_code":"","population":"3068","elevation":"","dem":"266","timezone":"America/Mexico_City","modification_date":"2014-04-11"},{"geonameid":"8858442","name":"Copanatoyac","asciiname":"Copanatoyac","alternatenames":["Copanatoyac"],"latitude":"17.46417","longitude":"-98.7125","feature_class":"P","feature_code":"PPL","country_code":"MX","cc2":"","admin1_code":"12","admin2_code":"020","admin3_code":"","admin4_code":"","population":"2924","elevation":"","dem":"1374","timezone":"America/Mexico_City","modification_date":"2014-04-11"},{"geonameid":"8858486","name":"Amuco de la Reforma","asciiname":"Amuco de la Reforma","alternatenames":["Amuco de la Reforma"],"latitude":"18.29361","longitude":"-100.63972","feature_class":"P","feature_code":"PPL","country_code":"MX","cc2":"","admin1_code":"12","admin2_code":"022","admin3_code":"","admin4_code":"","population":"2703","elevation":"","dem":"259","timezone":"America/Mexico_City","modification_date":"2014-04-11"},{"geonameid":"8858531","name":"Tuncingo","asciiname":"Tuncingo","alternatenames":["Tuncingo"],"latitude":"16.85083","longitude":"-99.78917","feature_class":"P","feature_code":"PPL","country_code":"MX","cc2":"","admin1_code":"12","admin2_code":"001","admin3_code":"","admin4_code":"","population":"2570","elevation":"","dem":"54","timezone":"America/Mexico_City","modification_date":"2014-04-11"},{"geonameid":"8858566","name":"El Rincón (Santa Cruz del Rincón)","asciiname":"El Rincon (Santa Cruz del Rincon)","alternatenames":["El Rincon (Santa Cruz del Rincon)","El Rincón (Santa Cruz del Rincón)"],"latitude":"16.99611","longitude":"-98.73528","feature_class":"P","feature_code":"PPL","country_code":"MX","cc2":"","admin1_code":"12","admin2_code":"041","admin3_code":"","admin4_code":"","population":"2449","elevation":"","dem":"610","timezone":"America/Mexico_City","modification_date":"2014-04-11"},{"geonameid":"8858578","name":"Pantitlán","asciiname":"Pantitlan","alternatenames":["Pantitlan","Pantitlán"],"latitude":"17.63972","longitude":"-99.10972","feature_class":"P","feature_code":"PPL","country_code":"MX","cc2":"","admin1_code":"12","admin2_code":"028","admin3_code":"","admin4_code":"","population":"2413","elevation":"","dem":"1830","timezone":"America/Mexico_City","modification_date":"2014-04-11"},{"geonameid":"8858592","name":"Tehuilotepec","asciiname":"Tehuilotepec","alternatenames":["Tehuilotepec"],"latitude":"18.55167","longitude":"-99.58111","feature_class":"P","feature_code":"PPL","country_code":"MX","cc2":"","admin1_code":"12","admin2_code":"055","admin3_code":"","admin4_code":"","population":"2377","elevation":"","dem":"1694","timezone":"America/Mexico_City","modification_date":"2014-04-11"},{"geonameid":"8858603","name":"San Isidro Gallinero (El Gallinero)","asciiname":"San Isidro Gallinero (El Gallinero)","alternatenames":["San Isidro Gallinero (El Gallinero)"],"latitude":"16.88139","longitude":"-99.71417","feature_class":"P","feature_code":"PPL","country_code":"MX","cc2":"","admin1_code":"12","admin2_code":"001","admin3_code":"","admin4_code":"","population":"2347","elevation":"","dem":"72","timezone":"America/Mexico_City","modification_date":"2014-04-11"},{"geonameid":"8858604","name":"Guadalupe Victoria","asciiname":"Guadalupe Victoria","alternatenames":["Guadalupe Victoria"],"latitude":"16.75611","longitude":"-98.18167","feature_class":"P","feature_code":"PPL","country_code":"MX","cc2":"","admin1_code":"12","admin2_code":"071","admin3_code":"","admin4_code":"","population":"2342","elevation":"","dem":"456","timezone":"America/Mexico_City","modification_date":"2014-04-11"},{"geonameid":"8858627","name":"Paso de Arena","asciiname":"Paso de Arena","alternatenames":["Paso de Arena"],"latitude":"18.30333","longitude":"-100.84639","feature_class":"P","feature_code":"PPL","country_code":"MX","cc2":"","admin1_code":"12","admin2_code":"022","admin3_code":"","admin4_code":"","population":"2260","elevation":"","dem":"348","timezone":"America/Mexico_City","modification_date":"2014-04-11"},{"geonameid":"8858660","name":"Tonalá","asciiname":"Tonala","alternatenames":["Tonala","Tonalá"],"latitude":"16.86167","longitude":"-99.05444","feature_class":"P","feature_code":"PPL","country_code":"MX","cc2":"","admin1_code":"12","admin2_code":"012","admin3_code":"","admin4_code":"","population":"2176","elevation":"","dem":"327","timezone":"America/Mexico_City","modification_date":"2014-04-11"},{"geonameid":"8858720","name":"Acatempa","asciiname":"Acatempa","alternatenames":["Acatempa"],"latitude":"17.64333","longitude":"-99.36639","feature_class":"P","feature_code":"PPL","country_code":"MX","cc2":"","admin1_code":"12","admin2_code":"061","admin3_code":"","admin4_code":"","population":"2008","elevation":"","dem":"1287","timezone":"America/Mexico_City","modification_date":"2014-04-11"},{"geonameid":"8858726","name":"Vallecitos de Zaragoza","asciiname":"Vallecitos de Zaragoza","alternatenames":["Vallecitos de Zaragoza"],"latitude":"17.92028","longitude":"-101.32361","feature_class":"P","feature_code":"PPL","country_code":"MX","cc2":"","admin1_code":"12","admin2_code":"038","admin3_code":"","admin4_code":"","population":"2000","elevation":"","dem":"526","timezone":"America/Mexico_City","modification_date":"2014-04-11"},{"geonameid":"8858739","name":"El Cortijo","asciiname":"El Cortijo","alternatenames":["El Cortijo"],"latitude":"16.98972","longitude":"-99.14889","feature_class":"P","feature_code":"PPL","country_code":"MX","cc2":"","admin1_code":"12","admin2_code":"012","admin3_code":"","admin4_code":"","population":"1979","elevation":"","dem":"359","timezone":"America/Mexico_City","modification_date":"2014-04-11"},{"geonameid":"8858761","name":"La Azozuca","asciiname":"La Azozuca","alternatenames":["La Azozuca"],"latitude":"16.82139","longitude":"-99.04194","feature_class":"P","feature_code":"PPL","country_code":"MX","cc2":"","admin1_code":"12","admin2_code":"012","admin3_code":"","admin4_code":"","population":"1924","elevation":"","dem":"219","timezone":"America/Mexico_City","modification_date":"2014-04-11"},{"geonameid":"8858763","name":"Cuatzoquitengo","asciiname":"Cuatzoquitengo","alternatenames":["Cuatzoquitengo"],"latitude":"17.28822","longitude":"-98.61523","feature_class":"P","feature_code":"PPL","country_code":"MX","cc2":"","admin1_code":"12","admin2_code":"041","admin3_code":"","admin4_code":"","population":"1920","elevation":"","dem":"2038","timezone":"America/Mexico_City","modification_date":"2014-04-11"},{"geonameid":"8858768","name":"San Vicente Zoyatlán","asciiname":"San Vicente Zoyatlan","alternatenames":["San Vicente Zoyatlan","San Vicente Zoyatlán"],"latitude":"17.3225","longitude":"-98.36417","feature_class":"P","feature_code":"PPL","country_code":"MX","cc2":"","admin1_code":"12","admin2_code":"004","admin3_code":"","admin4_code":"","population":"1911","elevation":"","dem":"2059","timezone":"America/Mexico_City","modification_date":"2014-04-11"},{"geonameid":"8858770","name":"Huehuetán","asciiname":"Huehuetan","alternatenames":["Huehuetan","Huehuetán"],"latitude":"16.63583","longitude":"-98.55889","feature_class":"P","feature_code":"PPL","country_code":"MX","cc2":"","admin1_code":"12","admin2_code":"013","admin3_code":"","admin4_code":"","population":"1910","elevation":"","dem":"201","timezone":"America/Mexico_City","modification_date":"2014-04-11"},{"geonameid":"8858787","name":"Tlaxinga (Clatzinga)","asciiname":"Tlaxinga (Clatzinga)","alternatenames":["Tlaxinga (Clatzinga)"],"latitude":"17.52106","longitude":"-99.19331","feature_class":"P","feature_code":"PPL","country_code":"MX","cc2":"","admin1_code":"12","admin2_code":"028","admin3_code":"","admin4_code":"","population":"1884","elevation":"","dem":"1466","timezone":"America/Mexico_City","modification_date":"2014-04-11"},{"geonameid":"8858815","name":"Alpuyecancingo de las Montañas","asciiname":"Alpuyecancingo de las Montanas","alternatenames":["Alpuyecancingo de las Montanas","Alpuyecancingo de las Montañas"],"latitude":"17.67083","longitude":"-98.85194","feature_class":"P","feature_code":"PPL","country_code":"MX","cc2":"","admin1_code":"12","admin2_code":"002","admin3_code":"","admin4_code":"","population":"1838","elevation":"","dem":"1483","timezone":"America/Mexico_City","modification_date":"2014-04-11"},{"geonameid":"8858834","name":"La Mohonera","asciiname":"La Mohonera","alternatenames":["La Mohonera"],"latitude":"17.63839","longitude":"-99.20222","feature_class":"P","feature_code":"PPL","country_code":"MX","cc2":"","admin1_code":"12","admin2_code":"028","admin3_code":"","admin4_code":"","population":"1808","elevation":"","dem":"1500","timezone":"America/Mexico_City","modification_date":"2014-04-11"},{"geonameid":"8858850","name":"Atenxoxola","asciiname":"Atenxoxola","alternatenames":["Atenxoxola"],"latitude":"17.48819","longitude":"-99.14285","feature_class":"P","feature_code":"PPL","country_code":"MX","cc2":"","admin1_code":"12","admin2_code":"028","admin3_code":"","admin4_code":"","population":"1770","elevation":"","dem":"1424","timezone":"America/Mexico_City","modification_date":"2014-04-11"},{"geonameid":"8858855","name":"El Limón","asciiname":"El Limon","alternatenames":["El Limon","El Limón"],"latitude":"16.99556","longitude":"-99.3775","feature_class":"P","feature_code":"PPL","country_code":"MX","cc2":"","admin1_code":"12","admin2_code":"056","admin3_code":"","admin4_code":"","population":"1763","elevation":"","dem":"611","timezone":"America/Mexico_City","modification_date":"2014-04-11"},{"geonameid":"8858877","name":"Atlamajac","asciiname":"Atlamajac","alternatenames":["Atlamajac"],"latitude":"17.55528","longitude":"-98.54722","feature_class":"P","feature_code":"PPL","country_code":"MX","cc2":"","admin1_code":"12","admin2_code":"066","admin3_code":"","admin4_code":"","population":"1737","elevation":"","dem":"1061","timezone":"America/Mexico_City","modification_date":"2014-04-11"},{"geonameid":"8858894","name":"Zapotitlán Tablas","asciiname":"Zapotitlan Tablas","alternatenames":["Zapotitlan Tablas","Zapotitlán Tablas"],"latitude":"17.42417","longitude":"-98.78056","feature_class":"P","feature_code":"PPL","country_code":"MX","cc2":"","admin1_code":"12","admin2_code":"072","admin3_code":"","admin4_code":"","population":"1713","elevation":"","dem":"1804","timezone":"America/Mexico_City","modification_date":"2014-04-11"},{"geonameid":"8858905","name":"San José la Hacienda","asciiname":"San Jose la Hacienda","alternatenames":["San Jose la Hacienda","San José la Hacienda"],"latitude":"16.97944","longitude":"-99.06667","feature_class":"P","feature_code":"PPL","country_code":"MX","cc2":"","admin1_code":"12","admin2_code":"012","admin3_code":"","admin4_code":"","population":"1706","elevation":"","dem":"420","timezone":"America/Mexico_City","modification_date":"2014-04-11"},{"geonameid":"8858912","name":"Paintla","asciiname":"Paintla","alternatenames":["Paintla"],"latitude":"18.50333","longitude":"-99.65528","feature_class":"P","feature_code":"PPL","country_code":"MX","cc2":"","admin1_code":"12","admin2_code":"055","admin3_code":"","admin4_code":"","population":"1695","elevation":"","dem":"1339","timezone":"America/Mexico_City","modification_date":"2014-04-11"},{"geonameid":"8858931","name":"San Antonio Coyahuacán","asciiname":"San Antonio Coyahuacan","alternatenames":["San Antonio Coyahuacan","San Antonio Coyahuacán"],"latitude":"17.86194","longitude":"-98.68","feature_class":"P","feature_code":"PPL","country_code":"MX","cc2":"","admin1_code":"12","admin2_code":"045","admin3_code":"","admin4_code":"","population":"1666","elevation":"","dem":"1546","timezone":"America/Mexico_City","modification_date":"2014-04-11"},{"geonameid":"8858934","name":"Aguas Calientes","asciiname":"Aguas Calientes","alternatenames":["Aguas Calientes"],"latitude":"16.8425","longitude":"-99.64056","feature_class":"P","feature_code":"PPL","country_code":"MX","cc2":"","admin1_code":"12","admin2_code":"001","admin3_code":"","admin4_code":"","population":"1660","elevation":"","dem":"34","timezone":"America/Mexico_City","modification_date":"2014-04-11"},{"geonameid":"8858942","name":"Cuonetzingo","asciiname":"Cuonetzingo","alternatenames":["Cuonetzingo"],"latitude":"17.52722","longitude":"-99.26583","feature_class":"P","feature_code":"PPL","country_code":"MX","cc2":"","admin1_code":"12","admin2_code":"028","admin3_code":"","admin4_code":"","population":"1644","elevation":"","dem":"1946","timezone":"America/Mexico_City","modification_date":"2014-04-11"},{"geonameid":"8858958","name":"Hueyitlalpan","asciiname":"Hueyitlalpan","alternatenames":["Hueyitlalpan"],"latitude":"17.67528","longitude":"-99.29556","feature_class":"P","feature_code":"PPL","country_code":"MX","cc2":"","admin1_code":"12","admin2_code":"042","admin3_code":"","admin4_code":"","population":"1619","elevation":"","dem":"1660","timezone":"America/Mexico_City","modification_date":"2014-04-11"},{"geonameid":"8858960","name":"Colonia Aeropuerto","asciiname":"Colonia Aeropuerto","alternatenames":["Colonia Aeropuerto"],"latitude":"17.62028","longitude":"-101.45889","feature_class":"P","feature_code":"PPL","country_code":"MX","cc2":"","admin1_code":"12","admin2_code":"038","admin3_code":"","admin4_code":"","population":"1618","elevation":"","dem":"23","timezone":"America/Mexico_City","modification_date":"2014-04-11"},{"geonameid":"8859005","name":"Xocoyolzintla","asciiname":"Xocoyolzintla","alternatenames":["Xocoyolzintla"],"latitude":"17.71278","longitude":"-98.98194","feature_class":"P","feature_code":"PPL","country_code":"MX","cc2":"","admin1_code":"12","admin2_code":"002","admin3_code":"","admin4_code":"","population":"1566","elevation":"","dem":"1290","timezone":"America/Mexico_City","modification_date":"2014-04-11"},{"geonameid":"8859011","name":"Colonia el Pedregal","asciiname":"Colonia el Pedregal","alternatenames":["Colonia el Pedregal"],"latitude":"18.34961","longitude":"-99.85642","feature_class":"P","feature_code":"PPL","country_code":"MX","cc2":"","admin1_code":"12","admin2_code":"058","admin3_code":"","admin4_code":"","population":"1551","elevation":"","dem":"1617","timezone":"America/Mexico_City","modification_date":"2014-04-11"},{"geonameid":"8859016","name":"Jolotichán","asciiname":"Jolotichan","alternatenames":["Jolotichan","Jolotichán"],"latitude":"16.75222","longitude":"-98.73056","feature_class":"P","feature_code":"PPL","country_code":"MX","cc2":"","admin1_code":"12","admin2_code":"052","admin3_code":"","admin4_code":"","population":"1550","elevation":"","dem":"281","timezone":"America/Mexico_City","modification_date":"2014-04-11"},{"geonameid":"8859027","name":"Querendas","asciiname":"Querendas","alternatenames":["Querendas"],"latitude":"18.3425","longitude":"-100.63444","feature_class":"P","feature_code":"PPL","country_code":"MX","cc2":"","admin1_code":"12","admin2_code":"050","admin3_code":"","admin4_code":"","population":"1537","elevation":"","dem":"262","timezone":"America/Mexico_City","modification_date":"2014-04-11"},{"geonameid":"8859041","name":"Villa Hermosa (Las Pozas)","asciiname":"Villa Hermosa (Las Pozas)","alternatenames":["Villa Hermosa (Las Pozas)"],"latitude":"17.63361","longitude":"-101.46639","feature_class":"P","feature_code":"PPL","country_code":"MX","cc2":"","admin1_code":"12","admin2_code":"038","admin3_code":"","admin4_code":"","population":"1519","elevation":"","dem":"21","timezone":"America/Mexico_City","modification_date":"2014-04-11"},{"geonameid":"8859044","name":"Tlaltempanapa","asciiname":"Tlaltempanapa","alternatenames":["Tlaltempanapa"],"latitude":"17.73611","longitude":"-99.17722","feature_class":"P","feature_code":"PPL","country_code":"MX","cc2":"","admin1_code":"12","admin2_code":"074","admin3_code":"","admin4_code":"","population":"1517","elevation":"","dem":"1400","timezone":"America/Mexico_City","modification_date":"2014-04-11"},{"geonameid":"8859076","name":"Tlacoapa","asciiname":"Tlacoapa","alternatenames":["Tlacoapa"],"latitude":"17.26361","longitude":"-98.74861","feature_class":"P","feature_code":"PPL","country_code":"MX","cc2":"","admin1_code":"12","admin2_code":"063","admin3_code":"","admin4_code":"","population":"1486","elevation":"","dem":"1411","timezone":"America/Mexico_City","modification_date":"2014-04-11"},{"geonameid":"8859080","name":"Zoquitlán","asciiname":"Zoquitlan","alternatenames":["Zoquitlan","Zoquitlán"],"latitude":"17.34194","longitude":"-98.94917","feature_class":"P","feature_code":"PPL","country_code":"MX","cc2":"","admin1_code":"12","admin2_code":"010","admin3_code":"","admin4_code":"","population":"1485","elevation":"","dem":"1881","timezone":"America/Mexico_City","modification_date":"2014-04-11"},{"geonameid":"8859088","name":"Tepechicotlán","asciiname":"Tepechicotlan","alternatenames":["Tepechicotlan","Tepechicotlán"],"latitude":"17.48317","longitude":"-99.41549","feature_class":"P","feature_code":"PPL","country_code":"MX","cc2":"","admin1_code":"12","admin2_code":"029","admin3_code":"","admin4_code":"","population":"1480","elevation":"","dem":"1042","timezone":"America/Mexico_City","modification_date":"2014-04-11"},{"geonameid":"8859108","name":"El Potrerillo (Potrerillo del Rincón)","asciiname":"El Potrerillo (Potrerillo del Rincon)","alternatenames":["El Potrerillo (Potrerillo del Rincon)","El Potrerillo (Potrerillo del Rincón)"],"latitude":"16.95806","longitude":"-98.73083","feature_class":"P","feature_code":"PPL","country_code":"MX","cc2":"","admin1_code":"12","admin2_code":"041","admin3_code":"","admin4_code":"","population":"1460","elevation":"","dem":"691","timezone":"America/Mexico_City","modification_date":"2014-04-11"},{"geonameid":"8859111","name":"Fermín Rabadán Cervantes","asciiname":"Fermin Rabadan Cervantes","alternatenames":["Fermin Rabadan Cervantes","Fermín Rabadán Cervantes"],"latitude":"18.31528","longitude":"-99.56722","feature_class":"P","feature_code":"PPL","country_code":"MX","cc2":"","admin1_code":"12","admin2_code":"035","admin3_code":"","admin4_code":"","population":"1459","elevation":"","dem":"794","timezone":"America/Mexico_City","modification_date":"2014-04-11"},{"geonameid":"8859161","name":"El Polvorín","asciiname":"El Polvorin","alternatenames":["El Polvorin","El Polvorín"],"latitude":"16.57833","longitude":"-98.80139","feature_class":"P","feature_code":"PPL","country_code":"MX","cc2":"","admin1_code":"12","admin2_code":"077","admin3_code":"","admin4_code":"","population":"1415","elevation":"","dem":"28","timezone":"America/Mexico_City","modification_date":"2014-04-11"},{"geonameid":"8859167","name":"Nuevo Guerrero","asciiname":"Nuevo Guerrero","alternatenames":["Nuevo Guerrero"],"latitude":"18.22583","longitude":"-100.52583","feature_class":"P","feature_code":"PPL","country_code":"MX","cc2":"","admin1_code":"12","admin2_code":"067","admin3_code":"","admin4_code":"","population":"1411","elevation":"","dem":"272","timezone":"America/Mexico_City","modification_date":"2014-04-11"},{"geonameid":"8859171","name":"Santa Anita","asciiname":"Santa Anita","alternatenames":["Santa Anita"],"latitude":"17.42583","longitude":"-98.71889","feature_class":"P","feature_code":"PPL","country_code":"MX","cc2":"","admin1_code":"12","admin2_code":"020","admin3_code":"","admin4_code":"","population":"1408","elevation":"","dem":"1571","timezone":"America/Mexico_City","modification_date":"2014-04-11"},{"geonameid":"8859177","name":"Villa Rotaria","asciiname":"Villa Rotaria","alternatenames":["Villa Rotaria"],"latitude":"17.19444","longitude":"-100.66917","feature_class":"P","feature_code":"PPL","country_code":"MX","cc2":"","admin1_code":"12","admin2_code":"057","admin3_code":"","admin4_code":"","population":"1404","elevation":"","dem":"23","timezone":"America/Mexico_City","modification_date":"2014-04-11"},{"geonameid":"8859191","name":"Zoquiapa","asciiname":"Zoquiapa","alternatenames":["Zoquiapa"],"latitude":"17.54472","longitude":"-99.27694","feature_class":"P","feature_code":"PPL","country_code":"MX","cc2":"","admin1_code":"12","admin2_code":"061","admin3_code":"","admin4_code":"","population":"1390","elevation":"","dem":"1881","timezone":"America/Mexico_City","modification_date":"2014-04-11"},{"geonameid":"8859197","name":"Ixcatla","asciiname":"Ixcatla","alternatenames":["Ixcatla"],"latitude":"17.4225","longitude":"-98.99944","feature_class":"P","feature_code":"PPL","country_code":"MX","cc2":"","admin1_code":"12","admin2_code":"079","admin3_code":"","admin4_code":"","population":"1382","elevation":"","dem":"1495","timezone":"America/Mexico_City","modification_date":"2014-04-11"},{"geonameid":"8859210","name":"Cajelitos","asciiname":"Cajelitos","alternatenames":["Cajelitos"],"latitude":"17.26778","longitude":"-99.49306","feature_class":"P","feature_code":"PPL","country_code":"MX","cc2":"","admin1_code":"12","admin2_code":"029","admin3_code":"","admin4_code":"","population":"1376","elevation":"","dem":"718","timezone":"America/Mexico_City","modification_date":"2014-04-11"},{"geonameid":"8859216","name":"Apalani","asciiname":"Apalani","alternatenames":["Apalani"],"latitude":"16.85361","longitude":"-99.58944","feature_class":"P","feature_code":"PPL","country_code":"MX","cc2":"","admin1_code":"12","admin2_code":"001","admin3_code":"","admin4_code":"","population":"1371","elevation":"","dem":"181","timezone":"America/Mexico_City","modification_date":"2014-04-11"},{"geonameid":"8859218","name":"El Embarcadero","asciiname":"El Embarcadero","alternatenames":["El Embarcadero"],"latitude":"16.96417","longitude":"-100.00167","feature_class":"P","feature_code":"PPL","country_code":"MX","cc2":"","admin1_code":"12","admin2_code":"021","admin3_code":"","admin4_code":"","population":"1370","elevation":"","dem":"11","timezone":"America/Mexico_City","modification_date":"2014-04-11"},{"geonameid":"8859219","name":"Tlacoaxtla","asciiname":"Tlacoaxtla","alternatenames":["Tlacoaxtla"],"latitude":"17.55485","longitude":"-99.20081","feature_class":"P","feature_code":"PPL","country_code":"MX","cc2":"","admin1_code":"12","admin2_code":"028","admin3_code":"","admin4_code":"","population":"1369","elevation":"","dem":"1583","timezone":"America/Mexico_City","modification_date":"2014-04-11"},{"geonameid":"8859231","name":"Villa Hermosa","asciiname":"Villa Hermosa","alternatenames":["Villa Hermosa"],"latitude":"16.93861","longitude":"-99.33","feature_class":"P","feature_code":"PPL","country_code":"MX","cc2":"","admin1_code":"12","admin2_code":"056","admin3_code":"","admin4_code":"","population":"1358","elevation":"","dem":"762","timezone":"America/Mexico_City","modification_date":"2014-04-11"},{"geonameid":"8859234","name":"Xochitepec","asciiname":"Xochitepec","alternatenames":["Xochitepec"],"latitude":"17.1825","longitude":"-99.22639","feature_class":"P","feature_code":"PPL","country_code":"MX","cc2":"","admin1_code":"12","admin2_code":"051","admin3_code":"","admin4_code":"","population":"1356","elevation":"","dem":"667","timezone":"America/Mexico_City","modification_date":"2014-04-11"},{"geonameid":"8859237","name":"San Pedro Cacahuatepec","asciiname":"San Pedro Cacahuatepec","alternatenames":["San Pedro Cacahuatepec"],"latitude":"16.815","longitude":"-99.66833","feature_class":"P","feature_code":"PPL","country_code":"MX","cc2":"","admin1_code":"12","admin2_code":"001","admin3_code":"","admin4_code":"","population":"1353","elevation":"","dem":"65","timezone":"America/Mexico_City","modification_date":"2014-04-11"},{"geonameid":"8859240","name":"Sinahua","asciiname":"Sinahua","alternatenames":["Sinahua"],"latitude":"18.28111","longitude":"-100.60028","feature_class":"P","feature_code":"PPL","country_code":"MX","cc2":"","admin1_code":"12","admin2_code":"050","admin3_code":"","admin4_code":"","population":"1349","elevation":"","dem":"263","timezone":"America/Mexico_City","modification_date":"2014-04-11"},{"geonameid":"8859259","name":"San Andrés Playa Encantada (El Podrido)","asciiname":"San Andres Playa Encantada (El Podrido)","alternatenames":["San Andres Playa Encantada (El Podrido)","San Andrés Playa Encantada (El Podrido)"],"latitude":"16.69222","longitude":"-99.63389","feature_class":"P","feature_code":"PPL","country_code":"MX","cc2":"","admin1_code":"12","admin2_code":"001","admin3_code":"","admin4_code":"","population":"1333","elevation":"","dem":"5","timezone":"America/Mexico_City","modification_date":"2014-04-11"},{"geonameid":"8859276","name":"Ahuihuiyuco","asciiname":"Ahuihuiyuco","alternatenames":["Ahuihuiyuco"],"latitude":"17.62958","longitude":"-99.22738","feature_class":"P","feature_code":"PPL","country_code":"MX","cc2":"","admin1_code":"12","admin2_code":"028","admin3_code":"","admin4_code":"","population":"1320","elevation":"","dem":"1653","timezone":"America/Mexico_City","modification_date":"2014-04-11"},{"geonameid":"8859288","name":"Ahuacachahue (Ndog'yo Itún Tichi)","asciiname":"Ahuacachahue (Ndog'yo Itun Tichi)","alternatenames":["Ahuacachahue (Ndog'yo Itun Tichi)","Ahuacachahue (Ndog'yo Itún Tichi)"],"latitude":"16.82861","longitude":"-98.98556","feature_class":"P","feature_code":"PPL","country_code":"MX","cc2":"","admin1_code":"12","admin2_code":"012","admin3_code":"","admin4_code":"","population":"1313","elevation":"","dem":"666","timezone":"America/Mexico_City","modification_date":"2014-04-11"},{"geonameid":"8859300","name":"Las Lomas","asciiname":"Las Lomas","alternatenames":["Las Lomas"],"latitude":"16.98194","longitude":"-100.095","feature_class":"P","feature_code":"PPL","country_code":"MX","cc2":"","admin1_code":"12","admin2_code":"021","admin3_code":"","admin4_code":"","population":"1303","elevation":"","dem":"14","timezone":"America/Mexico_City","modification_date":"2014-04-11"},{"geonameid":"8859303","name":"La Soledad","asciiname":"La Soledad","alternatenames":["La Soledad"],"latitude":"16.92","longitude":"-98.16694","feature_class":"P","feature_code":"PPL","country_code":"MX","cc2":"","admin1_code":"12","admin2_code":"071","admin3_code":"","admin4_code":"","population":"1302","elevation":"","dem":"815","timezone":"America/Mexico_City","modification_date":"2014-04-11"},{"geonameid":"8859307","name":"San Pedro Huitzapula Norte (Huitzapula Norte)","asciiname":"San Pedro Huitzapula Norte (Huitzapula Norte)","alternatenames":["San Pedro Huitzapula Norte (Huitzapula Norte)"],"latitude":"17.42642","longitude":"-98.80588","feature_class":"P","feature_code":"PPL","country_code":"MX","cc2":"","admin1_code":"12","admin2_code":"010","admin3_code":"","admin4_code":"","population":"1297","elevation":"","dem":"1867","timezone":"America/Mexico_City","modification_date":"2014-04-11"},{"geonameid":"8859312","name":"Alcozacán","asciiname":"Alcozacan","alternatenames":["Alcozacan","Alcozacán"],"latitude":"17.50444","longitude":"-99.095","feature_class":"P","feature_code":"PPL","country_code":"MX","cc2":"","admin1_code":"12","admin2_code":"028","admin3_code":"","admin4_code":"","population":"1293","elevation":"","dem":"1878","timezone":"America/Mexico_City","modification_date":"2014-04-11"},{"geonameid":"8859314","name":"Tlahuapa","asciiname":"Tlahuapa","alternatenames":["Tlahuapa"],"latitude":"17.375","longitude":"-98.3375","feature_class":"P","feature_code":"PPL","country_code":"MX","cc2":"","admin1_code":"12","admin2_code":"004","admin3_code":"","admin4_code":"","population":"1292","elevation":"","dem":"1614","timezone":"America/Mexico_City","modification_date":"2014-04-11"},{"geonameid":"8859319","name":"Colonia Renacimiento","asciiname":"Colonia Renacimiento","alternatenames":["Colonia Renacimiento"],"latitude":"16.76278","longitude":"-98.18222","feature_class":"P","feature_code":"PPL","country_code":"MX","cc2":"","admin1_code":"12","admin2_code":"071","admin3_code":"","admin4_code":"","population":"1290","elevation":"","dem":"478","timezone":"America/Mexico_City","modification_date":"2014-04-11"},{"geonameid":"8859341","name":"Villa Hidalgo (El Cubo)","asciiname":"Villa Hidalgo (El Cubo)","alternatenames":["Villa Hidalgo (El Cubo)"],"latitude":"18.16167","longitude":"-100.315","feature_class":"P","feature_code":"PPL","country_code":"MX","cc2":"","admin1_code":"12","admin2_code":"054","admin3_code":"","admin4_code":"","population":"1278","elevation":"","dem":"304","timezone":"America/Mexico_City","modification_date":"2014-04-11"},{"geonameid":"8859344","name":"Tlanipatla","asciiname":"Tlanipatla","alternatenames":["Tlanipatla"],"latitude":"17.80806","longitude":"-99.45139","feature_class":"P","feature_code":"PPL","country_code":"MX","cc2":"","admin1_code":"12","admin2_code":"075","admin3_code":"","admin4_code":"","population":"1276","elevation":"","dem":"1494","timezone":"America/Mexico_City","modification_date":"2014-04-11"},{"geonameid":"8859348","name":"San Rafael","asciiname":"San Rafael","alternatenames":["San Rafael"],"latitude":"17.22667","longitude":"-98.42417","feature_class":"P","feature_code":"PPL","country_code":"MX","cc2":"","admin1_code":"12","admin2_code":"078","admin3_code":"","admin4_code":"","population":"1274","elevation":"","dem":"2182","timezone":"America/Mexico_City","modification_date":"2014-04-11"},{"geonameid":"8859383","name":"La Luz de Juárez","asciiname":"La Luz de Juarez","alternatenames":["La Luz de Juarez","La Luz de Juárez"],"latitude":"17.535","longitude":"-98.34833","feature_class":"P","feature_code":"PPL","country_code":"MX","cc2":"","admin1_code":"12","admin2_code":"065","admin3_code":"","admin4_code":"","population":"1255","elevation":"","dem":"1400","timezone":"America/Mexico_City","modification_date":"2014-04-11"},{"geonameid":"8859388","name":"Tepozcuautla","asciiname":"Tepozcuautla","alternatenames":["Tepozcuautla"],"latitude":"17.62222","longitude":"-99.22778","feature_class":"P","feature_code":"PPL","country_code":"MX","cc2":"","admin1_code":"12","admin2_code":"028","admin3_code":"","admin4_code":"","population":"1254","elevation":"","dem":"1672","timezone":"America/Mexico_City","modification_date":"2014-04-11"},{"geonameid":"8859398","name":"San Pedro Cuitlapan","asciiname":"San Pedro Cuitlapan","alternatenames":["San Pedro Cuitlapan"],"latitude":"16.97306","longitude":"-98.25167","feature_class":"P","feature_code":"PPL","country_code":"MX","cc2":"","admin1_code":"12","admin2_code":"062","admin3_code":"","admin4_code":"","population":"1249","elevation":"","dem":"766","timezone":"America/Mexico_City","modification_date":"2014-04-11"},{"geonameid":"8859416","name":"Zizicazapa","asciiname":"Zizicazapa","alternatenames":["Zizicazapa"],"latitude":"17.51556","longitude":"-99.1525","feature_class":"P","feature_code":"PPL","country_code":"MX","cc2":"","admin1_code":"12","admin2_code":"028","admin3_code":"","admin4_code":"","population":"1239","elevation":"","dem":"1582","timezone":"America/Mexico_City","modification_date":"2014-04-11"},{"geonameid":"8859424","name":"Patlicha","asciiname":"Patlicha","alternatenames":["Patlicha"],"latitude":"17.43944","longitude":"-98.72167","feature_class":"P","feature_code":"PPL","country_code":"MX","cc2":"","admin1_code":"12","admin2_code":"020","admin3_code":"","admin4_code":"","population":"1235","elevation":"","dem":"1423","timezone":"America/Mexico_City","modification_date":"2014-04-11"},{"geonameid":"8859432","name":"Izotepec","asciiname":"Izotepec","alternatenames":["Izotepec"],"latitude":"17.585","longitude":"-99.95444","feature_class":"P","feature_code":"PPL","country_code":"MX","cc2":"","admin1_code":"12","admin2_code":"032","admin3_code":"","admin4_code":"","population":"1232","elevation":"","dem":"1364","timezone":"America/Mexico_City","modification_date":"2014-04-11"},{"geonameid":"8859433","name":"Rancho de las Lomas","asciiname":"Rancho de las Lomas","alternatenames":["Rancho de las Lomas"],"latitude":"17.73972","longitude":"-99.24583","feature_class":"P","feature_code":"PPL","country_code":"MX","cc2":"","admin1_code":"12","admin2_code":"074","admin3_code":"","admin4_code":"","population":"1232","elevation":"","dem":"1600","timezone":"America/Mexico_City","modification_date":"2014-04-11"},{"geonameid":"8859438","name":"Atlamajalcingo del Río","asciiname":"Atlamajalcingo del Rio","alternatenames":["Atlamajalcingo del Rio","Atlamajalcingo del Río"],"latitude":"17.52667","longitude":"-98.65556","feature_class":"P","feature_code":"PPL","country_code":"MX","cc2":"","admin1_code":"12","admin2_code":"066","admin3_code":"","admin4_code":"","population":"1228","elevation":"","dem":"1150","timezone":"America/Mexico_City","modification_date":"2014-04-11"},{"geonameid":"8859441","name":"Pascala del Oro","asciiname":"Pascala del Oro","alternatenames":["Pascala del Oro"],"latitude":"17.05472","longitude":"-98.80972","feature_class":"P","feature_code":"PPL","country_code":"MX","cc2":"","admin1_code":"12","admin2_code":"052","admin3_code":"","admin4_code":"","population":"1226","elevation":"","dem":"1089","timezone":"America/Mexico_City","modification_date":"2014-04-11"},{"geonameid":"8859446","name":"El Refugio","asciiname":"El Refugio","alternatenames":["El Refugio"],"latitude":"17.03833","longitude":"-99.20056","feature_class":"P","feature_code":"PPL","country_code":"MX","cc2":"","admin1_code":"12","admin2_code":"012","admin3_code":"","admin4_code":"","population":"1222","elevation":"","dem":"411","timezone":"America/Mexico_City","modification_date":"2014-04-11"},{"geonameid":"8859453","name":"Cumbre de Barranca Honda","asciiname":"Cumbre de Barranca Honda","alternatenames":["Cumbre de Barranca Honda"],"latitude":"16.73167","longitude":"-98.33667","feature_class":"P","feature_code":"PPL","country_code":"MX","cc2":"","admin1_code":"12","admin2_code":"046","admin3_code":"","admin4_code":"","population":"1219","elevation":"","dem":"320","timezone":"America/Mexico_City","modification_date":"2014-04-11"},{"geonameid":"8859491","name":"Escalerilla Lagunas","asciiname":"Escalerilla Lagunas","alternatenames":["Escalerilla Lagunas"],"latitude":"17.37806","longitude":"-98.84667","feature_class":"P","feature_code":"PPL","country_code":"MX","cc2":"","admin1_code":"12","admin2_code":"072","admin3_code":"","admin4_code":"","population":"1196","elevation":"","dem":"2239","timezone":"America/Mexico_City","modification_date":"2014-04-11"},{"geonameid":"8859514","name":"Colonia Constitución","asciiname":"Colonia Constitucion","alternatenames":["Colonia Constitucion","Colonia Constitución"],"latitude":"17.53667","longitude":"-98.59944","feature_class":"P","feature_code":"PPL","country_code":"MX","cc2":"","admin1_code":"12","admin2_code":"066","admin3_code":"","admin4_code":"","population":"1185","elevation":"","dem":"1208","timezone":"America/Mexico_City","modification_date":"2014-04-11"},{"geonameid":"8859538","name":"Barrio Nuevo de los Muertos","asciiname":"Barrio Nuevo de los Muertos","alternatenames":["Barrio Nuevo de los Muertos"],"latitude":"16.89278","longitude":"-99.54389","feature_class":"P","feature_code":"PPL","country_code":"MX","cc2":"","admin1_code":"12","admin2_code":"001","admin3_code":"","admin4_code":"","population":"1171","elevation":"","dem":"225","timezone":"America/Mexico_City","modification_date":"2014-04-11"},{"geonameid":"8859553","name":"Ixcuinatoyac","asciiname":"Ixcuinatoyac","alternatenames":["Ixcuinatoyac"],"latitude":"17.36944","longitude":"-98.3425","feature_class":"P","feature_code":"PPL","country_code":"MX","cc2":"","admin1_code":"12","admin2_code":"004","admin3_code":"","admin4_code":"","population":"1161","elevation":"","dem":"1638","timezone":"America/Mexico_City","modification_date":"2014-04-11"},{"geonameid":"8859554","name":"Los Achotes","asciiname":"Los Achotes","alternatenames":["Los Achotes"],"latitude":"17.60056","longitude":"-101.4175","feature_class":"P","feature_code":"PPL","country_code":"MX","cc2":"","admin1_code":"12","admin2_code":"038","admin3_code":"","admin4_code":"","population":"1161","elevation":"","dem":"35","timezone":"America/Mexico_City","modification_date":"2014-04-11"},{"geonameid":"8859608","name":"Coyahualco","asciiname":"Coyahualco","alternatenames":["Coyahualco"],"latitude":"17.74139","longitude":"-98.56667","feature_class":"P","feature_code":"PPL","country_code":"MX","cc2":"","admin1_code":"12","admin2_code":"033","admin3_code":"","admin4_code":"","population":"1136","elevation":"","dem":"914","timezone":"America/Mexico_City","modification_date":"2014-04-11"},{"geonameid":"8859626","name":"La Concepción (La Concha)","asciiname":"La Concepcion (La Concha)","alternatenames":["La Concepcion (La Concha)","La Concepción (La Concha)"],"latitude":"18.76778","longitude":"-99.6925","feature_class":"P","feature_code":"PPL","country_code":"MX","cc2":"","admin1_code":"12","admin2_code":"049","admin3_code":"","admin4_code":"","population":"1127","elevation":"","dem":"1665","timezone":"America/Mexico_City","modification_date":"2014-04-11"},{"geonameid":"8859632","name":"Caxitepec","asciiname":"Caxitepec","alternatenames":["Caxitepec"],"latitude":"17.29449","longitude":"-98.96741","feature_class":"P","feature_code":"PPL","country_code":"MX","cc2":"","admin1_code":"12","admin2_code":"010","admin3_code":"","admin4_code":"","population":"1125","elevation":"","dem":"1827","timezone":"America/Mexico_City","modification_date":"2014-04-11"},{"geonameid":"8859639","name":"Ahuexotitlán","asciiname":"Ahuexotitlan","alternatenames":["Ahuexotitlan","Ahuexotitlán"],"latitude":"17.52849","longitude":"-99.24398","feature_class":"P","feature_code":"PPL","country_code":"MX","cc2":"","admin1_code":"12","admin2_code":"028","admin3_code":"","admin4_code":"","population":"1122","elevation":"","dem":"1545","timezone":"America/Mexico_City","modification_date":"2014-04-11"},{"geonameid":"8859651","name":"Rancho Viejo","asciiname":"Rancho Viejo","alternatenames":["Rancho Viejo"],"latitude":"16.865","longitude":"-99.28944","feature_class":"P","feature_code":"PPL","country_code":"MX","cc2":"","admin1_code":"12","admin2_code":"053","admin3_code":"","admin4_code":"","population":"1119","elevation":"","dem":"378","timezone":"America/Mexico_City","modification_date":"2014-04-11"},{"geonameid":"8859686","name":"Ocotequila","asciiname":"Ocotequila","alternatenames":["Ocotequila"],"latitude":"17.44944","longitude":"-98.6775","feature_class":"P","feature_code":"PPL","country_code":"MX","cc2":"","admin1_code":"12","admin2_code":"020","admin3_code":"","admin4_code":"","population":"1104","elevation":"","dem":"1706","timezone":"America/Mexico_City","modification_date":"2014-04-11"},{"geonameid":"8859705","name":"Los Liros","asciiname":"Los Liros","alternatenames":["Los Liros"],"latitude":"16.73972","longitude":"-98.21722","feature_class":"P","feature_code":"PPL","country_code":"MX","cc2":"","admin1_code":"12","admin2_code":"071","admin3_code":"","admin4_code":"","population":"1095","elevation":"","dem":"301","timezone":"America/Mexico_City","modification_date":"2014-04-11"},{"geonameid":"8859725","name":"Kilómetro 40","asciiname":"Kilometro 40","alternatenames":["Kilometro 40","Kilómetro 40"],"latitude":"17.04944","longitude":"-99.77056","feature_class":"P","feature_code":"PPL","country_code":"MX","cc2":"","admin1_code":"12","admin2_code":"001","admin3_code":"","admin4_code":"","population":"1085","elevation":"","dem":"410","timezone":"America/Mexico_City","modification_date":"2014-04-11"},{"geonameid":"8859729","name":"El Metlapil","asciiname":"El Metlapil","alternatenames":["El Metlapil"],"latitude":"16.84167","longitude":"-99.74889","feature_class":"P","feature_code":"PPL","country_code":"MX","cc2":"","admin1_code":"12","admin2_code":"001","admin3_code":"","admin4_code":"","population":"1082","elevation":"","dem":"13","timezone":"America/Mexico_City","modification_date":"2014-04-11"},{"geonameid":"8859747","name":"Nueva Frontera","asciiname":"Nueva Frontera","alternatenames":["Nueva Frontera"],"latitude":"16.88806","longitude":"-99.81583","feature_class":"P","feature_code":"PPL","country_code":"MX","cc2":"","admin1_code":"12","admin2_code":"001","admin3_code":"","admin4_code":"","population":"1077","elevation":"","dem":"26","timezone":"America/Mexico_City","modification_date":"2014-04-11"},{"geonameid":"8859759","name":"Tutepec","asciiname":"Tutepec","alternatenames":["Tutepec"],"latitude":"16.92167","longitude":"-99.15639","feature_class":"P","feature_code":"PPL","country_code":"MX","cc2":"","admin1_code":"12","admin2_code":"012","admin3_code":"","admin4_code":"","population":"1073","elevation":"","dem":"196","timezone":"America/Mexico_City","modification_date":"2014-04-11"},{"geonameid":"8859782","name":"San Miguelito","asciiname":"San Miguelito","alternatenames":["San Miguelito"],"latitude":"17.63583","longitude":"-101.4375","feature_class":"P","feature_code":"PPL","country_code":"MX","cc2":"","admin1_code":"12","admin2_code":"038","admin3_code":"","admin4_code":"","population":"1065","elevation":"","dem":"41","timezone":"America/Mexico_City","modification_date":"2014-04-11"},{"geonameid":"8859815","name":"10 de Abril","asciiname":"10 de Abril","alternatenames":["10 de Abril"],"latitude":"16.82917","longitude":"-99.74083","feature_class":"P","feature_code":"PPL","country_code":"MX","cc2":"","admin1_code":"12","admin2_code":"001","admin3_code":"","admin4_code":"","population":"1051","elevation":"","dem":"12","timezone":"America/Mexico_City","modification_date":"2014-04-11"},{"geonameid":"8859816","name":"El Espinalillo","asciiname":"El Espinalillo","alternatenames":["El Espinalillo"],"latitude":"16.98472","longitude":"-100.12694","feature_class":"P","feature_code":"PPL","country_code":"MX","cc2":"","admin1_code":"12","admin2_code":"021","admin3_code":"","admin4_code":"","population":"1051","elevation":"","dem":"11","timezone":"America/Mexico_City","modification_date":"2014-04-11"},{"geonameid":"8859845","name":"Lodo Grande","asciiname":"Lodo Grande","alternatenames":["Lodo Grande"],"latitude":"17.60972","longitude":"-99.21194","feature_class":"P","feature_code":"PPL","country_code":"MX","cc2":"","admin1_code":"12","admin2_code":"028","admin3_code":"","admin4_code":"","population":"1035","elevation":"","dem":"1528","timezone":"America/Mexico_City","modification_date":"2014-04-11"},{"geonameid":"8859858","name":"Pueblo Madero (El Playón)","asciiname":"Pueblo Madero (El Playon)","alternatenames":["Pueblo Madero (El Playon)","Pueblo Madero (El Playón)"],"latitude":"17.12611","longitude":"-99.6725","feature_class":"P","feature_code":"PPL","country_code":"MX","cc2":"","admin1_code":"12","admin2_code":"001","admin3_code":"","admin4_code":"","population":"1031","elevation":"","dem":"410","timezone":"America/Mexico_City","modification_date":"2014-04-11"},{"geonameid":"8859868","name":"Apantla","asciiname":"Apantla","alternatenames":["Apantla"],"latitude":"17.03972","longitude":"-99.16944","feature_class":"P","feature_code":"PPL","country_code":"MX","cc2":"","admin1_code":"12","admin2_code":"012","admin3_code":"","admin4_code":"","population":"1027","elevation":"","dem":"392","timezone":"America/Mexico_City","modification_date":"2014-04-11"},