{"region_data":{"countryId":"3996063","adminCode1":"24","countryName":"Mexico","fclName":"country, state, region,...","countryCode":"MX","lng":"-100.5","fcodeName":"first-order administrative division","toponymName":"Estado de San Luis Potosí","fcl":"A","numberOfChildren":58,"name":"San Luis Potosí","fcode":"ADM1","geonameId":3985605,"lat":"22.5","adminName1":"San Luis Potosí","population":2391929},"country_data":{"ISO":"MX","ISO3":"MEX","ISO_Numeric":"484","fips":"MX","country":"Mexico","capital":"Mexico City","area":"1972550","Population":"112468855","Continent":"NA","tld":".mx","CurrencyCode":"MXN","CurrencyName":"Peso","Phone":"52","Postal_Code_Format":"#####","Postal_Code_Regex":"^(\\d{5})$","Languages":"es-MX","geonameid":"3996063","neighbours":"GT,US,BZ","EquivalentFipsCode":""},"cities":[{"geonameid":"3482946","name":"Santa Martha","asciiname":"Santa Martha","alternatenames":[""],"latitude":"22.34278","longitude":"-98.70639","feature_class":"P","feature_code":"PPL","country_code":"MX","cc2":"","admin1_code":"24","admin2_code":"040","admin3_code":"","admin4_code":"","population":"2374","elevation":"","dem":"95","timezone":"America/Mexico_City","modification_date":"2013-08-01"},{"geonameid":"3483609","name":"Nueva Primavera","asciiname":"Nueva Primavera","alternatenames":["Nueva Primavera"],"latitude":"21.91342","longitude":"-98.85785","feature_class":"P","feature_code":"PPL","country_code":"MX","cc2":"","admin1_code":"24","admin2_code":"040","admin3_code":"","admin4_code":"","population":"1278","elevation":"","dem":"51","timezone":"America/Mexico_City","modification_date":"2014-11-05"},{"geonameid":"3483637","name":"Tamcuime","asciiname":"Tamcuime","alternatenames":[""],"latitude":"21.60137","longitude":"-99.01077","feature_class":"P","feature_code":"PPL","country_code":"MX","cc2":"","admin1_code":"24","admin2_code":"003","admin3_code":"","admin4_code":"","population":"2080","elevation":"","dem":"96","timezone":"America/Mexico_City","modification_date":"2013-08-01"},{"geonameid":"3483646","name":"Tampate","asciiname":"Tampate","alternatenames":["Tampate","Tampote"],"latitude":"21.63639","longitude":"-99.02552","feature_class":"P","feature_code":"PPL","country_code":"MX","cc2":"","admin1_code":"24","admin2_code":"003","admin3_code":"","admin4_code":"","population":"3359","elevation":"","dem":"77","timezone":"America/Mexico_City","modification_date":"2014-06-04"},{"geonameid":"3514502","name":"Xilitla","asciiname":"Xilitla","alternatenames":["Xililla","Xilitla"],"latitude":"21.38681","longitude":"-98.99009","feature_class":"P","feature_code":"PPL","country_code":"MX","cc2":"","admin1_code":"24","admin2_code":"054","admin3_code":"","admin4_code":"","population":"5906","elevation":"","dem":"654","timezone":"America/Mexico_City","modification_date":"2015-06-22"},{"geonameid":"3516276","name":"Tanute","asciiname":"Tanute","alternatenames":["Tantate","Tanute"],"latitude":"21.65243","longitude":"-99.03765","feature_class":"P","feature_code":"PPL","country_code":"MX","cc2":"","admin1_code":"24","admin2_code":"003","admin3_code":"","admin4_code":"","population":"1424","elevation":"","dem":"67","timezone":"America/Mexico_City","modification_date":"2014-06-05"},{"geonameid":"3516281","name":"Tanquián de Escobedo","asciiname":"Tanquian de Escobedo","alternatenames":["Tanquian","Tanquian Escobedo","Tanquian de Escobedo","Tanquián Escobedo","Tanquián de Escobedo"],"latitude":"21.60587","longitude":"-98.66275","feature_class":"P","feature_code":"PPL","country_code":"MX","cc2":"","admin1_code":"24","admin2_code":"042","admin3_code":"","admin4_code":"","population":"9201","elevation":"","dem":"59","timezone":"America/Mexico_City","modification_date":"2015-06-22"},{"geonameid":"3516347","name":"Tamuin","asciiname":"Tamuin","alternatenames":["Tamuin","Tamuín","Villa de Guerrero"],"latitude":"22.00554","longitude":"-98.77972","feature_class":"P","feature_code":"PPL","country_code":"MX","cc2":"","admin1_code":"24","admin2_code":"040","admin3_code":"","admin4_code":"","population":"14748","elevation":"","dem":"27","timezone":"America/Mexico_City","modification_date":"2015-06-22"},{"geonameid":"3516385","name":"Tamazunchale","asciiname":"Tamazunchale","alternatenames":["Tamazunchale"],"latitude":"21.25993","longitude":"-98.78935","feature_class":"P","feature_code":"PPL","country_code":"MX","cc2":"","admin1_code":"24","admin2_code":"037","admin3_code":"","admin4_code":"","population":"21532","elevation":"","dem":"131","timezone":"America/Mexico_City","modification_date":"2015-06-22"},{"geonameid":"3516396","name":"Tamasopo","asciiname":"Tamasopo","alternatenames":["La Palma","Palma","Tamasopo"],"latitude":"21.92426","longitude":"-99.39365","feature_class":"P","feature_code":"PPL","country_code":"MX","cc2":"","admin1_code":"24","admin2_code":"036","admin3_code":"","admin4_code":"","population":"3914","elevation":"","dem":"361","timezone":"America/Mexico_City","modification_date":"2015-06-22"},{"geonameid":"3516406","name":"Tamápatz","asciiname":"Tamapatz","alternatenames":["Tamapatz","Temapache"],"latitude":"21.56654","longitude":"-99.07764","feature_class":"P","feature_code":"PPL","country_code":"MX","cc2":"","admin1_code":"24","admin2_code":"003","admin3_code":"","admin4_code":"","population":"1004","elevation":"","dem":"893","timezone":"America/Mexico_City","modification_date":"2013-08-01"},{"geonameid":"3519570","name":"San Ciro de Acosta","asciiname":"San Ciro de Acosta","alternatenames":["Pedro Montoya","San Ciro","San Ciro de Acosta"],"latitude":"21.65181","longitude":"-99.81914","feature_class":"P","feature_code":"PPL","country_code":"MX","cc2":"","admin1_code":"24","admin2_code":"027","admin3_code":"","admin4_code":"","population":"6771","elevation":"","dem":"913","timezone":"America/Mexico_City","modification_date":"2015-06-22"},{"geonameid":"3520235","name":"Río Verde","asciiname":"Rio Verde","alternatenames":["Rio Verde","Río Verde"],"latitude":"21.93032","longitude":"-99.99169","feature_class":"P","feature_code":"PPL","country_code":"MX","cc2":"","admin1_code":"24","admin2_code":"024","admin3_code":"","admin4_code":"","population":"48854","elevation":"","dem":"994","timezone":"America/Mexico_City","modification_date":"2015-06-22"},{"geonameid":"3520427","name":"Rayón","asciiname":"Rayon","alternatenames":["Rayon","Rayón"],"latitude":"21.84331","longitude":"-99.64305","feature_class":"P","feature_code":"PPL","country_code":"MX","cc2":"","admin1_code":"24","admin2_code":"023","admin3_code":"","admin4_code":"","population":"5298","elevation":"","dem":"976","timezone":"America/Mexico_City","modification_date":"2015-06-22"},{"geonameid":"3523517","name":"Maitinez","asciiname":"Maitinez","alternatenames":[""],"latitude":"22.37167","longitude":"-99.29306","feature_class":"P","feature_code":"PPL","country_code":"MX","cc2":"","admin1_code":"24","admin2_code":"058","admin3_code":"","admin4_code":"","population":"1076","elevation":"","dem":"322","timezone":"America/Mexico_City","modification_date":"2013-08-01"},{"geonameid":"3527454","name":"Tancanhuitz de Santos","asciiname":"Tancanhuitz de Santos","alternatenames":["Ciudad Santos","General Pedro Antonio Santos","Pedro Antonio Santos","Pedro Antonio de Santos","Tancanhuitz","Tancanhuitz de Santos"],"latitude":"21.5979","longitude":"-98.96773","feature_class":"P","feature_code":"PPL","country_code":"MX","cc2":"","admin1_code":"24","admin2_code":"012","admin3_code":"","admin4_code":"","population":"3039","elevation":"","dem":"216","timezone":"America/Mexico_City","modification_date":"2015-06-22"},{"geonameid":"3530090","name":"Nuevo Crucitas","asciiname":"Nuevo Crucitas","alternatenames":[""],"latitude":"22.10833","longitude":"-99.20444","feature_class":"P","feature_code":"PPL","country_code":"MX","cc2":"","admin1_code":"24","admin2_code":"013","admin3_code":"","admin4_code":"","population":"1008","elevation":"","dem":"229","timezone":"America/Mexico_City","modification_date":"2013-08-01"},{"geonameid":"3530582","name":"Ciudad Valles","asciiname":"Ciudad Valles","alternatenames":["Cd Valles","Cd. Valles","Ciudad Valles","Ciudad de Valles","S'judad-Val'es","Valles","Сьюдад-Вальес"],"latitude":"21.98333","longitude":"-99.01667","feature_class":"P","feature_code":"PPL","country_code":"MX","cc2":"","admin1_code":"24","admin2_code":"013","admin3_code":"","admin4_code":"","population":"109504","elevation":"","dem":"85","timezone":"America/Mexico_City","modification_date":"2015-06-22"},{"geonameid":"3530596","name":"Ciudad Fernández","asciiname":"Ciudad Fernandez","alternatenames":["Ciudad Fernandez","Ciudad Fernández","Fernandez","Fernández","S'judad-Fernandes","Сьюдад-Фернандес"],"latitude":"21.94037","longitude":"-100.0117","feature_class":"P","feature_code":"PPL","country_code":"MX","cc2":"","admin1_code":"24","admin2_code":"011","admin3_code":"","admin4_code":"","population":"29671","elevation":"","dem":"999","timezone":"America/Mexico_City","modification_date":"2015-06-22"},{"geonameid":"3530598","name":"Ciudad del Maiz","asciiname":"Ciudad del Maiz","alternatenames":["Ciudad del Maiz","Ciudad del Maíz","General Magdaleno Cedillo"],"latitude":"22.40187","longitude":"-99.60468","feature_class":"P","feature_code":"PPL","country_code":"MX","cc2":"","admin1_code":"24","admin2_code":"010","admin3_code":"","admin4_code":"","population":"8456","elevation":"","dem":"1243","timezone":"America/Mexico_City","modification_date":"2015-06-22"},{"geonameid":"3531574","name":"Cardenas","asciiname":"Cardenas","alternatenames":["Cardenas","Cárdenas","Kardenas","Карденас"],"latitude":"22.00144","longitude":"-99.64247","feature_class":"P","feature_code":"PPL","country_code":"MX","cc2":"","admin1_code":"24","admin2_code":"005","admin3_code":"","admin4_code":"","population":"15331","elevation":"","dem":"1220","timezone":"America/Mexico_City","modification_date":"2015-06-22"},{"geonameid":"3533067","name":"Villa Terrazas","asciiname":"Villa Terrazas","alternatenames":["Alfredo M. Terrazas","Axtla","Villa Terrazas"],"latitude":"21.43923","longitude":"-98.87508","feature_class":"P","feature_code":"PPL","country_code":"MX","cc2":"","admin1_code":"24","admin2_code":"053","admin3_code":"","admin4_code":"","population":"6522","elevation":"","dem":"86","timezone":"America/Mexico_City","modification_date":"2015-06-22"},{"geonameid":"3533102","name":"Alaquines","asciiname":"Alaquines","alternatenames":["Alaquines"],"latitude":"22.12973","longitude":"-99.60093","feature_class":"P","feature_code":"PPL","country_code":"MX","cc2":"","admin1_code":"24","admin2_code":"002","admin3_code":"","admin4_code":"","population":"1149","elevation":"","dem":"1284","timezone":"America/Mexico_City","modification_date":"2014-04-11"},{"geonameid":"3824177","name":"San Vicente Tancuayalab","asciiname":"San Vicente Tancuayalab","alternatenames":[""],"latitude":"21.71833","longitude":"-98.58778","feature_class":"P","feature_code":"PPL","country_code":"MX","cc2":"","admin1_code":"24","admin2_code":"034","admin3_code":"","admin4_code":"","population":"6444","elevation":"","dem":"44","timezone":"America/Mexico_City","modification_date":"2013-07-31"},{"geonameid":"3973687","name":"Cerro Gordo","asciiname":"Cerro Gordo","alternatenames":["Cerro Gordo"],"latitude":"21.97448","longitude":"-100.80661","feature_class":"P","feature_code":"PPL","country_code":"MX","cc2":"","admin1_code":"24","admin2_code":"055","admin3_code":"","admin4_code":"","population":"2123","elevation":"","dem":"1862","timezone":"America/Mexico_City","modification_date":"2014-09-04"},{"geonameid":"3973756","name":"Villa Juarez","asciiname":"Villa Juarez","alternatenames":["Villa Juarez"],"latitude":"22.32617","longitude":"-100.26689","feature_class":"P","feature_code":"PPL","country_code":"MX","cc2":"","admin1_code":"24","admin2_code":"052","admin3_code":"","admin4_code":"","population":"3850","elevation":"","dem":"1108","timezone":"America/Mexico_City","modification_date":"2015-06-22"},{"geonameid":"3973778","name":"La Esperanza","asciiname":"La Esperanza","alternatenames":[""],"latitude":"22.00798","longitude":"-100.76477","feature_class":"P","feature_code":"PPL","country_code":"MX","cc2":"","admin1_code":"24","admin2_code":"055","admin3_code":"","admin4_code":"","population":"2054","elevation":"","dem":"1923","timezone":"America/Mexico_City","modification_date":"2013-07-31"},{"geonameid":"3974149","name":"Los Zacatones","asciiname":"Los Zacatones","alternatenames":[""],"latitude":"22.96139","longitude":"-102.05556","feature_class":"P","feature_code":"PPL","country_code":"MX","cc2":"","admin1_code":"24","admin2_code":"049","admin3_code":"","admin4_code":"","population":"5913","elevation":"","dem":"2051","timezone":"America/Mexico_City","modification_date":"2014-04-11"},{"geonameid":"3974329","name":"Dulce Grande","asciiname":"Dulce Grande","alternatenames":["Dulce Grande"],"latitude":"23.00175","longitude":"-102.17405","feature_class":"P","feature_code":"PPL","country_code":"MX","cc2":"","admin1_code":"24","admin2_code":"049","admin3_code":"","admin4_code":"","population":"5426","elevation":"","dem":"1988","timezone":"America/Mexico_City","modification_date":"2015-06-22"},{"geonameid":"3979714","name":"Zaragoza","asciiname":"Zaragoza","alternatenames":[""],"latitude":"22.03542","longitude":"-100.731","feature_class":"P","feature_code":"PPL","country_code":"MX","cc2":"","admin1_code":"24","admin2_code":"055","admin3_code":"","admin4_code":"","population":"8296","elevation":"","dem":"1973","timezone":"America/Mexico_City","modification_date":"2015-06-22"},{"geonameid":"3980186","name":"Villa de Reyes","asciiname":"Villa de Reyes","alternatenames":["Reyes","Villa Reyes","Villa de Reyes"],"latitude":"21.80309","longitude":"-100.93418","feature_class":"P","feature_code":"PPLA2","country_code":"MX","cc2":"","admin1_code":"24","admin2_code":"050","admin3_code":"","admin4_code":"","population":"8787","elevation":"1820","dem":"1815","timezone":"America/Mexico_City","modification_date":"2015-06-22"},{"geonameid":"3981652","name":"Tierranueva","asciiname":"Tierranueva","alternatenames":["San Juan","Tierranueva"],"latitude":"21.66797","longitude":"-100.57274","feature_class":"P","feature_code":"PPL","country_code":"MX","cc2":"","admin1_code":"24","admin2_code":"043","admin3_code":"","admin4_code":"","population":"5361","elevation":"","dem":"1789","timezone":"America/Mexico_City","modification_date":"2015-06-22"},{"geonameid":"3982912","name":"Soledad Díez Gutiérrez","asciiname":"Soledad Diez Gutierrez","alternatenames":["Diaz Gutierrez","Diez Gutierrez","Diez Gutiérrez","Díaz Gutiérrez","Soledad Diaz Gutierrez","Soledad Diez Gutierrez","Soledad Díaz Gutiérrez","Soledad Díez Gutiérrez","Soledad de Diez Gutierrez","Soledad de Díez Gutiérrez"],"latitude":"22.18778","longitude":"-100.94192","feature_class":"P","feature_code":"PPL","country_code":"MX","cc2":"","admin1_code":"24","admin2_code":"035","admin3_code":"","admin4_code":"","population":"194006","elevation":"","dem":"1855","timezone":"America/Mexico_City","modification_date":"2015-06-22"},{"geonameid":"3982982","name":"Socavón (El Carmen)","asciiname":"Socavon (El Carmen)","alternatenames":[""],"latitude":"21.85139","longitude":"-100.87184","feature_class":"P","feature_code":"PPL","country_code":"MX","cc2":"","admin1_code":"24","admin2_code":"050","admin3_code":"","admin4_code":"","population":"1588","elevation":"","dem":"1810","timezone":"America/Mexico_City","modification_date":"2013-08-01"},{"geonameid":"3983601","name":"Ejido la Pitahaya (Santo Domingo)","asciiname":"Ejido la Pitahaya (Santo Domingo)","alternatenames":[""],"latitude":"21.60611","longitude":"-100.76111","feature_class":"P","feature_code":"PPL","country_code":"MX","cc2":"","admin1_code":"24","admin2_code":"032","admin3_code":"","admin4_code":"","population":"1197","elevation":"","dem":"1883","timezone":"America/Mexico_City","modification_date":"2013-08-01"},{"geonameid":"3984074","name":"Santa María del Río","asciiname":"Santa Maria del Rio","alternatenames":["Rio","Santa Maria del Rio","Santa María del Río"],"latitude":"21.79615","longitude":"-100.73815","feature_class":"P","feature_code":"PPL","country_code":"MX","cc2":"","admin1_code":"24","admin2_code":"032","admin3_code":"","admin4_code":"","population":"12097","elevation":"","dem":"1736","timezone":"America/Mexico_City","modification_date":"2015-06-22"},{"geonameid":"3985606","name":"San Luis Potosí","asciiname":"San Luis Potosi","alternatenames":["Gorad San-Luis-Patasi","SLP","San Louis Potosi","San Luis","San Luis Potosi","San Luis Potosí","San-Luis-Potosi","san lwyys pwtwsy  san lwyys pwtwsy","sanlu-iseupotosi","sheng lu yi si bo tuo xi shi","Σαν Λουίς Ποτοσί","Горад Сан-Луіс-Патасі","Сан Луис Потоси","Сан-Луис-Потоси","סן לואיס פוטוסי","سان لوئیس پوتوسی، سان لوئیس پوتوسی","სან-ლუის-პოტოსი","サン・ルイス・ポトシ","圣路易斯波托西市","산루이스포토시"],"latitude":"22.14982","longitude":"-100.97916","feature_class":"P","feature_code":"PPLA","country_code":"MX","cc2":"","admin1_code":"24","admin2_code":"028","admin3_code":"","admin4_code":"","population":"677704","elevation":"","dem":"1875","timezone":"America/Mexico_City","modification_date":"2014-09-05"},{"geonameid":"3988153","name":"Salitral de Carrera","asciiname":"Salitral de Carrera","alternatenames":["Salitral","Salitral de Carreras"],"latitude":"22.86605","longitude":"-102.08305","feature_class":"P","feature_code":"PPL","country_code":"MX","cc2":"","admin1_code":"24","admin2_code":"049","admin3_code":"","admin4_code":"","population":"3669","elevation":"","dem":"2039","timezone":"America/Mexico_City","modification_date":"2013-08-01"},{"geonameid":"3988169","name":"Salinas de Hidalgo","asciiname":"Salinas de Hidalgo","alternatenames":["Salinas","Salinas de Hidalgo","Salinas del Penon Blanco","Salinas del Peñón Blanco"],"latitude":"22.62795","longitude":"-101.71417","feature_class":"P","feature_code":"PPL","country_code":"MX","cc2":"","admin1_code":"24","admin2_code":"025","admin3_code":"","admin4_code":"","population":"13973","elevation":"","dem":"2076","timezone":"America/Mexico_City","modification_date":"2015-06-22"},{"geonameid":"3994444","name":"Ojo Caliente","asciiname":"Ojo Caliente","alternatenames":["Ojo Caliente"],"latitude":"21.84678","longitude":"-100.75375","feature_class":"P","feature_code":"PPL","country_code":"MX","cc2":"","admin1_code":"24","admin2_code":"032","admin3_code":"","admin4_code":"","population":"1305","elevation":"","dem":"1754","timezone":"America/Mexico_City","modification_date":"2014-09-05"},{"geonameid":"3995648","name":"Moctezuma","asciiname":"Moctezuma","alternatenames":["Moctezuma"],"latitude":"22.74787","longitude":"-101.08219","feature_class":"P","feature_code":"PPLA2","country_code":"MX","cc2":"","admin1_code":"24","admin2_code":"022","admin3_code":"","admin4_code":"","population":"0","elevation":"","dem":"1734","timezone":"America/Mexico_City","modification_date":"2015-06-22"},{"geonameid":"3996387","name":"Matehuala","asciiname":"Matehuala","alternatenames":["Matehuala","Mateuala","Матеуала"],"latitude":"23.64824","longitude":"-100.64334","feature_class":"P","feature_code":"PPL","country_code":"MX","cc2":"","admin1_code":"24","admin2_code":"020","admin3_code":"","admin4_code":"","population":"67717","elevation":"","dem":"1581","timezone":"America/Mexico_City","modification_date":"2015-06-22"},{"geonameid":"3998844","name":"La Ventilla","asciiname":"La Ventilla","alternatenames":["Ventilla"],"latitude":"21.77389","longitude":"-101.03028","feature_class":"P","feature_code":"PPL","country_code":"MX","cc2":"MX","admin1_code":"24","admin2_code":"050","admin3_code":"","admin4_code":"","population":"1746","elevation":"","dem":"1865","timezone":"America/Mexico_City","modification_date":"2013-07-31"},{"geonameid":"4000811","name":"La Pila","asciiname":"La Pila","alternatenames":["La Pila","Pila"],"latitude":"22.03438","longitude":"-100.86677","feature_class":"P","feature_code":"PPL","country_code":"MX","cc2":"","admin1_code":"24","admin2_code":"028","admin3_code":"","admin4_code":"","population":"5149","elevation":"","dem":"1867","timezone":"America/Mexico_City","modification_date":"2015-06-22"},{"geonameid":"4005807","name":"Ejido Gogorrón (Ex-Hacienda de Gogorrón)","asciiname":"Ejido Gogorron (Ex-Hacienda de Gogorron)","alternatenames":[""],"latitude":"21.84019","longitude":"-100.91138","feature_class":"P","feature_code":"PPL","country_code":"MX","cc2":"","admin1_code":"24","admin2_code":"050","admin3_code":"","admin4_code":"","population":"1548","elevation":"","dem":"1807","timezone":"America/Mexico_City","modification_date":"2013-08-01"},{"geonameid":"4006677","name":"Escalerillas","asciiname":"Escalerillas","alternatenames":["Escalerilla","Escalerillas"],"latitude":"22.11167","longitude":"-101.07305","feature_class":"P","feature_code":"PPL","country_code":"MX","cc2":"","admin1_code":"24","admin2_code":"028","admin3_code":"","admin4_code":"","population":"4124","elevation":"","dem":"1955","timezone":"America/Mexico_City","modification_date":"2015-06-22"},{"geonameid":"4014501","name":"Charcas","asciiname":"Charcas","alternatenames":[""],"latitude":"23.12799","longitude":"-101.11414","feature_class":"P","feature_code":"PPL","country_code":"MX","cc2":"","admin1_code":"24","admin2_code":"015","admin3_code":"","admin4_code":"","population":"11365","elevation":"","dem":"2016","timezone":"America/Mexico_City","modification_date":"2015-06-22"},{"geonameid":"4014795","name":"Cerritos","asciiname":"Cerritos","alternatenames":["Cerritos"],"latitude":"22.42835","longitude":"-100.28474","feature_class":"P","feature_code":"PPL","country_code":"MX","cc2":"","admin1_code":"24","admin2_code":"008","admin3_code":"","admin4_code":"","population":"13453","elevation":"","dem":"1145","timezone":"America/Mexico_City","modification_date":"2015-06-22"},{"geonameid":"4015342","name":"Carranco","asciiname":"Carranco","alternatenames":["Barranco","Carranco"],"latitude":"21.82006","longitude":"-101.09761","feature_class":"P","feature_code":"PPL","country_code":"MX","cc2":"","admin1_code":"24","admin2_code":"050","admin3_code":"","admin4_code":"","population":"1918","elevation":"","dem":"1929","timezone":"America/Mexico_City","modification_date":"2013-07-31"},{"geonameid":"4018209","name":"Villa de Arriaga","asciiname":"Villa de Arriaga","alternatenames":["Arriaga","Villa de Arriaga"],"latitude":"21.90917","longitude":"-101.38223","feature_class":"P","feature_code":"PPLA2","country_code":"MX","cc2":"","admin1_code":"24","admin2_code":"046","admin3_code":"","admin4_code":"","population":"0","elevation":"","dem":"2169","timezone":"America/Mexico_City","modification_date":"2015-06-22"},{"geonameid":"4019085","name":"Ahualulco","asciiname":"Ahualulco","alternatenames":["Ahualulco"],"latitude":"22.40019","longitude":"-101.16614","feature_class":"P","feature_code":"PPL","country_code":"MX","cc2":"","admin1_code":"24","admin2_code":"001","admin3_code":"","admin4_code":"","population":"3844","elevation":"","dem":"1854","timezone":"America/Mexico_City","modification_date":"2015-06-22"},{"geonameid":"8708777","name":"Aurelio Manrique","asciiname":"Aurelio Manrique","alternatenames":["Aurelio Manrique"],"latitude":"22.2875","longitude":"-98.65083","feature_class":"P","feature_code":"PPL","country_code":"MX","cc2":"","admin1_code":"24","admin2_code":"016","admin3_code":"","admin4_code":"","population":"2245","elevation":"","dem":"76","timezone":"America/Mexico_City","modification_date":"2014-04-11"},{"geonameid":"8708781","name":"Ponciano Arriaga","asciiname":"Ponciano Arriaga","alternatenames":["Ponciano Arriaga"],"latitude":"22.26222","longitude":"-98.58972","feature_class":"P","feature_code":"PPL","country_code":"MX","cc2":"","admin1_code":"24","admin2_code":"016","admin3_code":"","admin4_code":"","population":"6665","elevation":"","dem":"75","timezone":"America/Mexico_City","modification_date":"2014-04-11"},{"geonameid":"8711778","name":"Estación Tamuín","asciiname":"Estacion Tamuin","alternatenames":["Estacion Tamuin","Estación Tamuín"],"latitude":"22.0775","longitude":"-98.81111","feature_class":"P","feature_code":"PPL","country_code":"MX","cc2":"","admin1_code":"24","admin2_code":"040","admin3_code":"","admin4_code":"","population":"1130","elevation":"","dem":"50","timezone":"America/Mexico_City","modification_date":"2014-04-11"},{"geonameid":"8858078","name":"Soledad de Graciano Sánchez","asciiname":"Soledad de Graciano Sanchez","alternatenames":["Soledad de Graciano Sanchez","Soledad de Graciano Sánchez"],"latitude":"22.18306","longitude":"-100.94083","feature_class":"P","feature_code":"PPL","country_code":"MX","cc2":"","admin1_code":"24","admin2_code":"035","admin3_code":"","admin4_code":"","population":"255015","elevation":"","dem":"1853","timezone":"America/Mexico_City","modification_date":"2014-04-11"},{"geonameid":"8858357","name":"Chalchocoyo","asciiname":"Chalchocoyo","alternatenames":["Chalchocoyo"],"latitude":"21.31444","longitude":"-98.79194","feature_class":"P","feature_code":"PPL","country_code":"MX","cc2":"","admin1_code":"24","admin2_code":"057","admin3_code":"","admin4_code":"","population":"3614","elevation":"","dem":"245","timezone":"America/Mexico_City","modification_date":"2014-04-11"},{"geonameid":"8858559","name":"Tlalnepantla","asciiname":"Tlalnepantla","alternatenames":["Tlalnepantla"],"latitude":"21.18","longitude":"-98.84611","feature_class":"P","feature_code":"PPL","country_code":"MX","cc2":"","admin1_code":"24","admin2_code":"037","admin3_code":"","admin4_code":"","population":"2478","elevation":"","dem":"377","timezone":"America/Mexico_City","modification_date":"2014-04-11"},{"geonameid":"8858670","name":"Progreso","asciiname":"Progreso","alternatenames":["Progreso"],"latitude":"22.22833","longitude":"-100.12806","feature_class":"P","feature_code":"PPL","country_code":"MX","cc2":"","admin1_code":"24","admin2_code":"024","admin3_code":"","admin4_code":"","population":"2144","elevation":"","dem":"1083","timezone":"America/Mexico_City","modification_date":"2014-04-11"},{"geonameid":"8858805","name":"Ampliación la Hincada","asciiname":"Ampliacion la Hincada","alternatenames":["Ampliacion la Hincada","Ampliación la Hincada"],"latitude":"22.21528","longitude":"-99.23611","feature_class":"P","feature_code":"PPL","country_code":"MX","cc2":"","admin1_code":"24","admin2_code":"013","admin3_code":"","admin4_code":"","population":"1850","elevation":"","dem":"228","timezone":"America/Mexico_City","modification_date":"2014-04-11"},{"geonameid":"8858969","name":"Temalacaco","asciiname":"Temalacaco","alternatenames":["Temalacaco"],"latitude":"21.41389","longitude":"-98.84694","feature_class":"P","feature_code":"PPL","country_code":"MX","cc2":"","admin1_code":"24","admin2_code":"053","admin3_code":"","admin4_code":"","population":"1613","elevation":"","dem":"114","timezone":"America/Mexico_City","modification_date":"2014-04-11"},{"geonameid":"8858993","name":"La Lima","asciiname":"La Lima","alternatenames":["La Lima"],"latitude":"21.92722","longitude":"-99.10278","feature_class":"P","feature_code":"PPL","country_code":"MX","cc2":"","admin1_code":"24","admin2_code":"013","admin3_code":"","admin4_code":"","population":"1579","elevation":"","dem":"142","timezone":"America/Mexico_City","modification_date":"2014-04-11"},{"geonameid":"8859021","name":"Fracción Milpillas","asciiname":"Fraccion Milpillas","alternatenames":["Fraccion Milpillas","Fracción Milpillas"],"latitude":"22.22778","longitude":"-100.96417","feature_class":"P","feature_code":"PPL","country_code":"MX","cc2":"","admin1_code":"24","admin2_code":"028","admin3_code":"","admin4_code":"","population":"1546","elevation":"","dem":"1850","timezone":"America/Mexico_City","modification_date":"2014-04-11"},{"geonameid":"8859103","name":"Entronque de Matehuala (El Huizache)","asciiname":"Entronque de Matehuala (El Huizache)","alternatenames":["Entronque de Matehuala (El Huizache)"],"latitude":"22.925","longitude":"-100.45889","feature_class":"P","feature_code":"PPL","country_code":"MX","cc2":"","admin1_code":"24","admin2_code":"017","admin3_code":"","admin4_code":"","population":"1467","elevation":"","dem":"1420","timezone":"America/Mexico_City","modification_date":"2014-04-11"},{"geonameid":"8859121","name":"Ciudad Satélite","asciiname":"Ciudad Satelite","alternatenames":["Ciudad Satelite","Ciudad Satélite"],"latitude":"22.11083","longitude":"-100.79583","feature_class":"P","feature_code":"PPL","country_code":"MX","cc2":"","admin1_code":"24","admin2_code":"028","admin3_code":"","admin4_code":"","population":"1448","elevation":"","dem":"1907","timezone":"America/Mexico_City","modification_date":"2014-04-11"},{"geonameid":"8859126","name":"Paisanos","asciiname":"Paisanos","alternatenames":["Paisanos"],"latitude":"22.20361","longitude":"-101.03583","feature_class":"P","feature_code":"PPL","country_code":"MX","cc2":"","admin1_code":"24","admin2_code":"021","admin3_code":"","admin4_code":"","population":"1444","elevation":"","dem":"1919","timezone":"America/Mexico_City","modification_date":"2014-04-11"},{"geonameid":"8859200","name":"Ejido los Huastecos","asciiname":"Ejido los Huastecos","alternatenames":["Ejido los Huastecos"],"latitude":"21.95917","longitude":"-98.65028","feature_class":"P","feature_code":"PPL","country_code":"MX","cc2":"","admin1_code":"24","admin2_code":"040","admin3_code":"","admin4_code":"","population":"1380","elevation":"","dem":"38","timezone":"America/Mexico_City","modification_date":"2014-04-11"},{"geonameid":"8859201","name":"Estanzuela","asciiname":"Estanzuela","alternatenames":["Estanzuela"],"latitude":"22.26889","longitude":"-101.00806","feature_class":"P","feature_code":"PPL","country_code":"MX","cc2":"","admin1_code":"24","admin2_code":"021","admin3_code":"","admin4_code":"","population":"1379","elevation":"","dem":"1864","timezone":"America/Mexico_City","modification_date":"2014-04-11"},{"geonameid":"8859209","name":"Tandzumadz","asciiname":"Tandzumadz","alternatenames":["Tandzumadz"],"latitude":"21.56528","longitude":"-98.98028","feature_class":"P","feature_code":"PPL","country_code":"MX","cc2":"","admin1_code":"24","admin2_code":"018","admin3_code":"","admin4_code":"","population":"1377","elevation":"","dem":"435","timezone":"America/Mexico_City","modification_date":"2014-04-11"},{"geonameid":"8859318","name":"Palo Seco (El Gato)","asciiname":"Palo Seco (El Gato)","alternatenames":["Palo Seco (El Gato)"],"latitude":"22.35417","longitude":"-100.19194","feature_class":"P","feature_code":"PPL","country_code":"MX","cc2":"","admin1_code":"24","admin2_code":"052","admin3_code":"","admin4_code":"","population":"1291","elevation":"","dem":"1114","timezone":"America/Mexico_City","modification_date":"2014-04-11"},{"geonameid":"8859340","name":"Ejido San José Xilatzén","asciiname":"Ejido San Jose Xilatzen","alternatenames":["Ejido San Jose Xilatzen","Ejido San José Xilatzén"],"latitude":"21.67472","longitude":"-98.9275","feature_class":"P","feature_code":"PPL","country_code":"MX","cc2":"","admin1_code":"24","admin2_code":"041","admin3_code":"","admin4_code":"","population":"1279","elevation":"","dem":"103","timezone":"America/Mexico_City","modification_date":"2014-04-11"},{"geonameid":"8859349","name":"Paso Bonito","asciiname":"Paso Bonito","alternatenames":["Paso Bonito"],"latitude":"22.32528","longitude":"-101.26167","feature_class":"P","feature_code":"PPL","country_code":"MX","cc2":"","admin1_code":"24","admin2_code":"001","admin3_code":"","admin4_code":"","population":"1274","elevation":"","dem":"1913","timezone":"America/Mexico_City","modification_date":"2014-04-11"},{"geonameid":"8859351","name":"Iztacapa","asciiname":"Iztacapa","alternatenames":["Iztacapa"],"latitude":"21.37","longitude":"-98.94167","feature_class":"P","feature_code":"PPL","country_code":"MX","cc2":"","admin1_code":"24","admin2_code":"054","admin3_code":"","admin4_code":"","population":"1272","elevation":"","dem":"719","timezone":"America/Mexico_City","modification_date":"2014-04-11"},{"geonameid":"8859359","name":"Zapuyo","asciiname":"Zapuyo","alternatenames":["Zapuyo"],"latitude":"21.35472","longitude":"-98.92139","feature_class":"P","feature_code":"PPL","country_code":"MX","cc2":"","admin1_code":"24","admin2_code":"054","admin3_code":"","admin4_code":"","population":"1267","elevation":"","dem":"495","timezone":"America/Mexico_City","modification_date":"2014-04-11"},{"geonameid":"8859362","name":"Puerto de Providencia","asciiname":"Puerto de Providencia","alternatenames":["Puerto de Providencia"],"latitude":"22.36528","longitude":"-101.06556","feature_class":"P","feature_code":"PPL","country_code":"MX","cc2":"","admin1_code":"24","admin2_code":"021","admin3_code":"","admin4_code":"","population":"1265","elevation":"","dem":"1867","timezone":"America/Mexico_City","modification_date":"2014-04-11"},{"geonameid":"8859399","name":"La Herradura","asciiname":"La Herradura","alternatenames":["La Herradura"],"latitude":"21.4425","longitude":"-98.94917","feature_class":"P","feature_code":"PPL","country_code":"MX","cc2":"","admin1_code":"24","admin2_code":"054","admin3_code":"","admin4_code":"","population":"1249","elevation":"","dem":"100","timezone":"America/Mexico_City","modification_date":"2014-04-11"},{"geonameid":"8859422","name":"Chiconamel","asciiname":"Chiconamel","alternatenames":["Chiconamel"],"latitude":"21.36806","longitude":"-98.71917","feature_class":"P","feature_code":"PPL","country_code":"MX","cc2":"","admin1_code":"24","admin2_code":"038","admin3_code":"","admin4_code":"","population":"1236","elevation":"","dem":"252","timezone":"America/Mexico_City","modification_date":"2014-04-11"},{"geonameid":"8859531","name":"Tenexio","asciiname":"Tenexio","alternatenames":["Tenexio"],"latitude":"21.37667","longitude":"-98.87944","feature_class":"P","feature_code":"PPL","country_code":"MX","cc2":"","admin1_code":"24","admin2_code":"053","admin3_code":"","admin4_code":"","population":"1174","elevation":"","dem":"141","timezone":"America/Mexico_City","modification_date":"2014-04-11"},{"geonameid":"8859550","name":"Rincón del Porvenir","asciiname":"Rincon del Porvenir","alternatenames":["Rincon del Porvenir","Rincón del Porvenir"],"latitude":"22.32306","longitude":"-101.17639","feature_class":"P","feature_code":"PPL","country_code":"MX","cc2":"","admin1_code":"24","admin2_code":"021","admin3_code":"","admin4_code":"","population":"1162","elevation":"","dem":"1893","timezone":"America/Mexico_City","modification_date":"2014-04-11"},{"geonameid":"8859572","name":"Guadalupe Victoria","asciiname":"Guadalupe Victoria","alternatenames":["Guadalupe Victoria"],"latitude":"22.16333","longitude":"-101.07","feature_class":"P","feature_code":"PPL","country_code":"MX","cc2":"","admin1_code":"24","admin2_code":"021","admin3_code":"","admin4_code":"","population":"1153","elevation":"","dem":"1991","timezone":"America/Mexico_City","modification_date":"2014-04-11"},{"geonameid":"8859618","name":"Cerrito de Jaral","asciiname":"Cerrito de Jaral","alternatenames":["Cerrito de Jaral"],"latitude":"22.22361","longitude":"-101.0625","feature_class":"P","feature_code":"PPL","country_code":"MX","cc2":"","admin1_code":"24","admin2_code":"021","admin3_code":"","admin4_code":"","population":"1131","elevation":"","dem":"1969","timezone":"America/Mexico_City","modification_date":"2014-04-11"},{"geonameid":"8859637","name":"Agua Señora","asciiname":"Agua Senora","alternatenames":["Agua Senora","Agua Señora"],"latitude":"22.2375","longitude":"-101.04222","feature_class":"P","feature_code":"PPL","country_code":"MX","cc2":"","admin1_code":"24","admin2_code":"021","admin3_code":"","admin4_code":"","population":"1123","elevation":"","dem":"1910","timezone":"America/Mexico_City","modification_date":"2014-04-11"},{"geonameid":"8859673","name":"Tazaquil","asciiname":"Tazaquil","alternatenames":["Tazaquil"],"latitude":"21.49111","longitude":"-98.94","feature_class":"P","feature_code":"PPL","country_code":"MX","cc2":"","admin1_code":"24","admin2_code":"014","admin3_code":"","admin4_code":"","population":"1110","elevation":"","dem":"380","timezone":"America/Mexico_City","modification_date":"2014-04-11"},{"geonameid":"8859699","name":"Santiago Centro","asciiname":"Santiago Centro","alternatenames":["Santiago Centro"],"latitude":"21.20528","longitude":"-98.86361","feature_class":"P","feature_code":"PPL","country_code":"MX","cc2":"","admin1_code":"24","admin2_code":"037","admin3_code":"","admin4_code":"","population":"1101","elevation":"","dem":"712","timezone":"America/Mexico_City","modification_date":"2014-04-11"},{"geonameid":"8859707","name":"Ahuehueyo Primero Centro","asciiname":"Ahuehueyo Primero Centro","alternatenames":["Ahuehueyo Primero Centro"],"latitude":"21.345","longitude":"-98.83722","feature_class":"P","feature_code":"PPL","country_code":"MX","cc2":"","admin1_code":"24","admin2_code":"057","admin3_code":"","admin4_code":"","population":"1095","elevation":"","dem":"140","timezone":"America/Mexico_City","modification_date":"2014-04-11"},{"geonameid":"8859793","name":"Tocoy","asciiname":"Tocoy","alternatenames":["Tocoy"],"latitude":"21.63861","longitude":"-98.87083","feature_class":"P","feature_code":"PPL","country_code":"MX","cc2":"","admin1_code":"24","admin2_code":"026","admin3_code":"","admin4_code":"","population":"1061","elevation":"","dem":"260","timezone":"America/Mexico_City","modification_date":"2014-04-11"},{"geonameid":"8859795","name":"Ocuiltzapoyo","asciiname":"Ocuiltzapoyo","alternatenames":["Ocuiltzapoyo"],"latitude":"21.32444","longitude":"-98.72861","feature_class":"P","feature_code":"PPL","country_code":"MX","cc2":"","admin1_code":"24","admin2_code":"029","admin3_code":"","admin4_code":"","population":"1060","elevation":"","dem":"140","timezone":"America/Mexico_City","modification_date":"2014-04-11"},{"geonameid":"8859828","name":"Tlacuilola","asciiname":"Tlacuilola","alternatenames":["Tlacuilola"],"latitude":"21.2375","longitude":"-98.86806","feature_class":"P","feature_code":"PPL","country_code":"MX","cc2":"","admin1_code":"24","admin2_code":"037","admin3_code":"","admin4_code":"","population":"1045","elevation":"","dem":"171","timezone":"America/Mexico_City","modification_date":"2014-04-11"},{"geonameid":"8859891","name":"Paso Blanco","asciiname":"Paso Blanco","alternatenames":["Paso Blanco"],"latitude":"22.20611","longitude":"-101.07056","feature_class":"P","feature_code":"PPL","country_code":"MX","cc2":"","admin1_code":"24","admin2_code":"021","admin3_code":"","admin4_code":"","population":"1020","elevation":"","dem":"1963","timezone":"America/Mexico_City","modification_date":"2014-04-11"}]}