{"region_data":{"countryId":"3996063","adminCode1":"27","countryName":"Mexico","fclName":"country, state, region,...","countryCode":"MX","lng":"-92.66667","fcodeName":"first-order administrative division","toponymName":"Estado de Tabasco","fcl":"A","numberOfChildren":17,"name":"Tabasco","fcode":"ADM1","geonameId":3516458,"lat":"18","adminName1":"Tabasco","population":2041286},"country_data":{"ISO":"MX","ISO3":"MEX","ISO_Numeric":"484","fips":"MX","country":"Mexico","capital":"Mexico City","area":"1972550","Population":"112468855","Continent":"NA","tld":".mx","CurrencyCode":"MXN","CurrencyName":"Peso","Phone":"52","Postal_Code_Format":"#####","Postal_Code_Regex":"^(\\d{5})$","Languages":"es-MX","geonameid":"3996063","neighbours":"GT,US,BZ","EquivalentFipsCode":""},"cities":[{"geonameid":"3514670","name":"Villahermosa","asciiname":"Villahermosa","alternatenames":["Cualnezcaltepec","Cualnezcāltepēc","VSA","Vil'jaehrmosa","Vilaermosa","Viljaermosa","Viljahermosa","Villa Hermosa","Villahermosa","bi ya ai er mo sa","biya-eleumosa","biyaerumosa","fylahyrmwsa","viliaermosa","wylahrmsa  tabaskw","Вильяэрмоса","Виляермоса","Виљаермоса","فيلاهيرموسا","ویلاهرمسا، تاباسکو","ვილიაერმოსა","ビヤエルモサ","比亚埃尔莫萨","비야에르모사"],"latitude":"17.98689","longitude":"-92.93028","feature_class":"P","feature_code":"PPLA","country_code":"MX","cc2":"","admin1_code":"27","admin2_code":"004","admin3_code":"","admin4_code":"","population":"362401","elevation":"","dem":"23","timezone":"America/Mexico_City","modification_date":"2015-06-22"},{"geonameid":"3514678","name":"El Triunfo","asciiname":"El Triunfo","alternatenames":["El Triunfo","Villa el Triunfo"],"latitude":"17.92323","longitude":"-91.17049","feature_class":"P","feature_code":"PPL","country_code":"MX","cc2":"","admin1_code":"27","admin2_code":"001","admin3_code":"","admin4_code":"","population":"5965","elevation":"","dem":"51","timezone":"America/Mexico_City","modification_date":"2015-06-22"},{"geonameid":"3515956","name":"Tenosique de Pino Suárez","asciiname":"Tenosique de Pino Suarez","alternatenames":["Tenosique","Tenosique de Pino Suarez","Tenosique de Pino Suárez"],"latitude":"17.4729","longitude":"-91.4236","feature_class":"P","feature_code":"PPL","country_code":"MX","cc2":"","admin1_code":"27","admin2_code":"017","admin3_code":"","admin4_code":"","population":"32415","elevation":"","dem":"33","timezone":"America/Mexico_City","modification_date":"2015-06-22"},{"geonameid":"3516149","name":"Villa Tecolutilla","asciiname":"Villa Tecolutilla","alternatenames":["Tecolutilla","Villa Tecolutilla"],"latitude":"18.28338","longitude":"-93.33398","feature_class":"P","feature_code":"PPL","country_code":"MX","cc2":"","admin1_code":"27","admin2_code":"005","admin3_code":"","admin4_code":"","population":"9779","elevation":"","dem":"11","timezone":"America/Mexico_City","modification_date":"2015-06-22"},{"geonameid":"3516210","name":"Teapa","asciiname":"Teapa","alternatenames":["Teapa"],"latitude":"17.5497","longitude":"-92.95211","feature_class":"P","feature_code":"PPL","country_code":"MX","cc2":"","admin1_code":"27","admin2_code":"016","admin3_code":"","admin4_code":"","population":"26331","elevation":"","dem":"48","timezone":"America/Mexico_City","modification_date":"2015-06-22"},{"geonameid":"3516344","name":"Tamulte de las Sabanas","asciiname":"Tamulte de las Sabanas","alternatenames":["Tamulte de las Sabanas","Tamulté de las Sabanas"],"latitude":"18.16168","longitude":"-92.78354","feature_class":"P","feature_code":"PPL","country_code":"MX","cc2":"","admin1_code":"27","admin2_code":"004","admin3_code":"","admin4_code":"","population":"8295","elevation":"","dem":"13","timezone":"America/Mexico_City","modification_date":"2015-06-22"},{"geonameid":"3516439","name":"Tacotalpa","asciiname":"Tacotalpa","alternatenames":["Tacotalpa"],"latitude":"17.59638","longitude":"-92.82596","feature_class":"P","feature_code":"PPL","country_code":"MX","cc2":"","admin1_code":"27","admin2_code":"015","admin3_code":"","admin4_code":"","population":"7460","elevation":"","dem":"24","timezone":"America/Mexico_City","modification_date":"2015-06-22"},{"geonameid":"3517029","name":"Santa Rosalía","asciiname":"Santa Rosalia","alternatenames":["Santa Rosalia","Santa Rosalía"],"latitude":"18.08851","longitude":"-93.35806","feature_class":"P","feature_code":"PPL","country_code":"MX","cc2":"","admin1_code":"27","admin2_code":"002","admin3_code":"","admin4_code":"","population":"5533","elevation":"","dem":"22","timezone":"America/Mexico_City","modification_date":"2015-06-22"},{"geonameid":"3519349","name":"Occidente (San Francisco)","asciiname":"Occidente (San Francisco)","alternatenames":[""],"latitude":"18.3313","longitude":"-93.25238","feature_class":"P","feature_code":"PPL","country_code":"MX","cc2":"","admin1_code":"27","admin2_code":"014","admin3_code":"","admin4_code":"","population":"1216","elevation":"","dem":"10","timezone":"America/Mexico_City","modification_date":"2013-08-01"},{"geonameid":"3519588","name":"San Carlos","asciiname":"San Carlos","alternatenames":[""],"latitude":"17.55221","longitude":"-91.15408","feature_class":"P","feature_code":"PPL","country_code":"MX","cc2":"","admin1_code":"27","admin2_code":"001","admin3_code":"","admin4_code":"","population":"13054","elevation":"","dem":"56","timezone":"America/Mexico_City","modification_date":"2015-06-22"},{"geonameid":"3521912","name":"Paraiso","asciiname":"Paraiso","alternatenames":["Paraiso"],"latitude":"18.40116","longitude":"-93.21406","feature_class":"P","feature_code":"PPL","country_code":"MX","cc2":"","admin1_code":"27","admin2_code":"014","admin3_code":"","admin4_code":"","population":"23830","elevation":"","dem":"8","timezone":"America/Mexico_City","modification_date":"2014-08-01"},{"geonameid":"3522368","name":"Olcuatitán","asciiname":"Olcuatitan","alternatenames":["Olcuatitan","Olcuatitán"],"latitude":"18.19045","longitude":"-92.96114","feature_class":"P","feature_code":"PPL","country_code":"MX","cc2":"","admin1_code":"27","admin2_code":"013","admin3_code":"","admin4_code":"","population":"1732","elevation":"","dem":"6","timezone":"America/Mexico_City","modification_date":"2014-11-05"},{"geonameid":"3522865","name":"Nacajuca","asciiname":"Nacajuca","alternatenames":["Nacajuca","Nacanica"],"latitude":"18.16971","longitude":"-93.01843","feature_class":"P","feature_code":"PPLA2","country_code":"MX","cc2":"","admin1_code":"27","admin2_code":"013","admin3_code":"","admin4_code":"","population":"9471","elevation":"","dem":"7","timezone":"America/Mexico_City","modification_date":"2015-06-22"},{"geonameid":"3523791","name":"Macuspana","asciiname":"Macuspana","alternatenames":["Macuspana"],"latitude":"17.76152","longitude":"-92.5965","feature_class":"P","feature_code":"PPL","country_code":"MX","cc2":"","admin1_code":"27","admin2_code":"012","admin3_code":"","admin4_code":"","population":"30409","elevation":"","dem":"12","timezone":"America/Mexico_City","modification_date":"2015-06-22"},{"geonameid":"3523794","name":"Macultepec","asciiname":"Macultepec","alternatenames":["Macultepec"],"latitude":"18.15026","longitude":"-92.86092","feature_class":"P","feature_code":"PPL","country_code":"MX","cc2":"","admin1_code":"27","admin2_code":"004","admin3_code":"","admin4_code":"","population":"6430","elevation":"","dem":"11","timezone":"America/Mexico_City","modification_date":"2015-06-22"},{"geonameid":"3523828","name":"Luis Gil Pérez","asciiname":"Luis Gil Perez","alternatenames":[""],"latitude":"17.87704","longitude":"-93.07273","feature_class":"P","feature_code":"PPL","country_code":"MX","cc2":"","admin1_code":"27","admin2_code":"004","admin3_code":"","admin4_code":"","population":"5489","elevation":"","dem":"22","timezone":"America/Mexico_City","modification_date":"2015-06-22"},{"geonameid":"3526453","name":"Jonuta","asciiname":"Jonuta","alternatenames":["Jonuta"],"latitude":"18.08984","longitude":"-92.13807","feature_class":"P","feature_code":"PPLA2","country_code":"MX","cc2":"","admin1_code":"27","admin2_code":"011","admin3_code":"","admin4_code":"","population":"6483","elevation":"","dem":"8","timezone":"America/Mexico_City","modification_date":"2015-06-22"},{"geonameid":"3526603","name":"Jalpa de Méndez","asciiname":"Jalpa de Mendez","alternatenames":["Jalpa","Jalpa de Mendez","Jalpa de Méndez"],"latitude":"18.17633","longitude":"-93.063","feature_class":"P","feature_code":"PPLA2","country_code":"MX","cc2":"","admin1_code":"27","admin2_code":"010","admin3_code":"","admin4_code":"","population":"15320","elevation":"","dem":"12","timezone":"America/Mexico_City","modification_date":"2015-06-22"},{"geonameid":"3526908","name":"Huimanguillo","asciiname":"Huimanguillo","alternatenames":[""],"latitude":"17.83386","longitude":"-93.39198","feature_class":"P","feature_code":"PPL","country_code":"MX","cc2":"","admin1_code":"27","admin2_code":"008","admin3_code":"","admin4_code":"","population":"26602","elevation":"","dem":"38","timezone":"America/Mexico_City","modification_date":"2015-06-22"},{"geonameid":"3527545","name":"Frontera","asciiname":"Frontera","alternatenames":["Alvaro Obregon","Frontera","Ponta Frontera","Puerto Alvaro Obregon","Puerto Obregon","Puerto Álvaro Obregon","Álvaro Obregón","Фронтера"],"latitude":"18.54326","longitude":"-92.6453","feature_class":"P","feature_code":"PPL","country_code":"MX","cc2":"","admin1_code":"27","admin2_code":"003","admin3_code":"","admin4_code":"","population":"22621","elevation":"","dem":"5","timezone":"America/Mexico_City","modification_date":"2015-06-22"},{"geonameid":"3529886","name":"Cunduacán","asciiname":"Cunduacan","alternatenames":["Conduacan","Conduacán","Cunduacan","Cunduacán"],"latitude":"18.06557","longitude":"-93.17302","feature_class":"P","feature_code":"PPLA2","country_code":"MX","cc2":"","admin1_code":"27","admin2_code":"006","admin3_code":"","admin4_code":"","population":"17904","elevation":"","dem":"14","timezone":"America/Mexico_City","modification_date":"2015-06-22"},{"geonameid":"3530385","name":"Comalcalco","asciiname":"Comalcalco","alternatenames":["Comalcalco"],"latitude":"18.26316","longitude":"-93.22397","feature_class":"P","feature_code":"PPL","country_code":"MX","cc2":"","admin1_code":"27","admin2_code":"005","admin3_code":"","admin4_code":"","population":"40992","elevation":"","dem":"12","timezone":"America/Mexico_City","modification_date":"2015-06-22"},{"geonameid":"3530588","name":"Ciudad Pemex","asciiname":"Ciudad Pemex","alternatenames":["Ciudad Pemex","Ciudad Penex","Pemex"],"latitude":"17.88358","longitude":"-92.48489","feature_class":"P","feature_code":"PPL","country_code":"MX","cc2":"","admin1_code":"27","admin2_code":"012","admin3_code":"","admin4_code":"","population":"6357","elevation":"","dem":"12","timezone":"America/Mexico_City","modification_date":"2015-06-22"},{"geonameid":"3530749","name":"Chontalpa","asciiname":"Chontalpa","alternatenames":["Chontalpa","La Chontalpa"],"latitude":"17.66614","longitude":"-93.48115","feature_class":"P","feature_code":"PPL","country_code":"MX","cc2":"","admin1_code":"27","admin2_code":"008","admin3_code":"","admin4_code":"","population":"6145","elevation":"","dem":"54","timezone":"America/Mexico_City","modification_date":"2015-06-22"},{"geonameid":"3531576","name":"Cárdenas","asciiname":"Cardenas","alternatenames":["Cardenas","Cárdenas","Kardenas","Карденас"],"latitude":"18.00135","longitude":"-93.37559","feature_class":"P","feature_code":"PPL","country_code":"MX","cc2":"","admin1_code":"27","admin2_code":"002","admin3_code":"","admin4_code":"","population":"85350","elevation":"","dem":"26","timezone":"America/Mexico_City","modification_date":"2014-08-01"},{"geonameid":"3532053","name":"Buenavista","asciiname":"Buenavista","alternatenames":[""],"latitude":"17.91667","longitude":"-92.53333","feature_class":"P","feature_code":"PPL","country_code":"MX","cc2":"","admin1_code":"27","admin2_code":"012","admin3_code":"","admin4_code":"","population":"4468","elevation":"","dem":"1","timezone":"America/Mexico_City","modification_date":"2015-06-22"},{"geonameid":"3532219","name":"Blasillo 1ra. Sección (Nicolás Bravo)","asciiname":"Blasillo 1ra. Seccion (Nicolas Bravo)","alternatenames":["Blasill","Blasillo"],"latitude":"18.07861","longitude":"-93.91833","feature_class":"P","feature_code":"PPL","country_code":"MX","cc2":"MX","admin1_code":"27","admin2_code":"008","admin3_code":"","admin4_code":"","population":"2067","elevation":"","dem":"7","timezone":"America/Mexico_City","modification_date":"2013-08-01"},{"geonameid":"3532310","name":"Belén","asciiname":"Belen","alternatenames":[""],"latitude":"17.78891","longitude":"-92.61294","feature_class":"P","feature_code":"PPL","country_code":"MX","cc2":"","admin1_code":"27","admin2_code":"012","admin3_code":"","admin4_code":"","population":"5680","elevation":"","dem":"27","timezone":"America/Mexico_City","modification_date":"2015-06-22"},{"geonameid":"3532443","name":"Balancán de Domínguez","asciiname":"Balancan de Dominguez","alternatenames":["Balancan","Balancan de Dominguez","Balancán de Domínguez"],"latitude":"17.80702","longitude":"-91.53744","feature_class":"P","feature_code":"PPL","country_code":"MX","cc2":"","admin1_code":"27","admin2_code":"001","admin3_code":"","admin4_code":"","population":"11895","elevation":"","dem":"18","timezone":"America/Mexico_City","modification_date":"2015-06-22"},{"geonameid":"3532526","name":"Ayapa","asciiname":"Ayapa","alternatenames":["Anapa","Ayapa"],"latitude":"18.2241","longitude":"-93.11158","feature_class":"P","feature_code":"PPL","country_code":"MX","cc2":"","admin1_code":"27","admin2_code":"010","admin3_code":"","admin4_code":"","population":"4761","elevation":"","dem":"7","timezone":"America/Mexico_City","modification_date":"2015-06-22"},{"geonameid":"3532779","name":"Aquiles Serdán","asciiname":"Aquiles Serdan","alternatenames":[""],"latitude":"17.78333","longitude":"-92.28333","feature_class":"P","feature_code":"PPL","country_code":"MX","cc2":"","admin1_code":"27","admin2_code":"012","admin3_code":"","admin4_code":"","population":"4277","elevation":"","dem":"6","timezone":"America/Mexico_City","modification_date":"2015-06-22"},{"geonameid":"3533054","name":"Ignacio Allende","asciiname":"Ignacio Allende","alternatenames":[""],"latitude":"18.38299","longitude":"-92.84418","feature_class":"P","feature_code":"PPL","country_code":"MX","cc2":"","admin1_code":"27","admin2_code":"003","admin3_code":"","admin4_code":"","population":"3408","elevation":"","dem":"3","timezone":"America/Mexico_City","modification_date":"2013-08-01"},{"geonameid":"3802059","name":"Occidente 4ta. Sección","asciiname":"Occidente 4ta. Seccion","alternatenames":["Occidente"],"latitude":"18.30347","longitude":"-93.23388","feature_class":"P","feature_code":"PPL","country_code":"MX","cc2":"","admin1_code":"27","admin2_code":"005","admin3_code":"","admin4_code":"","population":"1178","elevation":"","dem":"10","timezone":"America/Mexico_City","modification_date":"2013-08-01"},{"geonameid":"3802082","name":"Miguel Hidalgo","asciiname":"Miguel Hidalgo","alternatenames":["Miguel Hidalgo"],"latitude":"18.25691","longitude":"-93.31073","feature_class":"P","feature_code":"PPL","country_code":"MX","cc2":"","admin1_code":"27","admin2_code":"005","admin3_code":"","admin4_code":"","population":"5397","elevation":"","dem":"14","timezone":"America/Mexico_City","modification_date":"2014-06-05"},{"geonameid":"3802100","name":"Oriente 1ra. Sección","asciiname":"Oriente 1ra. Seccion","alternatenames":["Oriente Segunda Seccion","Oriente Segunda Sección"],"latitude":"18.33889","longitude":"-93.20056","feature_class":"P","feature_code":"PPL","country_code":"MX","cc2":"","admin1_code":"27","admin2_code":"014","admin3_code":"","admin4_code":"","population":"1988","elevation":"","dem":"14","timezone":"America/Mexico_City","modification_date":"2013-08-01"},{"geonameid":"3802125","name":"Tecoluta 2da. Sección","asciiname":"Tecoluta 2da. Seccion","alternatenames":["Tecolma Segunda Seccion","Tecolma Segunda Sección"],"latitude":"18.24408","longitude":"-93.01956","feature_class":"P","feature_code":"PPL","country_code":"MX","cc2":"","admin1_code":"27","admin2_code":"013","admin3_code":"","admin4_code":"","population":"1689","elevation":"","dem":"5","timezone":"America/Mexico_City","modification_date":"2013-08-01"},{"geonameid":"3802129","name":"Gobernador Cruz","asciiname":"Gobernador Cruz","alternatenames":["Gobernador Cruz"],"latitude":"18.43364","longitude":"-92.8718","feature_class":"P","feature_code":"PPL","country_code":"MX","cc2":"","admin1_code":"27","admin2_code":"003","admin3_code":"","admin4_code":"","population":"1629","elevation":"","dem":"8","timezone":"America/Mexico_City","modification_date":"2014-06-05"},{"geonameid":"3802196","name":"Villa la Venta","asciiname":"Villa la Venta","alternatenames":["Villa la Venta"],"latitude":"18.09863","longitude":"-94.04593","feature_class":"P","feature_code":"PPL","country_code":"MX","cc2":"","admin1_code":"27","admin2_code":"008","admin3_code":"","admin4_code":"","population":"9511","elevation":"","dem":"20","timezone":"America/Mexico_City","modification_date":"2015-06-22"},{"geonameid":"3802235","name":"Poblado C-11 José María Morelos y Pavón","asciiname":"Poblado C-11 Jose Maria Morelos y Pavon","alternatenames":["General Jose Maria Morelos y Pavon","General José María Morelos y Pavon"],"latitude":"18.17419","longitude":"-93.62356","feature_class":"P","feature_code":"PPL","country_code":"MX","cc2":"","admin1_code":"27","admin2_code":"002","admin3_code":"","admin4_code":"","population":"2547","elevation":"","dem":"10","timezone":"America/Mexico_City","modification_date":"2013-08-01"},{"geonameid":"3802287","name":"El Tular","asciiname":"El Tular","alternatenames":["El Tular"],"latitude":"18.15429","longitude":"-93.3382","feature_class":"P","feature_code":"PPL","country_code":"MX","cc2":"","admin1_code":"27","admin2_code":"006","admin3_code":"","admin4_code":"","population":"2300","elevation":"7","dem":"18","timezone":"America/Mexico_City","modification_date":"2015-06-22"},{"geonameid":"3802355","name":"Cúlico 2da. Sección","asciiname":"Culico 2da. Seccion","alternatenames":["Calico Primera Seccion","Calico Primera Sección"],"latitude":"18.14116","longitude":"-93.13222","feature_class":"P","feature_code":"PPL","country_code":"MX","cc2":"","admin1_code":"27","admin2_code":"006","admin3_code":"","admin4_code":"","population":"1408","elevation":"","dem":"14","timezone":"America/Mexico_City","modification_date":"2013-08-01"},{"geonameid":"3802392","name":"Cumuapa 1ra. Sección","asciiname":"Cumuapa 1ra. Seccion","alternatenames":["Cumuapa"],"latitude":"17.98519","longitude":"-93.13806","feature_class":"P","feature_code":"PPL","country_code":"MX","cc2":"","admin1_code":"27","admin2_code":"006","admin3_code":"","admin4_code":"","population":"2128","elevation":"","dem":"17","timezone":"America/Mexico_City","modification_date":"2013-08-01"},{"geonameid":"3802431","name":"Saloya 2da. Sección","asciiname":"Saloya 2da. Seccion","alternatenames":["Saloya Tercera Seccion","Saloya Tercera Sección"],"latitude":"18.05306","longitude":"-92.93639","feature_class":"P","feature_code":"PPL","country_code":"MX","cc2":"","admin1_code":"27","admin2_code":"013","admin3_code":"","admin4_code":"","population":"3595","elevation":"","dem":"11","timezone":"America/Mexico_City","modification_date":"2013-08-01"},{"geonameid":"3802529","name":"Tres Bocas 1ra. Sección","asciiname":"Tres Bocas 1ra. Seccion","alternatenames":["Tres Bocas Segunda Seccion","Tres Bocas Segunda Sección"],"latitude":"17.93231","longitude":"-93.87444","feature_class":"P","feature_code":"PPL","country_code":"MX","cc2":"","admin1_code":"27","admin2_code":"008","admin3_code":"","admin4_code":"","population":"1086","elevation":"","dem":"10","timezone":"America/Mexico_City","modification_date":"2013-08-01"},{"geonameid":"3802541","name":"Huapacal 1ra. Sección","asciiname":"Huapacal 1ra. Seccion","alternatenames":["Huapacal Primera Seccion","Huapacal Primera Sección"],"latitude":"17.92667","longitude":"-93.76639","feature_class":"P","feature_code":"PPL","country_code":"MX","cc2":"","admin1_code":"27","admin2_code":"008","admin3_code":"","admin4_code":"","population":"1164","elevation":"","dem":"17","timezone":"America/Mexico_City","modification_date":"2013-08-01"},{"geonameid":"3802583","name":"Paso de la Mina 3ra. Sección","asciiname":"Paso de la Mina 3ra. Seccion","alternatenames":["Paso de la Mina Segunda Seccion","Paso de la Mina Segunda Sección"],"latitude":"17.96335","longitude":"-93.66582","feature_class":"P","feature_code":"PPL","country_code":"MX","cc2":"","admin1_code":"27","admin2_code":"008","admin3_code":"","admin4_code":"","population":"1087","elevation":"","dem":"15","timezone":"America/Mexico_City","modification_date":"2013-08-01"},{"geonameid":"3802710","name":"Parrilla","asciiname":"Parrilla","alternatenames":["Parrilla","Villa Parrilla"],"latitude":"17.91418","longitude":"-92.91775","feature_class":"P","feature_code":"PPL","country_code":"MX","cc2":"","admin1_code":"27","admin2_code":"004","admin3_code":"","admin4_code":"","population":"5000","elevation":"10","dem":"14","timezone":"America/Mexico_City","modification_date":"2015-06-22"},{"geonameid":"3802739","name":"Río de Teapa","asciiname":"Rio de Teapa","alternatenames":["Rio de Teapa","Río de Teapa"],"latitude":"17.78282","longitude":"-92.90042","feature_class":"P","feature_code":"PPL","country_code":"MX","cc2":"","admin1_code":"27","admin2_code":"009","admin3_code":"","admin4_code":"","population":"26500","elevation":"","dem":"15","timezone":"America/Mexico_City","modification_date":"2015-06-22"},{"geonameid":"3802773","name":"Aquiles Serdán 1ra. Sección","asciiname":"Aquiles Serdan 1ra. Seccion","alternatenames":["Aquiles Serdan","Aquiles Serdán"],"latitude":"17.82474","longitude":"-92.73977","feature_class":"P","feature_code":"PPL","country_code":"MX","cc2":"","admin1_code":"27","admin2_code":"009","admin3_code":"","admin4_code":"","population":"1473","elevation":"","dem":"26","timezone":"America/Mexico_City","modification_date":"2013-08-01"},{"geonameid":"3803064","name":"Jalapa","asciiname":"Jalapa","alternatenames":["Jalapa","Khalapa","Халапа"],"latitude":"17.72168","longitude":"-92.81272","feature_class":"P","feature_code":"PPL","country_code":"MX","cc2":"","admin1_code":"27","admin2_code":"009","admin3_code":"","admin4_code":"","population":"5025","elevation":"","dem":"16","timezone":"America/Mexico_City","modification_date":"2015-06-22"},{"geonameid":"3803140","name":"Palomas","asciiname":"Palomas","alternatenames":["Paloma","Palomas"],"latitude":"17.65466","longitude":"-92.478","feature_class":"P","feature_code":"PPL","country_code":"MX","cc2":"","admin1_code":"27","admin2_code":"012","admin3_code":"","admin4_code":"","population":"1544","elevation":"","dem":"30","timezone":"America/Mexico_City","modification_date":"2014-10-02"},{"geonameid":"3803261","name":"Libertad","asciiname":"Libertad","alternatenames":["Libertad"],"latitude":"17.41027","longitude":"-92.71502","feature_class":"P","feature_code":"PPL","country_code":"MX","cc2":"","admin1_code":"27","admin2_code":"015","admin3_code":"","admin4_code":"","population":"1042","elevation":"","dem":"239","timezone":"America/Mexico_City","modification_date":"2013-07-31"},{"geonameid":"6690612","name":"Huapinol","asciiname":"Huapinol","alternatenames":[""],"latitude":"17.92285","longitude":"-92.9109","feature_class":"P","feature_code":"PPL","country_code":"MX","cc2":"","admin1_code":"27","admin2_code":"004","admin3_code":"","admin4_code":"","population":"2500","elevation":"15","dem":"23","timezone":"America/Mexico_City","modification_date":"2015-06-22"},{"geonameid":"8858151","name":"Pomoca","asciiname":"Pomoca","alternatenames":["Pomoca"],"latitude":"18.04972","longitude":"-92.93056","feature_class":"P","feature_code":"PPL","country_code":"MX","cc2":"","admin1_code":"27","admin2_code":"013","admin3_code":"","admin4_code":"","population":"10864","elevation":"","dem":"10","timezone":"America/Mexico_City","modification_date":"2014-04-11"},{"geonameid":"8858176","name":"Bosque de Saloya","asciiname":"Bosque de Saloya","alternatenames":["Bosque de Saloya"],"latitude":"18.01611","longitude":"-92.95806","feature_class":"P","feature_code":"PPL","country_code":"MX","cc2":"","admin1_code":"27","admin2_code":"013","admin3_code":"","admin4_code":"","population":"8600","elevation":"","dem":"8","timezone":"America/Mexico_City","modification_date":"2014-04-11"},{"geonameid":"8858190","name":"La Selva","asciiname":"La Selva","alternatenames":["La Selva"],"latitude":"18.02333","longitude":"-92.96306","feature_class":"P","feature_code":"PPL","country_code":"MX","cc2":"","admin1_code":"27","admin2_code":"013","admin3_code":"","admin4_code":"","population":"7690","elevation":"","dem":"11","timezone":"America/Mexico_City","modification_date":"2014-04-11"},{"geonameid":"8858247","name":"La Lima","asciiname":"La Lima","alternatenames":["La Lima"],"latitude":"17.91056","longitude":"-92.93389","feature_class":"P","feature_code":"PPL","country_code":"MX","cc2":"","admin1_code":"27","admin2_code":"004","admin3_code":"","admin4_code":"","population":"5638","elevation":"","dem":"11","timezone":"America/Mexico_City","modification_date":"2014-04-11"},{"geonameid":"8858263","name":"Anacleto Canabal 2da. Sección","asciiname":"Anacleto Canabal 2da. Seccion","alternatenames":["Anacleto Canabal 2da. Seccion","Anacleto Canabal 2da. Sección"],"latitude":"17.97556","longitude":"-93.02417","feature_class":"P","feature_code":"PPL","country_code":"MX","cc2":"","admin1_code":"27","admin2_code":"004","admin3_code":"","admin4_code":"","population":"5153","elevation":"","dem":"12","timezone":"America/Mexico_City","modification_date":"2014-04-11"},{"geonameid":"8858278","name":"Fraccionamiento Ocuiltzapotlán Dos","asciiname":"Fraccionamiento Ocuiltzapotlan Dos","alternatenames":["Fraccionamiento Ocuiltzapotlan Dos","Fraccionamiento Ocuiltzapotlán Dos"],"latitude":"18.10889","longitude":"-92.86778","feature_class":"P","feature_code":"PPL","country_code":"MX","cc2":"","admin1_code":"27","admin2_code":"004","admin3_code":"","admin4_code":"","population":"4675","elevation":"","dem":"13","timezone":"America/Mexico_City","modification_date":"2014-04-11"},{"geonameid":"8858281","name":"Aquiles Serdán (San Fernando)","asciiname":"Aquiles Serdan (San Fernando)","alternatenames":["Aquiles Serdan (San Fernando)","Aquiles Serdán (San Fernando)"],"latitude":"17.80556","longitude":"-92.48972","feature_class":"P","feature_code":"PPL","country_code":"MX","cc2":"","admin1_code":"27","admin2_code":"012","admin3_code":"","admin4_code":"","population":"4613","elevation":"","dem":"17","timezone":"America/Mexico_City","modification_date":"2014-04-11"},{"geonameid":"8858319","name":"C-32 (Licenciado Francisco Trujillo Gurría)","asciiname":"C-32 (Licenciado Francisco Trujillo Gurria)","alternatenames":["C-32 (Licenciado Francisco Trujillo Gurria)","C-32 (Licenciado Francisco Trujillo Gurría)"],"latitude":"17.96833","longitude":"-93.50139","feature_class":"P","feature_code":"PPL","country_code":"MX","cc2":"","admin1_code":"27","admin2_code":"008","admin3_code":"","admin4_code":"","population":"3917","elevation":"","dem":"23","timezone":"America/Mexico_City","modification_date":"2014-04-11"},{"geonameid":"8858329","name":"Melchor Ocampo","asciiname":"Melchor Ocampo","alternatenames":["Melchor Ocampo"],"latitude":"18.03694","longitude":"-93.3625","feature_class":"P","feature_code":"PPL","country_code":"MX","cc2":"","admin1_code":"27","admin2_code":"002","admin3_code":"","admin4_code":"","population":"3821","elevation":"","dem":"30","timezone":"America/Mexico_City","modification_date":"2014-04-11"},{"geonameid":"8858350","name":"C-41 (Licenciado Carlos A. Madrazo)","asciiname":"C-41 (Licenciado Carlos A. Madrazo)","alternatenames":["C-41 (Licenciado Carlos A. Madrazo)"],"latitude":"17.92306","longitude":"-93.44806","feature_class":"P","feature_code":"PPL","country_code":"MX","cc2":"","admin1_code":"27","admin2_code":"008","admin3_code":"","admin4_code":"","population":"3680","elevation":"","dem":"29","timezone":"America/Mexico_City","modification_date":"2014-04-11"},{"geonameid":"8858377","name":"Samarkanda","asciiname":"Samarkanda","alternatenames":["Samarkanda"],"latitude":"18.04216","longitude":"-92.9105","feature_class":"P","feature_code":"PPL","country_code":"MX","cc2":"","admin1_code":"27","admin2_code":"013","admin3_code":"","admin4_code":"","population":"3365","elevation":"","dem":"8","timezone":"America/Mexico_City","modification_date":"2014-04-11"},{"geonameid":"8858423","name":"Arena 1ra. Sección","asciiname":"Arena 1ra. Seccion","alternatenames":["Arena 1ra. Seccion","Arena 1ra. Sección"],"latitude":"18.20139","longitude":"-93.36694","feature_class":"P","feature_code":"PPL","country_code":"MX","cc2":"","admin1_code":"27","admin2_code":"005","admin3_code":"","admin4_code":"","population":"3053","elevation":"","dem":"13","timezone":"America/Mexico_City","modification_date":"2014-04-11"},{"geonameid":"8858429","name":"Buena Vista 1ra. Sección","asciiname":"Buena Vista 1ra. Seccion","alternatenames":["Buena Vista 1ra. Seccion","Buena Vista 1ra. Sección"],"latitude":"18.14417","longitude":"-92.74972","feature_class":"P","feature_code":"PPL","country_code":"MX","cc2":"","admin1_code":"27","admin2_code":"004","admin3_code":"","admin4_code":"","population":"3005","elevation":"","dem":"8","timezone":"America/Mexico_City","modification_date":"2014-04-11"},{"geonameid":"8858443","name":"Iquinuapa","asciiname":"Iquinuapa","alternatenames":["Iquinuapa"],"latitude":"18.19583","longitude":"-93.12056","feature_class":"P","feature_code":"PPL","country_code":"MX","cc2":"","admin1_code":"27","admin2_code":"010","admin3_code":"","admin4_code":"","population":"2915","elevation":"","dem":"7","timezone":"America/Mexico_City","modification_date":"2014-04-11"},{"geonameid":"8858468","name":"Poblado C-33 20 de Noviembre","asciiname":"Poblado C-33 20 de Noviembre","alternatenames":["Poblado C-33 20 de Noviembre"],"latitude":"17.9675","longitude":"-93.565","feature_class":"P","feature_code":"PPL","country_code":"MX","cc2":"","admin1_code":"27","admin2_code":"002","admin3_code":"","admin4_code":"","population":"2779","elevation":"","dem":"18","timezone":"America/Mexico_City","modification_date":"2014-04-11"},{"geonameid":"8858479","name":"Constitución","asciiname":"Constitucion","alternatenames":["Constitucion","Constitución"],"latitude":"18.07278","longitude":"-92.87194","feature_class":"P","feature_code":"PPL","country_code":"MX","cc2":"","admin1_code":"27","admin2_code":"004","admin3_code":"","admin4_code":"","population":"2721","elevation":"","dem":"4","timezone":"America/Mexico_City","modification_date":"2014-04-11"},{"geonameid":"8858523","name":"Anacleto Canabal 3ra. Sección","asciiname":"Anacleto Canabal 3ra. Seccion","alternatenames":["Anacleto Canabal 3ra. Seccion","Anacleto Canabal 3ra. Sección"],"latitude":"18.0183","longitude":"-92.98992","feature_class":"P","feature_code":"PPL","country_code":"MX","cc2":"","admin1_code":"27","admin2_code":"004","admin3_code":"","admin4_code":"","population":"2589","elevation":"","dem":"9","timezone":"America/Mexico_City","modification_date":"2014-04-11"},{"geonameid":"8858609","name":"Ignacio Zaragoza","asciiname":"Ignacio Zaragoza","alternatenames":["Ignacio Zaragoza"],"latitude":"18.40139","longitude":"-92.95944","feature_class":"P","feature_code":"PPL","country_code":"MX","cc2":"","admin1_code":"27","admin2_code":"003","admin3_code":"","admin4_code":"","population":"2327","elevation":"","dem":"7","timezone":"America/Mexico_City","modification_date":"2014-04-11"},{"geonameid":"8858619","name":"Poblado C-21 Licenciado Benito Juárez García","asciiname":"Poblado C-21 Licenciado Benito Juarez Garcia","alternatenames":["Poblado C-21 Licenciado Benito Juarez Garcia","Poblado C-21 Licenciado Benito Juárez García"],"latitude":"18.06778","longitude":"-93.56139","feature_class":"P","feature_code":"PPL","country_code":"MX","cc2":"","admin1_code":"27","admin2_code":"002","admin3_code":"","admin4_code":"","population":"2294","elevation":"","dem":"12","timezone":"America/Mexico_City","modification_date":"2014-04-11"},{"geonameid":"8858641","name":"El Tigre","asciiname":"El Tigre","alternatenames":["El Tigre"],"latitude":"18.10194","longitude":"-92.94194","feature_class":"P","feature_code":"PPL","country_code":"MX","cc2":"","admin1_code":"27","admin2_code":"013","admin3_code":"","admin4_code":"","population":"2209","elevation":"","dem":"6","timezone":"America/Mexico_City","modification_date":"2014-04-11"},{"geonameid":"8858685","name":"Morelos Piedra 3ra. Sección","asciiname":"Morelos Piedra 3ra. Seccion","alternatenames":["Morelos Piedra 3ra. Seccion","Morelos Piedra 3ra. Sección"],"latitude":"18.14389","longitude":"-93.22","feature_class":"P","feature_code":"PPL","country_code":"MX","cc2":"","admin1_code":"27","admin2_code":"006","admin3_code":"","admin4_code":"","population":"2099","elevation":"","dem":"14","timezone":"America/Mexico_City","modification_date":"2014-04-11"},{"geonameid":"8858693","name":"Brisas del Carrizal","asciiname":"Brisas del Carrizal","alternatenames":["Brisas del Carrizal"],"latitude":"18.01556","longitude":"-92.97083","feature_class":"P","feature_code":"PPL","country_code":"MX","cc2":"","admin1_code":"27","admin2_code":"013","admin3_code":"","admin4_code":"","population":"2085","elevation":"","dem":"6","timezone":"America/Mexico_City","modification_date":"2014-04-11"},{"geonameid":"8858707","name":"La Escalera","asciiname":"La Escalera","alternatenames":["La Escalera"],"latitude":"17.84361","longitude":"-92.52556","feature_class":"P","feature_code":"PPL","country_code":"MX","cc2":"","admin1_code":"27","admin2_code":"012","admin3_code":"","admin4_code":"","population":"2052","elevation":"","dem":"23","timezone":"America/Mexico_City","modification_date":"2014-04-11"},{"geonameid":"8858716","name":"Taxco","asciiname":"Taxco","alternatenames":["Taxco"],"latitude":"18.13917","longitude":"-93.00528","feature_class":"P","feature_code":"PPL","country_code":"MX","cc2":"","admin1_code":"27","admin2_code":"013","admin3_code":"","admin4_code":"","population":"2016","elevation":"","dem":"9","timezone":"America/Mexico_City","modification_date":"2014-04-11"},{"geonameid":"8858765","name":"Lagartera 1ra. Sección","asciiname":"Lagartera 1ra. Seccion","alternatenames":["Lagartera 1ra. Seccion","Lagartera 1ra. Sección"],"latitude":"18.06277","longitude":"-92.88563","feature_class":"P","feature_code":"PPL","country_code":"MX","cc2":"","admin1_code":"27","admin2_code":"004","admin3_code":"","admin4_code":"","population":"1914","elevation":"","dem":"8","timezone":"America/Mexico_City","modification_date":"2014-04-11"},{"geonameid":"8858767","name":"Ceiba 1ra. Sección (Jahuactal)","asciiname":"Ceiba 1ra. Seccion (Jahuactal)","alternatenames":["Ceiba 1ra. Seccion (Jahuactal)","Ceiba 1ra. Sección (Jahuactal)"],"latitude":"18.06222","longitude":"-93.11306","feature_class":"P","feature_code":"PPL","country_code":"MX","cc2":"","admin1_code":"27","admin2_code":"006","admin3_code":"","admin4_code":"","population":"1912","elevation":"","dem":"14","timezone":"America/Mexico_City","modification_date":"2014-04-11"},{"geonameid":"8858785","name":"Caparroso","asciiname":"Caparroso","alternatenames":["Caparroso"],"latitude":"18.345","longitude":"-92.80361","feature_class":"P","feature_code":"PPL","country_code":"MX","cc2":"","admin1_code":"27","admin2_code":"003","admin3_code":"","admin4_code":"","population":"1886","elevation":"","dem":"5","timezone":"America/Mexico_City","modification_date":"2014-04-11"},{"geonameid":"8858791","name":"Hermenegildo Galeana 2da. Sección","asciiname":"Hermenegildo Galeana 2da. Seccion","alternatenames":["Hermenegildo Galeana 2da. Seccion","Hermenegildo Galeana 2da. Sección"],"latitude":"18.17054","longitude":"-93.13508","feature_class":"P","feature_code":"PPL","country_code":"MX","cc2":"","admin1_code":"27","admin2_code":"010","admin3_code":"","admin4_code":"","population":"1881","elevation":"","dem":"14","timezone":"America/Mexico_City","modification_date":"2014-04-11"},{"geonameid":"8858830","name":"Pejelagartero 1ra. Sección (Plataforma)","asciiname":"Pejelagartero 1ra. Seccion (Plataforma)","alternatenames":["Pejelagartero 1ra. Seccion (Plataforma)","Pejelagartero 1ra. Sección (Plataforma)"],"latitude":"18.055","longitude":"-93.82472","feature_class":"P","feature_code":"PPL","country_code":"MX","cc2":"","admin1_code":"27","admin2_code":"008","admin3_code":"","admin4_code":"","population":"1817","elevation":"","dem":"13","timezone":"America/Mexico_City","modification_date":"2014-04-11"},{"geonameid":"8858835","name":"Mecoacán 2da. Sección (San Lorenzo)","asciiname":"Mecoacan 2da. Seccion (San Lorenzo)","alternatenames":["Mecoacan 2da. Seccion (San Lorenzo)","Mecoacán 2da. Sección (San Lorenzo)"],"latitude":"18.2779","longitude":"-93.09095","feature_class":"P","feature_code":"PPL","country_code":"MX","cc2":"","admin1_code":"27","admin2_code":"010","admin3_code":"","admin4_code":"","population":"1807","elevation":"","dem":"11","timezone":"America/Mexico_City","modification_date":"2014-04-11"},{"geonameid":"8858874","name":"Huapacal 2da. Sección (Punta Brava)","asciiname":"Huapacal 2da. Seccion (Punta Brava)","alternatenames":["Huapacal 2da. Seccion (Punta Brava)","Huapacal 2da. Sección (Punta Brava)"],"latitude":"18.19722","longitude":"-93.17194","feature_class":"P","feature_code":"PPL","country_code":"MX","cc2":"","admin1_code":"27","admin2_code":"010","admin3_code":"","admin4_code":"","population":"1750","elevation":"","dem":"13","timezone":"America/Mexico_City","modification_date":"2014-04-11"},{"geonameid":"8858879","name":"Capitán Felipe Castellanos Díaz (San Pedro)","asciiname":"Capitan Felipe Castellanos Diaz (San Pedro)","alternatenames":["Capitan Felipe Castellanos Diaz (San Pedro)","Capitán Felipe Castellanos Díaz (San Pedro)"],"latitude":"17.77306","longitude":"-91.1475","feature_class":"P","feature_code":"PPL","country_code":"MX","cc2":"","admin1_code":"27","admin2_code":"001","admin3_code":"","admin4_code":"","population":"1735","elevation":"","dem":"44","timezone":"America/Mexico_City","modification_date":"2014-04-11"},{"geonameid":"8858891","name":"Santana 2da. Sección B (La Palma)","asciiname":"Santana 2da. Seccion B (La Palma)","alternatenames":["Santana 2da. Seccion B (La Palma)","Santana 2da. Sección B (La Palma)"],"latitude":"18.17505","longitude":"-93.4318","feature_class":"P","feature_code":"PPL","country_code":"MX","cc2":"","admin1_code":"27","admin2_code":"002","admin3_code":"","admin4_code":"","population":"1715","elevation":"","dem":"18","timezone":"America/Mexico_City","modification_date":"2014-04-11"},{"geonameid":"8858936","name":"Pénjamo","asciiname":"Penjamo","alternatenames":["Penjamo","Pénjamo"],"latitude":"18.43444","longitude":"-93.09306","feature_class":"P","feature_code":"PPL","country_code":"MX","cc2":"","admin1_code":"27","admin2_code":"014","admin3_code":"","admin4_code":"","population":"1653","elevation":"","dem":"11","timezone":"America/Merida","modification_date":"2014-04-11"},{"geonameid":"8858945","name":"Habanero 1ra. Sección (Venustiano Carranza)","asciiname":"Habanero 1ra. Seccion (Venustiano Carranza)","alternatenames":["Habanero 1ra. Seccion (Venustiano Carranza)","Habanero 1ra. Sección (Venustiano Carranza)"],"latitude":"17.96778","longitude":"-93.32806","feature_class":"P","feature_code":"PPL","country_code":"MX","cc2":"","admin1_code":"27","admin2_code":"002","admin3_code":"","admin4_code":"","population":"1641","elevation":"","dem":"25","timezone":"America/Mexico_City","modification_date":"2014-04-11"},{"geonameid":"8858947","name":"Buena Vista (Apasco)","asciiname":"Buena Vista (Apasco)","alternatenames":["Buena Vista (Apasco)"],"latitude":"17.65556","longitude":"-92.44389","feature_class":"P","feature_code":"PPL","country_code":"MX","cc2":"","admin1_code":"27","admin2_code":"012","admin3_code":"","admin4_code":"","population":"1638","elevation":"","dem":"27","timezone":"America/Mexico_City","modification_date":"2014-04-11"},{"geonameid":"8858952","name":"Gobernadores","asciiname":"Gobernadores","alternatenames":["Gobernadores"],"latitude":"18.24694","longitude":"-93.18528","feature_class":"P","feature_code":"PPL","country_code":"MX","cc2":"","admin1_code":"27","admin2_code":"005","admin3_code":"","admin4_code":"","population":"1630","elevation":"","dem":"7","timezone":"America/Mexico_City","modification_date":"2014-04-11"},{"geonameid":"8858966","name":"Nueva División del Bayo (Guatemala)","asciiname":"Nueva Division del Bayo (Guatemala)","alternatenames":["Nueva Division del Bayo (Guatemala)","Nueva División del Bayo (Guatemala)"],"latitude":"17.84","longitude":"-92.48889","feature_class":"P","feature_code":"PPL","country_code":"MX","cc2":"","admin1_code":"27","admin2_code":"012","admin3_code":"","admin4_code":"","population":"1615","elevation":"","dem":"10","timezone":"America/Mexico_City","modification_date":"2014-04-11"},{"geonameid":"8859046","name":"Eureka y Belén","asciiname":"Eureka y Belen","alternatenames":["Eureka y Belen","Eureka y Belén"],"latitude":"17.55968","longitude":"-92.92899","feature_class":"P","feature_code":"PPL","country_code":"MX","cc2":"","admin1_code":"27","admin2_code":"016","admin3_code":"","admin4_code":"","population":"1517","elevation":"","dem":"52","timezone":"America/Mexico_City","modification_date":"2014-04-11"},{"geonameid":"8859048","name":"La Península","asciiname":"La Peninsula","alternatenames":["La Peninsula","La Península"],"latitude":"17.94347","longitude":"-93.36148","feature_class":"P","feature_code":"PPL","country_code":"MX","cc2":"","admin1_code":"27","admin2_code":"002","admin3_code":"","admin4_code":"","population":"1516","elevation":"","dem":"28","timezone":"America/Mexico_City","modification_date":"2014-04-11"},{"geonameid":"8859055","name":"Gaviotas Sur (El Cedral)","asciiname":"Gaviotas Sur (El Cedral)","alternatenames":["Gaviotas Sur (El Cedral)"],"latitude":"17.95373","longitude":"-92.89071","feature_class":"P","feature_code":"PPL","country_code":"MX","cc2":"","admin1_code":"27","admin2_code":"004","admin3_code":"","admin4_code":"","population":"1508","elevation":"","dem":"11","timezone":"America/Mexico_City","modification_date":"2014-04-11"},{"geonameid":"8859059","name":"Encrucijada 3ra. Sección (Las Calzadas)","asciiname":"Encrucijada 3ra. Seccion (Las Calzadas)","alternatenames":["Encrucijada 3ra. Seccion (Las Calzadas)","Encrucijada 3ra. Sección (Las Calzadas)"],"latitude":"18.25491","longitude":"-93.55619","feature_class":"P","feature_code":"PPL","country_code":"MX","cc2":"","admin1_code":"27","admin2_code":"002","admin3_code":"","admin4_code":"","population":"1505","elevation":"","dem":"10","timezone":"America/Mexico_City","modification_date":"2014-04-11"},{"geonameid":"8859060","name":"Chichicastle 1ra. Sección","asciiname":"Chichicastle 1ra. Seccion","alternatenames":["Chichicastle 1ra. Seccion","Chichicastle 1ra. Sección"],"latitude":"18.30417","longitude":"-92.43139","feature_class":"P","feature_code":"PPL","country_code":"MX","cc2":"","admin1_code":"27","admin2_code":"003","admin3_code":"","admin4_code":"","population":"1505","elevation":"","dem":"2","timezone":"America/Mexico_City","modification_date":"2014-04-11"},{"geonameid":"8859061","name":"Corriente 1ra. Sección","asciiname":"Corriente 1ra. Seccion","alternatenames":["Corriente 1ra. Seccion","Corriente 1ra. Sección"],"latitude":"18.15767","longitude":"-92.99372","feature_class":"P","feature_code":"PPL","country_code":"MX","cc2":"","admin1_code":"27","admin2_code":"013","admin3_code":"","admin4_code":"","population":"1501","elevation":"","dem":"8","timezone":"America/Mexico_City","modification_date":"2014-04-11"},{"geonameid":"8859064","name":"Francisco Rueda","asciiname":"Francisco Rueda","alternatenames":["Francisco Rueda"],"latitude":"17.82917","longitude":"-93.93389","feature_class":"P","feature_code":"PPL","country_code":"MX","cc2":"","admin1_code":"27","admin2_code":"008","admin3_code":"","admin4_code":"","population":"1499","elevation":"","dem":"15","timezone":"America/Mexico_City","modification_date":"2014-04-11"},{"geonameid":"8859073","name":"Norte 1ra. Sección (San Julián)","asciiname":"Norte 1ra. Seccion (San Julian)","alternatenames":["Norte 1ra. Seccion (San Julian)","Norte 1ra. Sección (San Julián)"],"latitude":"18.30139","longitude":"-93.20944","feature_class":"P","feature_code":"PPL","country_code":"MX","cc2":"","admin1_code":"27","admin2_code":"005","admin3_code":"","admin4_code":"","population":"1488","elevation":"","dem":"11","timezone":"America/Mexico_City","modification_date":"2014-04-11"},{"geonameid":"8859123","name":"Monte Largo 1ra. Sección","asciiname":"Monte Largo 1ra. Seccion","alternatenames":["Monte Largo 1ra. Seccion","Monte Largo 1ra. Sección"],"latitude":"17.83567","longitude":"-92.60664","feature_class":"P","feature_code":"PPL","country_code":"MX","cc2":"","admin1_code":"27","admin2_code":"012","admin3_code":"","admin4_code":"","population":"1446","elevation":"","dem":"28","timezone":"America/Mexico_City","modification_date":"2014-04-11"},{"geonameid":"8859138","name":"Benito Juárez (La Playita)","asciiname":"Benito Juarez (La Playita)","alternatenames":["Benito Juarez (La Playita)","Benito Juárez (La Playita)"],"latitude":"17.93231","longitude":"-93.36472","feature_class":"P","feature_code":"PPL","country_code":"MX","cc2":"","admin1_code":"27","admin2_code":"002","admin3_code":"","admin4_code":"","population":"1433","elevation":"","dem":"31","timezone":"America/Mexico_City","modification_date":"2014-04-11"},{"geonameid":"8859162","name":"Buena Vista (Puxcatán)","asciiname":"Buena Vista (Puxcatan)","alternatenames":["Buena Vista (Puxcatan)","Buena Vista (Puxcatán)"],"latitude":"17.73073","longitude":"-92.61996","feature_class":"P","feature_code":"PPL","country_code":"MX","cc2":"","admin1_code":"27","admin2_code":"012","admin3_code":"","admin4_code":"","population":"1415","elevation":"","dem":"14","timezone":"America/Mexico_City","modification_date":"2014-04-11"},{"geonameid":"8859173","name":"Paso de la Mina 2da. Sección (Barrial)","asciiname":"Paso de la Mina 2da. Seccion (Barrial)","alternatenames":["Paso de la Mina 2da. Seccion (Barrial)","Paso de la Mina 2da. Sección (Barrial)"],"latitude":"17.95278","longitude":"-93.69083","feature_class":"P","feature_code":"PPL","country_code":"MX","cc2":"","admin1_code":"27","admin2_code":"008","admin3_code":"","admin4_code":"","population":"1407","elevation":"","dem":"13","timezone":"America/Mexico_City","modification_date":"2014-04-11"},{"geonameid":"8859182","name":"Oriente 6ta. Sección (Los Mulatos)","asciiname":"Oriente 6ta. Seccion (Los Mulatos)","alternatenames":["Oriente 6ta. Seccion (Los Mulatos)","Oriente 6ta. Sección (Los Mulatos)"],"latitude":"18.16722","longitude":"-93.23583","feature_class":"P","feature_code":"PPL","country_code":"MX","cc2":"","admin1_code":"27","admin2_code":"005","admin3_code":"","admin4_code":"","population":"1398","elevation":"","dem":"15","timezone":"America/Mexico_City","modification_date":"2014-04-11"},{"geonameid":"8859238","name":"Acachapan y Colmena 3ra. Sección","asciiname":"Acachapan y Colmena 3ra. Seccion","alternatenames":["Acachapan y Colmena 3ra. Seccion","Acachapan y Colmena 3ra. Sección"],"latitude":"18.04858","longitude":"-92.7775","feature_class":"P","feature_code":"PPL","country_code":"MX","cc2":"","admin1_code":"27","admin2_code":"004","admin3_code":"","admin4_code":"","population":"1352","elevation":"","dem":"8","timezone":"America/Mexico_City","modification_date":"2014-04-11"},{"geonameid":"8859248","name":"Miguel Hidalgo 2da. Sección B (La Natividad)","asciiname":"Miguel Hidalgo 2da. Seccion B (La Natividad)","alternatenames":["Miguel Hidalgo 2da. Seccion B (La Natividad)","Miguel Hidalgo 2da. Sección B (La Natividad)"],"latitude":"18.07861","longitude":"-93.35056","feature_class":"P","feature_code":"PPL","country_code":"MX","cc2":"","admin1_code":"27","admin2_code":"002","admin3_code":"","admin4_code":"","population":"1346","elevation":"","dem":"26","timezone":"America/Mexico_City","modification_date":"2014-04-11"},{"geonameid":"8859299","name":"Álvaro Obregón (Santa Cruz)","asciiname":"Alvaro Obregon (Santa Cruz)","alternatenames":["Alvaro Obregon (Santa Cruz)","Álvaro Obregón (Santa Cruz)"],"latitude":"18.39422","longitude":"-92.79982","feature_class":"P","feature_code":"PPL","country_code":"MX","cc2":"","admin1_code":"27","admin2_code":"003","admin3_code":"","admin4_code":"","population":"1304","elevation":"","dem":"4","timezone":"America/Mexico_City","modification_date":"2014-04-11"},{"geonameid":"8859302","name":"Jolochero 2da. Sección","asciiname":"Jolochero 2da. Seccion","alternatenames":["Jolochero 2da. Seccion","Jolochero 2da. Sección"],"latitude":"18.12","longitude":"-92.79833","feature_class":"P","feature_code":"PPL","country_code":"MX","cc2":"","admin1_code":"27","admin2_code":"004","admin3_code":"","admin4_code":"","population":"1303","elevation":"","dem":"4","timezone":"America/Mexico_City","modification_date":"2014-04-11"},{"geonameid":"8859306","name":"Potrerillo","asciiname":"Potrerillo","alternatenames":["Potrerillo"],"latitude":"18.25472","longitude":"-93.13472","feature_class":"P","feature_code":"PPL","country_code":"MX","cc2":"","admin1_code":"27","admin2_code":"005","admin3_code":"","admin4_code":"","population":"1300","elevation":"","dem":"9","timezone":"America/Mexico_City","modification_date":"2014-04-11"},{"geonameid":"8859316","name":"La Manga 2da. Sección (El Jobal)","asciiname":"La Manga 2da. Seccion (El Jobal)","alternatenames":["La Manga 2da. Seccion (El Jobal)","La Manga 2da. Sección (El Jobal)"],"latitude":"18.01917","longitude":"-92.86944","feature_class":"P","feature_code":"PPL","country_code":"MX","cc2":"","admin1_code":"27","admin2_code":"004","admin3_code":"","admin4_code":"","population":"1292","elevation":"","dem":"11","timezone":"America/Mexico_City","modification_date":"2014-04-11"},{"geonameid":"8859324","name":"Nicolás Bravo 5ta. Sección (Punta Brava)","asciiname":"Nicolas Bravo 5ta. Seccion (Punta Brava)","alternatenames":["Nicolas Bravo 5ta. Seccion (Punta Brava)","Nicolás Bravo 5ta. Sección (Punta Brava)"],"latitude":"18.27827","longitude":"-93.12872","feature_class":"P","feature_code":"PPL","country_code":"MX","cc2":"","admin1_code":"27","admin2_code":"014","admin3_code":"","admin4_code":"","population":"1289","elevation":"","dem":"11","timezone":"America/Mexico_City","modification_date":"2014-04-11"},{"geonameid":"8859385","name":"Banderas (Guatacalca 2da. Sección)","asciiname":"Banderas (Guatacalca 2da. Seccion)","alternatenames":["Banderas (Guatacalca 2da. Seccion)","Banderas (Guatacalca 2da. Sección)"],"latitude":"18.15167","longitude":"-92.89881","feature_class":"P","feature_code":"PPL","country_code":"MX","cc2":"","admin1_code":"27","admin2_code":"013","admin3_code":"","admin4_code":"","population":"1255","elevation":"","dem":"5","timezone":"America/Mexico_City","modification_date":"2014-04-11"},{"geonameid":"8859395","name":"Pablo L. Sidar","asciiname":"Pablo L. Sidar","alternatenames":["Pablo L. Sidar"],"latitude":"17.90028","longitude":"-93.02917","feature_class":"P","feature_code":"PPL","country_code":"MX","cc2":"","admin1_code":"27","admin2_code":"004","admin3_code":"","admin4_code":"","population":"1251","elevation":"","dem":"9","timezone":"America/Mexico_City","modification_date":"2014-04-11"},{"geonameid":"8859408","name":"Oriente 1ra. Sección (Santo Domingo)","asciiname":"Oriente 1ra. Seccion (Santo Domingo)","alternatenames":["Oriente 1ra. Seccion (Santo Domingo)","Oriente 1ra. Sección (Santo Domingo)"],"latitude":"18.26417","longitude":"-93.20306","feature_class":"P","feature_code":"PPL","country_code":"MX","cc2":"","admin1_code":"27","admin2_code":"005","admin3_code":"","admin4_code":"","population":"1244","elevation":"","dem":"9","timezone":"America/Mexico_City","modification_date":"2014-04-11"},{"geonameid":"8859450","name":"Oriente 2da. Sección (Palma Huaca)","asciiname":"Oriente 2da. Seccion (Palma Huaca)","alternatenames":["Oriente 2da. Seccion (Palma Huaca)","Oriente 2da. Sección (Palma Huaca)"],"latitude":"18.32917","longitude":"-93.18528","feature_class":"P","feature_code":"PPL","country_code":"MX","cc2":"","admin1_code":"27","admin2_code":"014","admin3_code":"","admin4_code":"","population":"1220","elevation":"","dem":"13","timezone":"America/Mexico_City","modification_date":"2014-04-11"},{"geonameid":"8859470","name":"Tequila 1ra. Sección (La Aurora)","asciiname":"Tequila 1ra. Seccion (La Aurora)","alternatenames":["Tequila 1ra. Seccion (La Aurora)","Tequila 1ra. Sección (La Aurora)"],"latitude":"17.88","longitude":"-92.72306","feature_class":"P","feature_code":"PPL","country_code":"MX","cc2":"","admin1_code":"27","admin2_code":"009","admin3_code":"","admin4_code":"","population":"1211","elevation":"","dem":"37","timezone":"America/Mexico_City","modification_date":"2014-04-11"},{"geonameid":"8859479","name":"Oriente 2da. Sección (San Cayetano)","asciiname":"Oriente 2da. Seccion (San Cayetano)","alternatenames":["Oriente 2da. Seccion (San Cayetano)","Oriente 2da. Sección (San Cayetano)"],"latitude":"18.18667","longitude":"-93.22944","feature_class":"P","feature_code":"PPL","country_code":"MX","cc2":"","admin1_code":"27","admin2_code":"005","admin3_code":"","admin4_code":"","population":"1205","elevation":"","dem":"17","timezone":"America/Mexico_City","modification_date":"2014-04-11"},{"geonameid":"8859494","name":"La Sábana","asciiname":"La Sabana","alternatenames":["La Sabana","La Sábana"],"latitude":"18.44461","longitude":"-92.88411","feature_class":"P","feature_code":"PPL","country_code":"MX","cc2":"","admin1_code":"27","admin2_code":"003","admin3_code":"","admin4_code":"","population":"1193","elevation":"","dem":"6","timezone":"America/Mexico_City","modification_date":"2014-04-11"},{"geonameid":"8859521","name":"Pechucalco 2da. Sección (Las Cruces)","asciiname":"Pechucalco 2da. Seccion (Las Cruces)","alternatenames":["Pechucalco 2da. Seccion (Las Cruces)","Pechucalco 2da. Sección (Las Cruces)"],"latitude":"18.12694","longitude":"-93.19056","feature_class":"P","feature_code":"PPL","country_code":"MX","cc2":"","admin1_code":"27","admin2_code":"006","admin3_code":"","admin4_code":"","population":"1180","elevation":"","dem":"16","timezone":"America/Mexico_City","modification_date":"2014-04-11"},{"geonameid":"8859551","name":"El Escribano","asciiname":"El Escribano","alternatenames":["El Escribano"],"latitude":"18.41028","longitude":"-93.22167","feature_class":"P","feature_code":"PPL","country_code":"MX","cc2":"","admin1_code":"27","admin2_code":"014","admin3_code":"","admin4_code":"","population":"1162","elevation":"","dem":"5","timezone":"America/Mexico_City","modification_date":"2014-04-11"},{"geonameid":"8859560","name":"Arena 6ta. Sección (La Bolsa)","asciiname":"Arena 6ta. Seccion (La Bolsa)","alternatenames":["Arena 6ta. Seccion (La Bolsa)","Arena 6ta. Sección (La Bolsa)"],"latitude":"18.16218","longitude":"-93.39539","feature_class":"P","feature_code":"PPL","country_code":"MX","cc2":"","admin1_code":"27","admin2_code":"005","admin3_code":"","admin4_code":"","population":"1158","elevation":"","dem":"13","timezone":"America/Mexico_City","modification_date":"2014-04-11"},{"geonameid":"8859569","name":"Boquiapa","asciiname":"Boquiapa","alternatenames":["Boquiapa"],"latitude":"18.16111","longitude":"-93.1375","feature_class":"P","feature_code":"PPL","country_code":"MX","cc2":"","admin1_code":"27","admin2_code":"010","admin3_code":"","admin4_code":"","population":"1156","elevation":"","dem":"15","timezone":"America/Mexico_City","modification_date":"2014-04-11"},{"geonameid":"8859585","name":"Río Seco 2da. Sección (Santiaguito)","asciiname":"Rio Seco 2da. Seccion (Santiaguito)","alternatenames":["Rio Seco 2da. Seccion (Santiaguito)","Río Seco 2da. Sección (Santiaguito)"],"latitude":"18.1375","longitude":"-93.27583","feature_class":"P","feature_code":"PPL","country_code":"MX","cc2":"","admin1_code":"27","admin2_code":"006","admin3_code":"","admin4_code":"","population":"1148","elevation":"","dem":"18","timezone":"America/Mexico_City","modification_date":"2014-04-11"},{"geonameid":"8859603","name":"Pechucalco","asciiname":"Pechucalco","alternatenames":["Pechucalco"],"latitude":"18.09361","longitude":"-93.16611","feature_class":"P","feature_code":"PPL","country_code":"MX","cc2":"","admin1_code":"27","admin2_code":"006","admin3_code":"","admin4_code":"","population":"1139","elevation":"","dem":"16","timezone":"America/Mexico_City","modification_date":"2014-04-11"},{"geonameid":"8859619","name":"San Simón","asciiname":"San Simon","alternatenames":["San Simon","San Simón"],"latitude":"18.23778","longitude":"-93.03417","feature_class":"P","feature_code":"PPL","country_code":"MX","cc2":"","admin1_code":"27","admin2_code":"013","admin3_code":"","admin4_code":"","population":"1131","elevation":"","dem":"4","timezone":"America/Mexico_City","modification_date":"2014-04-11"},{"geonameid":"8859633","name":"Betania","asciiname":"Betania","alternatenames":["Betania"],"latitude":"18.28003","longitude":"-93.32081","feature_class":"P","feature_code":"PPL","country_code":"MX","cc2":"","admin1_code":"27","admin2_code":"005","admin3_code":"","admin4_code":"","population":"1125","elevation":"","dem":"12","timezone":"America/Mexico_City","modification_date":"2014-04-11"},{"geonameid":"8859641","name":"El Bajío","asciiname":"El Bajio","alternatenames":["El Bajio","El Bajío"],"latitude":"17.98173","longitude":"-92.78229","feature_class":"P","feature_code":"PPL","country_code":"MX","cc2":"","admin1_code":"27","admin2_code":"004","admin3_code":"","admin4_code":"","population":"1122","elevation":"","dem":"14","timezone":"America/Mexico_City","modification_date":"2014-04-11"},{"geonameid":"8859671","name":"El Bellote (Miguel de la Madrid)","asciiname":"El Bellote (Miguel de la Madrid)","alternatenames":["El Bellote (Miguel de la Madrid)"],"latitude":"18.42528","longitude":"-93.15083","feature_class":"P","feature_code":"PPL","country_code":"MX","cc2":"","admin1_code":"27","admin2_code":"014","admin3_code":"","admin4_code":"","population":"1113","elevation":"","dem":"1","timezone":"America/Merida","modification_date":"2014-04-11"},{"geonameid":"8859685","name":"Gregorio Méndez","asciiname":"Gregorio Mendez","alternatenames":["Gregorio Mendez","Gregorio Méndez"],"latitude":"18.19639","longitude":"-93.10222","feature_class":"P","feature_code":"PPL","country_code":"MX","cc2":"","admin1_code":"27","admin2_code":"010","admin3_code":"","admin4_code":"","population":"1105","elevation":"","dem":"13","timezone":"America/Mexico_City","modification_date":"2014-04-11"},{"geonameid":"8859704","name":"Los Sauces","asciiname":"Los Sauces","alternatenames":["Los Sauces"],"latitude":"18.03335","longitude":"-92.91693","feature_class":"P","feature_code":"PPL","country_code":"MX","cc2":"","admin1_code":"27","admin2_code":"004","admin3_code":"","admin4_code":"","population":"1097","elevation":"","dem":"8","timezone":"America/Mexico_City","modification_date":"2014-04-11"},{"geonameid":"8859708","name":"Barrancas y Amate 3ra. Sección","asciiname":"Barrancas y Amate 3ra. Seccion","alternatenames":["Barrancas y Amate 3ra. Seccion","Barrancas y Amate 3ra. Sección"],"latitude":"17.971","longitude":"-92.76173","feature_class":"P","feature_code":"PPL","country_code":"MX","cc2":"","admin1_code":"27","admin2_code":"004","admin3_code":"","admin4_code":"","population":"1095","elevation":"","dem":"19","timezone":"America/Mexico_City","modification_date":"2014-04-11"},{"geonameid":"8859752","name":"Sargento López 2da. Sección (El Chuzo)","asciiname":"Sargento Lopez 2da. Seccion (El Chuzo)","alternatenames":["Sargento Lopez 2da. Seccion (El Chuzo)","Sargento López 2da. Sección (El Chuzo)"],"latitude":"18.19953","longitude":"-93.29235","feature_class":"P","feature_code":"PPL","country_code":"MX","cc2":"","admin1_code":"27","admin2_code":"005","admin3_code":"","admin4_code":"","population":"1076","elevation":"","dem":"14","timezone":"America/Mexico_City","modification_date":"2014-04-11"},{"geonameid":"8859798","name":"Álvaro Obregón 2da. Sección (El Lechugal)","asciiname":"Alvaro Obregon 2da. Seccion (El Lechugal)","alternatenames":["Alvaro Obregon 2da. Seccion (El Lechugal)","Álvaro Obregón 2da. Sección (El Lechugal)"],"latitude":"18.39167","longitude":"-92.78806","feature_class":"P","feature_code":"PPL","country_code":"MX","cc2":"","admin1_code":"27","admin2_code":"003","admin3_code":"","admin4_code":"","population":"1059","elevation":"","dem":"4","timezone":"America/Mexico_City","modification_date":"2014-04-11"},{"geonameid":"8859814","name":"Ignacio Zaragoza 1ra. Sección","asciiname":"Ignacio Zaragoza 1ra. Seccion","alternatenames":["Ignacio Zaragoza 1ra. Seccion","Ignacio Zaragoza 1ra. Sección"],"latitude":"18.33157","longitude":"-93.33508","feature_class":"P","feature_code":"PPL","country_code":"MX","cc2":"","admin1_code":"27","admin2_code":"005","admin3_code":"","admin4_code":"","population":"1052","elevation":"","dem":"8","timezone":"America/Mexico_City","modification_date":"2014-04-11"},{"geonameid":"8859821","name":"General Luis Felipe Domínguez Suárez","asciiname":"General Luis Felipe Dominguez Suarez","alternatenames":["General Luis Felipe Dominguez Suarez","General Luis Felipe Domínguez Suárez"],"latitude":"17.65639","longitude":"-91.53667","feature_class":"P","feature_code":"PPL","country_code":"MX","cc2":"","admin1_code":"27","admin2_code":"001","admin3_code":"","admin4_code":"","population":"1049","elevation":"","dem":"29","timezone":"America/Mexico_City","modification_date":"2014-04-11"},{"geonameid":"8859878","name":"El Dorado","asciiname":"El Dorado","alternatenames":["El Dorado"],"latitude":"17.88323","longitude":"-93.36788","feature_class":"P","feature_code":"PPL","country_code":"MX","cc2":"","admin1_code":"27","admin2_code":"008","admin3_code":"","admin4_code":"","population":"1025","elevation":"","dem":"33","timezone":"America/Mexico_City","modification_date":"2014-04-11"},{"geonameid":"8859886","name":"José Colomo","asciiname":"Jose Colomo","alternatenames":["Jose Colomo","José Colomo"],"latitude":"17.94691","longitude":"-92.46659","feature_class":"P","feature_code":"PPL","country_code":"MX","cc2":"","admin1_code":"27","admin2_code":"012","admin3_code":"","admin4_code":"","population":"1021","elevation":"","dem":"4","timezone":"America/Mexico_City","modification_date":"2014-04-11"},{"geonameid":"8859920","name":"Caobanal 1ra. Sección (Mezcalapa)","asciiname":"Caobanal 1ra. Seccion (Mezcalapa)","alternatenames":["Caobanal 1ra. Seccion (Mezcalapa)","Caobanal 1ra. Sección (Mezcalapa)"],"latitude":"17.64858","longitude":"-93.39464","feature_class":"P","feature_code":"PPL","country_code":"MX","cc2":"","admin1_code":"27","admin2_code":"008","admin3_code":"","admin4_code":"","population":"1009","elevation":"","dem":"44","timezone":"America/Mexico_City","modification_date":"2014-04-11"}]}