{"region_data":{"countryId":"3996063","adminCode1":"31","countryName":"Mexico","fclName":"country, state, region,...","countryCode":"MX","lng":"-88.83333","fcodeName":"first-order administrative division","toponymName":"Estado de Yucatán","fcl":"A","numberOfChildren":106,"name":"Yucatán","fcode":"ADM1","geonameId":3514211,"lat":"20.75","adminName1":"Yucatán","population":1761761},"country_data":{"ISO":"MX","ISO3":"MEX","ISO_Numeric":"484","fips":"MX","country":"Mexico","capital":"Mexico City","area":"1972550","Population":"112468855","Continent":"NA","tld":".mx","CurrencyCode":"MXN","CurrencyName":"Peso","Phone":"52","Postal_Code_Format":"#####","Postal_Code_Regex":"^(\\d{5})$","Languages":"es-MX","geonameid":"3996063","neighbours":"GT,US,BZ","EquivalentFipsCode":""},"cities":[{"geonameid":"3514286","name":"Yaxkukul","asciiname":"Yaxkukul","alternatenames":["Yaxkukul"],"latitude":"21.06139","longitude":"-89.41932","feature_class":"P","feature_code":"PPLA2","country_code":"MX","cc2":"","admin1_code":"31","admin2_code":"105","admin3_code":"","admin4_code":"","population":"0","elevation":"","dem":"16","timezone":"America/Merida","modification_date":"2015-06-22"},{"geonameid":"3514316","name":"Yaxcabá","asciiname":"Yaxcaba","alternatenames":["San Pedro Yaxcaba","Yaxcaba","Yaxcabá"],"latitude":"20.54846","longitude":"-88.82714","feature_class":"P","feature_code":"PPLA2","country_code":"MX","cc2":"","admin1_code":"31","admin2_code":"104","admin3_code":"","admin4_code":"","population":"0","elevation":"","dem":"27","timezone":"America/Merida","modification_date":"2015-06-22"},{"geonameid":"3514876","name":"Valladolid","asciiname":"Valladolid","alternatenames":["Val'jadolid","Valadoli","Valadolid","Vaładołì","ba li ya duo li de","Вальядолид","Вальядолід","Ваљадолид","巴利亚多利德"],"latitude":"20.68812","longitude":"-88.19936","feature_class":"P","feature_code":"PPL","country_code":"MX","cc2":"","admin1_code":"31","admin2_code":"102","admin3_code":"","admin4_code":"","population":"39663","elevation":"","dem":"24","timezone":"America/Merida","modification_date":"2015-06-22"},{"geonameid":"3514929","name":"Uman","asciiname":"Uman","alternatenames":["San Antonio Tedzidz","Uman","Uman'","Умань"],"latitude":"20.88213","longitude":"-89.74649","feature_class":"P","feature_code":"PPL","country_code":"MX","cc2":"","admin1_code":"31","admin2_code":"101","admin3_code":"","admin4_code":"","population":"28472","elevation":"","dem":"10","timezone":"America/Merida","modification_date":"2015-06-22"},{"geonameid":"3514948","name":"Ucú","asciiname":"Ucu","alternatenames":["Ucu","Ucú"],"latitude":"21.03135","longitude":"-89.74466","feature_class":"P","feature_code":"PPLA2","country_code":"MX","cc2":"","admin1_code":"31","admin2_code":"100","admin3_code":"","admin4_code":"","population":"0","elevation":"","dem":"9","timezone":"America/Merida","modification_date":"2015-06-22"},{"geonameid":"3514952","name":"Uayma","asciiname":"Uayma","alternatenames":["Uayma","Uaymá"],"latitude":"20.71781","longitude":"-88.31693","feature_class":"P","feature_code":"PPL","country_code":"MX","cc2":"","admin1_code":"31","admin2_code":"099","admin3_code":"","admin4_code":"","population":"3126","elevation":"","dem":"26","timezone":"America/Merida","modification_date":"2014-06-05"},{"geonameid":"3514961","name":"Tzucacab","asciiname":"Tzucacab","alternatenames":["Tzucacab","Tzucaceb"],"latitude":"20.07237","longitude":"-89.05022","feature_class":"P","feature_code":"PPL","country_code":"MX","cc2":"","admin1_code":"31","admin2_code":"098","admin3_code":"","admin4_code":"","population":"9819","elevation":"","dem":"37","timezone":"America/Merida","modification_date":"2015-06-22"},{"geonameid":"3515026","name":"Tunkas","asciiname":"Tunkas","alternatenames":["Tunkas","Tunkás"],"latitude":"20.90294","longitude":"-88.75171","feature_class":"P","feature_code":"PPL","country_code":"MX","cc2":"","admin1_code":"31","admin2_code":"097","admin3_code":"","admin4_code":"","population":"3070","elevation":"","dem":"18","timezone":"America/Merida","modification_date":"2015-06-22"},{"geonameid":"3515504","name":"Tizimín","asciiname":"Tizimin","alternatenames":["TZM","Tisimin","Titzimin","Tizimin","Tizimín","Тисимин"],"latitude":"21.14284","longitude":"-88.15119","feature_class":"P","feature_code":"PPL","country_code":"MX","cc2":"","admin1_code":"31","admin2_code":"096","admin3_code":"","admin4_code":"","population":"41993","elevation":"","dem":"21","timezone":"America/Merida","modification_date":"2014-02-02"},{"geonameid":"3515512","name":"Tixpehual","asciiname":"Tixpehual","alternatenames":["Tixpehual","Tixpeual","Tixpheual","Tixpéual"],"latitude":"20.97739","longitude":"-89.44203","feature_class":"P","feature_code":"PPLA2","country_code":"MX","cc2":"","admin1_code":"31","admin2_code":"095","admin3_code":"","admin4_code":"","population":"3334","elevation":"","dem":"14","timezone":"America/Merida","modification_date":"2015-06-22"},{"geonameid":"3515521","name":"Tixkokob","asciiname":"Tixkokob","alternatenames":["Tixkokob"],"latitude":"21.0022","longitude":"-89.39484","feature_class":"P","feature_code":"PPL","country_code":"MX","cc2":"","admin1_code":"31","admin2_code":"093","admin3_code":"","admin4_code":"","population":"10228","elevation":"","dem":"13","timezone":"America/Merida","modification_date":"2015-06-22"},{"geonameid":"3515527","name":"Tixcacaltuyub","asciiname":"Tixcacaltuyub","alternatenames":["Tixcacaltuyu","Tixcacaltuyub","Tixcacaltuyú"],"latitude":"20.49316","longitude":"-88.91637","feature_class":"P","feature_code":"PPL","country_code":"MX","cc2":"","admin1_code":"31","admin2_code":"104","admin3_code":"","admin4_code":"","population":"2146","elevation":"","dem":"24","timezone":"America/Merida","modification_date":"2014-06-05"},{"geonameid":"3515544","name":"Tinum","asciiname":"Tinum","alternatenames":["Tinum","Tinun","Tinún"],"latitude":"20.76779","longitude":"-88.39164","feature_class":"P","feature_code":"PPLA2","country_code":"MX","cc2":"","admin1_code":"31","admin2_code":"091","admin3_code":"","admin4_code":"","population":"0","elevation":"","dem":"29","timezone":"America/Merida","modification_date":"2015-06-22"},{"geonameid":"3515567","name":"Timucuy","asciiname":"Timucuy","alternatenames":["Timucay","Timucuy","Tixmucuy"],"latitude":"20.81023","longitude":"-89.51383","feature_class":"P","feature_code":"PPLA2","country_code":"MX","cc2":"","admin1_code":"31","admin2_code":"090","admin3_code":"","admin4_code":"","population":"3532","elevation":"","dem":"16","timezone":"America/Merida","modification_date":"2015-06-22"},{"geonameid":"3515601","name":"Tikuch","asciiname":"Tikuch","alternatenames":["Ticuch","Tikuch"],"latitude":"20.70301","longitude":"-88.11272","feature_class":"P","feature_code":"PPL","country_code":"MX","cc2":"","admin1_code":"31","admin2_code":"102","admin3_code":"","admin4_code":"","population":"1336","elevation":"","dem":"21","timezone":"America/Merida","modification_date":"2014-06-05"},{"geonameid":"3515604","name":"Tiholop","asciiname":"Tiholop","alternatenames":["Tiholop"],"latitude":"20.33234","longitude":"-88.68958","feature_class":"P","feature_code":"PPL","country_code":"MX","cc2":"","admin1_code":"31","admin2_code":"104","admin3_code":"","admin4_code":"","population":"1463","elevation":"","dem":"30","timezone":"America/Merida","modification_date":"2014-06-05"},{"geonameid":"3515665","name":"Ticul","asciiname":"Ticul","alternatenames":["Ticul"],"latitude":"20.39833","longitude":"-89.53541","feature_class":"P","feature_code":"PPL","country_code":"MX","cc2":"","admin1_code":"31","admin2_code":"089","admin3_code":"","admin4_code":"","population":"30282","elevation":"","dem":"30","timezone":"America/Merida","modification_date":"2015-06-22"},{"geonameid":"3515744","name":"Tetiz","asciiname":"Tetiz","alternatenames":["Tetiz"],"latitude":"20.96316","longitude":"-89.93384","feature_class":"P","feature_code":"PPL","country_code":"MX","cc2":"","admin1_code":"31","admin2_code":"087","admin3_code":"","admin4_code":"","population":"3774","elevation":"","dem":"2","timezone":"America/Merida","modification_date":"2015-06-22"},{"geonameid":"3515769","name":"Tesoco","asciiname":"Tesoco","alternatenames":["Tesoco"],"latitude":"20.72259","longitude":"-88.15456","feature_class":"P","feature_code":"PPL","country_code":"MX","cc2":"","admin1_code":"31","admin2_code":"102","admin3_code":"","admin4_code":"","population":"1362","elevation":"","dem":"24","timezone":"America/Merida","modification_date":"2014-06-05"},{"geonameid":"3515924","name":"Tepakan","asciiname":"Tepakan","alternatenames":["Tepacan","Tepakan","Tepakán","Tepekan"],"latitude":"21.04882","longitude":"-89.03873","feature_class":"P","feature_code":"PPL","country_code":"MX","cc2":"","admin1_code":"31","admin2_code":"086","admin3_code":"","admin4_code":"","population":"2064","elevation":"","dem":"13","timezone":"America/Merida","modification_date":"2014-06-05"},{"geonameid":"3516022","name":"Temozon","asciiname":"Temozon","alternatenames":["Temozon","Temozón"],"latitude":"20.80393","longitude":"-88.20155","feature_class":"P","feature_code":"PPL","country_code":"MX","cc2":"","admin1_code":"31","admin2_code":"085","admin3_code":"","admin4_code":"","population":"5441","elevation":"","dem":"23","timezone":"America/Merida","modification_date":"2015-06-22"},{"geonameid":"3516048","name":"Temax","asciiname":"Temax","alternatenames":[""],"latitude":"21.15105","longitude":"-88.94039","feature_class":"P","feature_code":"PPL","country_code":"MX","cc2":"","admin1_code":"31","admin2_code":"084","admin3_code":"","admin4_code":"","population":"6125","elevation":"","dem":"13","timezone":"America/Merida","modification_date":"2015-06-22"},{"geonameid":"3516065","name":"Telchac Puerto","asciiname":"Telchac Puerto","alternatenames":["Telchac","Telchac Puerto"],"latitude":"21.34121","longitude":"-89.26333","feature_class":"P","feature_code":"PPLA2","country_code":"MX","cc2":"","admin1_code":"31","admin2_code":"083","admin3_code":"","admin4_code":"","population":"0","elevation":"","dem":"4","timezone":"America/Merida","modification_date":"2015-06-22"},{"geonameid":"3516066","name":"Telchac Pueblo","asciiname":"Telchac Pueblo","alternatenames":["Telchac","Telchac Pueblo"],"latitude":"21.20312","longitude":"-89.26945","feature_class":"P","feature_code":"PPL","country_code":"MX","cc2":"","admin1_code":"31","admin2_code":"082","admin3_code":"","admin4_code":"","population":"3464","elevation":"","dem":"9","timezone":"America/Merida","modification_date":"2015-06-22"},{"geonameid":"3516072","name":"Tekit","asciiname":"Tekit","alternatenames":["Tekit"],"latitude":"20.53465","longitude":"-89.33315","feature_class":"P","feature_code":"PPL","country_code":"MX","cc2":"","admin1_code":"31","admin2_code":"080","admin3_code":"","admin4_code":"","population":"8852","elevation":"","dem":"25","timezone":"America/Merida","modification_date":"2015-06-22"},{"geonameid":"3516076","name":"Tecax","asciiname":"Tecax","alternatenames":["Ciudad Obregon","Ciudad Obregón","Obregon","Tecax","Tekax","Tekax de Alvaro Obregon","Tekax de Álvaro Obregón"],"latitude":"20.2052","longitude":"-89.28522","feature_class":"P","feature_code":"PPL","country_code":"MX","cc2":"","admin1_code":"31","admin2_code":"079","admin3_code":"","admin4_code":"","population":"22806","elevation":"","dem":"37","timezone":"America/Merida","modification_date":"2015-06-22"},{"geonameid":"3516078","name":"Tekanto","asciiname":"Tekanto","alternatenames":["Tekanto"],"latitude":"21.00968","longitude":"-89.10723","feature_class":"P","feature_code":"PPL","country_code":"MX","cc2":"","admin1_code":"31","admin2_code":"078","admin3_code":"","admin4_code":"","population":"3425","elevation":"","dem":"15","timezone":"America/Merida","modification_date":"2015-06-22"},{"geonameid":"3516168","name":"Tekoh","asciiname":"Tekoh","alternatenames":["Tecoh"],"latitude":"20.74361","longitude":"-89.47406","feature_class":"P","feature_code":"PPL","country_code":"MX","cc2":"","admin1_code":"31","admin2_code":"076","admin3_code":"","admin4_code":"","population":"8700","elevation":"","dem":"18","timezone":"America/Merida","modification_date":"2015-06-22"},{"geonameid":"3516212","name":"Teabo","asciiname":"Teabo","alternatenames":["Teabo"],"latitude":"20.40059","longitude":"-89.28316","feature_class":"P","feature_code":"PPL","country_code":"MX","cc2":"","admin1_code":"31","admin2_code":"075","admin3_code":"","admin4_code":"","population":"5040","elevation":"","dem":"22","timezone":"America/Merida","modification_date":"2015-06-22"},{"geonameid":"3516425","name":"Tahmek","asciiname":"Tahmek","alternatenames":["Tahmec","Tahmek"],"latitude":"20.8736","longitude":"-89.25473","feature_class":"P","feature_code":"PPL","country_code":"MX","cc2":"","admin1_code":"31","admin2_code":"074","admin3_code":"","admin4_code":"","population":"3596","elevation":"","dem":"15","timezone":"America/Merida","modification_date":"2015-06-22"},{"geonameid":"3516488","name":"Sucila","asciiname":"Sucila","alternatenames":[""],"latitude":"21.15642","longitude":"-88.3135","feature_class":"P","feature_code":"PPL","country_code":"MX","cc2":"","admin1_code":"31","admin2_code":"070","admin3_code":"","admin4_code":"","population":"3910","elevation":"","dem":"17","timezone":"America/Merida","modification_date":"2015-06-22"},{"geonameid":"3516515","name":"Sotuta","asciiname":"Sotuta","alternatenames":["Sotuta","Zotuta"],"latitude":"20.59678","longitude":"-89.00815","feature_class":"P","feature_code":"PPLA2","country_code":"MX","cc2":"","admin1_code":"31","admin2_code":"069","admin3_code":"","admin4_code":"","population":"5291","elevation":"","dem":"19","timezone":"America/Merida","modification_date":"2015-06-22"},{"geonameid":"3516635","name":"Sisal","asciiname":"Sisal","alternatenames":["Sisal","Sisal Puerto"],"latitude":"21.167","longitude":"-90.02532","feature_class":"P","feature_code":"PPL","country_code":"MX","cc2":"","admin1_code":"31","admin2_code":"038","admin3_code":"","admin4_code":"","population":"1837","elevation":"","dem":"5","timezone":"America/Merida","modification_date":"2014-10-08"},{"geonameid":"3516668","name":"Sierra Papacal","asciiname":"Sierra Papacal","alternatenames":["Papacal","Sierra","Sierra Papacal"],"latitude":"21.12522","longitude":"-89.73018","feature_class":"P","feature_code":"PPL","country_code":"MX","cc2":"","admin1_code":"31","admin2_code":"050","admin3_code":"","admin4_code":"","population":"1108","elevation":"","dem":"7","timezone":"America/Merida","modification_date":"2014-12-03"},{"geonameid":"3516683","name":"Seyé","asciiname":"Seye","alternatenames":["Seve","Seye","Seyé"],"latitude":"20.83568","longitude":"-89.37174","feature_class":"P","feature_code":"PPLA2","country_code":"MX","cc2":"","admin1_code":"31","admin2_code":"067","admin3_code":"","admin4_code":"","population":"7834","elevation":"","dem":"19","timezone":"America/Merida","modification_date":"2015-06-22"},{"geonameid":"3517295","name":"Santa María Acú","asciiname":"Santa Maria Acu","alternatenames":["Acu","Acú","Santa Maria Acu","Santa María Acú"],"latitude":"20.54644","longitude":"-90.16365","feature_class":"P","feature_code":"PPL","country_code":"MX","cc2":"","admin1_code":"31","admin2_code":"033","admin3_code":"","admin4_code":"","population":"1437","elevation":"","dem":"10","timezone":"America/Merida","modification_date":"2014-06-05"},{"geonameid":"3517498","name":"Santa Elena","asciiname":"Santa Elena","alternatenames":["Santa Elena"],"latitude":"20.3289","longitude":"-89.64363","feature_class":"P","feature_code":"PPL","country_code":"MX","cc2":"","admin1_code":"31","admin2_code":"066","admin3_code":"","admin4_code":"","population":"3335","elevation":"","dem":"44","timezone":"America/Merida","modification_date":"2015-06-22"},{"geonameid":"3520098","name":"Sahcaba","asciiname":"Sahcaba","alternatenames":["Sahacaba","Sahcaba","Sahcabac","Sahcabá"],"latitude":"20.79174","longitude":"-89.18138","feature_class":"P","feature_code":"PPL","country_code":"MX","cc2":"","admin1_code":"31","admin2_code":"034","admin3_code":"","admin4_code":"","population":"1922","elevation":"","dem":"15","timezone":"America/Merida","modification_date":"2014-06-05"},{"geonameid":"3520120","name":"Sacalum","asciiname":"Sacalum","alternatenames":["Sacalom","Sacalum","Sakalun"],"latitude":"20.49749","longitude":"-89.59035","feature_class":"P","feature_code":"PPL","country_code":"MX","cc2":"","admin1_code":"31","admin2_code":"062","admin3_code":"","admin4_code":"","population":"3214","elevation":"","dem":"18","timezone":"America/Merida","modification_date":"2015-06-22"},{"geonameid":"3520249","name":"Río Lagartos","asciiname":"Rio Lagartos","alternatenames":["Rio Lagartos","Rio-Lagartos","Río Lagartos","Рио-Лагартос"],"latitude":"21.5967","longitude":"-88.15773","feature_class":"P","feature_code":"PPL","country_code":"MX","cc2":"","admin1_code":"31","admin2_code":"061","admin3_code":"","admin4_code":"","population":"3000","elevation":"","dem":"3","timezone":"America/Merida","modification_date":"2015-06-22"},{"geonameid":"3520889","name":"Quintana Roo","asciiname":"Quintana Roo","alternatenames":["Kintana-Roo","Quintana","Quintana Roo","Кинтана-Роо"],"latitude":"20.86946","longitude":"-88.63153","feature_class":"P","feature_code":"PPLA2","country_code":"MX","cc2":"","admin1_code":"31","admin2_code":"060","admin3_code":"","admin4_code":"","population":"0","elevation":"","dem":"17","timezone":"America/Merida","modification_date":"2015-06-22"},{"geonameid":"3521108","name":"Progreso de Castro","asciiname":"Progreso de Castro","alternatenames":["Progreso","Progreso de Castro","purogureso","Прогресо","プログレソ"],"latitude":"21.28546","longitude":"-89.64744","feature_class":"P","feature_code":"PPLA2","country_code":"MX","cc2":"","admin1_code":"31","admin2_code":"059","admin3_code":"","admin4_code":"","population":"47124","elevation":"","dem":"2","timezone":"America/Merida","modification_date":"2015-06-22"},{"geonameid":"3521411","name":"Piste","asciiname":"Piste","alternatenames":["Piste","Pisté","Ppiste"],"latitude":"20.69972","longitude":"-88.58889","feature_class":"P","feature_code":"PPL","country_code":"MX","cc2":"","admin1_code":"31","admin2_code":"091","admin3_code":"","admin4_code":"","population":"4674","elevation":"","dem":"25","timezone":"America/Merida","modification_date":"2015-06-22"},{"geonameid":"3521596","name":"Peto","asciiname":"Peto","alternatenames":["Peto"],"latitude":"20.12776","longitude":"-88.92282","feature_class":"P","feature_code":"PPL","country_code":"MX","cc2":"","admin1_code":"31","admin2_code":"058","admin3_code":"","admin4_code":"","population":"17607","elevation":"","dem":"39","timezone":"America/Merida","modification_date":"2015-06-22"},{"geonameid":"3521972","name":"Panabá","asciiname":"Panaba","alternatenames":["Panaba","Panabá"],"latitude":"21.29598","longitude":"-88.26982","feature_class":"P","feature_code":"PPLA2","country_code":"MX","cc2":"","admin1_code":"31","admin2_code":"057","admin3_code":"","admin4_code":"","population":"5723","elevation":"","dem":"21","timezone":"America/Merida","modification_date":"2015-06-22"},{"geonameid":"3522251","name":"Oxkutzkab","asciiname":"Oxkutzkab","alternatenames":["Oxkutzcab","Oxkutzkab"],"latitude":"20.30734","longitude":"-89.41809","feature_class":"P","feature_code":"PPL","country_code":"MX","cc2":"","admin1_code":"31","admin2_code":"056","admin3_code":"","admin4_code":"","population":"21508","elevation":"","dem":"23","timezone":"America/Merida","modification_date":"2015-06-22"},{"geonameid":"3522328","name":"Opichen","asciiname":"Opichen","alternatenames":["Opichen"],"latitude":"20.55169","longitude":"-89.85714","feature_class":"P","feature_code":"PPL","country_code":"MX","cc2":"","admin1_code":"31","admin2_code":"055","admin3_code":"","admin4_code":"","population":"4265","elevation":"","dem":"19","timezone":"America/Merida","modification_date":"2015-06-22"},{"geonameid":"3522886","name":"Muna","asciiname":"Muna","alternatenames":["Muna"],"latitude":"20.48794","longitude":"-89.71387","feature_class":"P","feature_code":"PPL","country_code":"MX","cc2":"","admin1_code":"31","admin2_code":"053","admin3_code":"","admin4_code":"","population":"11363","elevation":"","dem":"25","timezone":"America/Merida","modification_date":"2015-06-22"},{"geonameid":"3522924","name":"Motul","asciiname":"Motul","alternatenames":["Motul","Motul de Carrillo Puerto","Motul de Felipe Carrillo Puerto","Motul'","Мотуль"],"latitude":"21.09571","longitude":"-89.28332","feature_class":"P","feature_code":"PPL","country_code":"MX","cc2":"","admin1_code":"31","admin2_code":"052","admin3_code":"","admin4_code":"","population":"21109","elevation":"","dem":"15","timezone":"America/Merida","modification_date":"2015-06-22"},{"geonameid":"3523112","name":"Mococha","asciiname":"Mococha","alternatenames":["Mococha"],"latitude":"21.10621","longitude":"-89.45217","feature_class":"P","feature_code":"PPLA2","country_code":"MX","cc2":"","admin1_code":"31","admin2_code":"051","admin3_code":"","admin4_code":"","population":"0","elevation":"","dem":"11","timezone":"America/Merida","modification_date":"2015-06-22"},{"geonameid":"3523349","name":"Mérida","asciiname":"Merida","alternatenames":["Ciudad de Merida","Ciudad de Mérida","Emerita","Gorad Meryda","MID","Merida","Merida i Yucatan","Mérida","Mérida i Yucatán","mardt","mei li da","melida","merida","mryda  ywkatan","Μέριδα","Горад Мерыда","Мерида","Меріда","ماردة","مریدا، یوکاتان","მერიდა","メリダ","梅里达","梅里達","메리다"],"latitude":"20.97537","longitude":"-89.61696","feature_class":"P","feature_code":"PPLA","country_code":"MX","cc2":"","admin1_code":"31","admin2_code":"050","admin3_code":"","admin4_code":"","population":"717175","elevation":"","dem":"14","timezone":"America/Merida","modification_date":"2015-06-22"},{"geonameid":"3523436","name":"Maxcanú","asciiname":"Maxcanu","alternatenames":["Maxcanu","Maxcanú"],"latitude":"20.58456","longitude":"-90.001","feature_class":"P","feature_code":"PPLA2","country_code":"MX","cc2":"","admin1_code":"31","admin2_code":"048","admin3_code":"","admin4_code":"","population":"11930","elevation":"","dem":"14","timezone":"America/Merida","modification_date":"2015-06-22"},{"geonameid":"3523619","name":"Mani","asciiname":"Mani","alternatenames":["Mani"],"latitude":"20.38774","longitude":"-89.39189","feature_class":"P","feature_code":"PPL","country_code":"MX","cc2":"","admin1_code":"31","admin2_code":"047","admin3_code":"","admin4_code":"","population":"3978","elevation":"","dem":"32","timezone":"America/Merida","modification_date":"2015-06-22"},{"geonameid":"3523663","name":"Mama","asciiname":"Mama","alternatenames":["Mama","Mamá"],"latitude":"20.47857","longitude":"-89.36498","feature_class":"P","feature_code":"PPL","country_code":"MX","cc2":"","admin1_code":"31","admin2_code":"046","admin3_code":"","admin4_code":"","population":"2823","elevation":"","dem":"23","timezone":"America/Merida","modification_date":"2015-06-22"},{"geonameid":"3524279","name":"Loché","asciiname":"Loche","alternatenames":["Loche","Loché"],"latitude":"21.38828","longitude":"-88.14566","feature_class":"P","feature_code":"PPL","country_code":"MX","cc2":"","admin1_code":"31","admin2_code":"057","admin3_code":"","admin4_code":"","population":"1237","elevation":"","dem":"13","timezone":"America/Merida","modification_date":"2014-06-05"},{"geonameid":"3526275","name":"Komchén","asciiname":"Komchen","alternatenames":["Komchen","Komchén"],"latitude":"21.10342","longitude":"-89.66242","feature_class":"P","feature_code":"PPL","country_code":"MX","cc2":"","admin1_code":"31","admin2_code":"050","admin3_code":"","admin4_code":"","population":"4259","elevation":"","dem":"9","timezone":"America/Merida","modification_date":"2014-06-05"},{"geonameid":"3526284","name":"Kinchil","asciiname":"Kinchil","alternatenames":["Kinchil"],"latitude":"20.91519","longitude":"-89.94825","feature_class":"P","feature_code":"PPL","country_code":"MX","cc2":"","admin1_code":"31","admin2_code":"044","admin3_code":"","admin4_code":"","population":"5634","elevation":"","dem":"7","timezone":"America/Merida","modification_date":"2015-06-22"},{"geonameid":"3526301","name":"Kantunil","asciiname":"Kantunil","alternatenames":["Kantunil"],"latitude":"20.79645","longitude":"-89.03539","feature_class":"P","feature_code":"PPL","country_code":"MX","cc2":"","admin1_code":"31","admin2_code":"042","admin3_code":"","admin4_code":"","population":"3491","elevation":"","dem":"18","timezone":"America/Merida","modification_date":"2014-06-05"},{"geonameid":"3526323","name":"Kanasín","asciiname":"Kanasin","alternatenames":["Kanacin","Kanacín","Kanasin","Kanasín","Kanazin"],"latitude":"20.93482","longitude":"-89.55871","feature_class":"P","feature_code":"PPLA2","country_code":"MX","cc2":"","admin1_code":"31","admin2_code":"041","admin3_code":"","admin4_code":"","population":"77240","elevation":"","dem":"12","timezone":"America/Merida","modification_date":"2014-06-05"},{"geonameid":"3526662","name":"Izamal","asciiname":"Izamal","alternatenames":["Izamal"],"latitude":"20.93537","longitude":"-89.01802","feature_class":"P","feature_code":"PPL","country_code":"MX","cc2":"","admin1_code":"31","admin2_code":"040","admin3_code":"","admin4_code":"","population":"14954","elevation":"","dem":"15","timezone":"America/Merida","modification_date":"2015-06-22"},{"geonameid":"3526711","name":"Ixil","asciiname":"Ixil","alternatenames":["Ixil"],"latitude":"21.15235","longitude":"-89.48182","feature_class":"P","feature_code":"PPLA2","country_code":"MX","cc2":"","admin1_code":"31","admin2_code":"039","admin3_code":"","admin4_code":"","population":"3728","elevation":"","dem":"7","timezone":"America/Merida","modification_date":"2014-06-05"},{"geonameid":"3526816","name":"Itzincab Palomeque","asciiname":"Itzincab Palomeque","alternatenames":["Idzincab","Itzincab","Itzincab Palomeque"],"latitude":"20.91644","longitude":"-89.69823","feature_class":"P","feature_code":"PPL","country_code":"MX","cc2":"","admin1_code":"31","admin2_code":"101","admin3_code":"","admin4_code":"","population":"5013","elevation":"","dem":"9","timezone":"America/Merida","modification_date":"2015-06-22"},{"geonameid":"3526838","name":"Hunucmá","asciiname":"Hunucma","alternatenames":["Hunucma","Hunucmá"],"latitude":"21.01723","longitude":"-89.87551","feature_class":"P","feature_code":"PPLA2","country_code":"MX","cc2":"","admin1_code":"31","admin2_code":"038","admin3_code":"","admin4_code":"","population":"22288","elevation":"","dem":"6","timezone":"America/Merida","modification_date":"2015-06-22"},{"geonameid":"3526924","name":"Huhi","asciiname":"Huhi","alternatenames":["Huhi","Huhí"],"latitude":"20.72603","longitude":"-89.16072","feature_class":"P","feature_code":"PPL","country_code":"MX","cc2":"","admin1_code":"31","admin2_code":"037","admin3_code":"","admin4_code":"","population":"4367","elevation":"","dem":"15","timezone":"America/Merida","modification_date":"2015-06-22"},{"geonameid":"3527080","name":"Homun","asciiname":"Homun","alternatenames":["Homun","Homún"],"latitude":"20.73918","longitude":"-89.2849","feature_class":"P","feature_code":"PPL","country_code":"MX","cc2":"","admin1_code":"31","admin2_code":"036","admin3_code":"","admin4_code":"","population":"5423","elevation":"","dem":"15","timezone":"America/Merida","modification_date":"2015-06-22"},{"geonameid":"3527092","name":"Hoctun","asciiname":"Hoctun","alternatenames":["Hoctun","Hoctún"],"latitude":"20.86513","longitude":"-89.20125","feature_class":"P","feature_code":"PPL","country_code":"MX","cc2":"","admin1_code":"31","admin2_code":"035","admin3_code":"","admin4_code":"","population":"4916","elevation":"","dem":"17","timezone":"America/Merida","modification_date":"2015-06-22"},{"geonameid":"3527094","name":"Hocaba","asciiname":"Hocaba","alternatenames":["Hocaba","Hocabá"],"latitude":"20.8162","longitude":"-89.24626","feature_class":"P","feature_code":"PPL","country_code":"MX","cc2":"","admin1_code":"31","admin2_code":"034","admin3_code":"","admin4_code":"","population":"3866","elevation":"","dem":"21","timezone":"America/Merida","modification_date":"2015-06-22"},{"geonameid":"3527164","name":"Halachó","asciiname":"Halacho","alternatenames":["Halacho","Halachó"],"latitude":"20.4777","longitude":"-90.08104","feature_class":"P","feature_code":"PPLA2","country_code":"MX","cc2":"","admin1_code":"31","admin2_code":"033","admin3_code":"","admin4_code":"","population":"9165","elevation":"","dem":"10","timezone":"America/Merida","modification_date":"2015-06-22"},{"geonameid":"3527720","name":"Espita","asciiname":"Espita","alternatenames":["Ehspita","Espita","Эспита"],"latitude":"21.0101","longitude":"-88.30686","feature_class":"P","feature_code":"PPL","country_code":"MX","cc2":"","admin1_code":"31","admin2_code":"032","admin3_code":"","admin4_code":"","population":"9960","elevation":"","dem":"26","timezone":"America/Merida","modification_date":"2015-06-22"},{"geonameid":"3529647","name":"Dzitnup","asciiname":"Dzitnup","alternatenames":["Dzitnup"],"latitude":"20.64725","longitude":"-88.24453","feature_class":"P","feature_code":"PPL","country_code":"MX","cc2":"","admin1_code":"31","admin2_code":"102","admin3_code":"","admin4_code":"","population":"1248","elevation":"","dem":"23","timezone":"America/Merida","modification_date":"2014-06-05"},{"geonameid":"3529652","name":"Dzitás","asciiname":"Dzitas","alternatenames":["Dzitas","Dzitás","Tzitas"],"latitude":"20.84089","longitude":"-88.52908","feature_class":"P","feature_code":"PPLA2","country_code":"MX","cc2":"","admin1_code":"31","admin2_code":"030","admin3_code":"","admin4_code":"","population":"2909","elevation":"","dem":"33","timezone":"America/Merida","modification_date":"2015-06-22"},{"geonameid":"3529654","name":"Dzilam González","asciiname":"Dzilam Gonzalez","alternatenames":["Dzilam","Dzilam Gonzalez","Dzilam González","Tzilam Gonzalez","Tzilam González"],"latitude":"21.28098","longitude":"-88.92957","feature_class":"P","feature_code":"PPLA2","country_code":"MX","cc2":"","admin1_code":"31","admin2_code":"029","admin3_code":"","admin4_code":"","population":"5941","elevation":"","dem":"6","timezone":"America/Merida","modification_date":"2015-06-22"},{"geonameid":"3529655","name":"Dzilam de Bravo","asciiname":"Dzilam de Bravo","alternatenames":["Dzilam","Dzilam de Bravo","Tzilam de Bravo"],"latitude":"21.39194","longitude":"-88.8941","feature_class":"P","feature_code":"PPLA2","country_code":"MX","cc2":"","admin1_code":"31","admin2_code":"028","admin3_code":"","admin4_code":"","population":"0","elevation":"","dem":"2","timezone":"America/Merida","modification_date":"2015-06-22"},{"geonameid":"3529660","name":"Dzidzantun","asciiname":"Dzidzantun","alternatenames":["Dzidzantum","Dzidzantun","Dzidzantún","Tzitzantun","Tzitzantún"],"latitude":"21.24898","longitude":"-89.04205","feature_class":"P","feature_code":"PPL","country_code":"MX","cc2":"","admin1_code":"31","admin2_code":"027","admin3_code":"","admin4_code":"","population":"8301","elevation":"","dem":"10","timezone":"America/Merida","modification_date":"2015-06-22"},{"geonameid":"3529669","name":"Dzemul","asciiname":"Dzemul","alternatenames":["Dzemul","Tzemul"],"latitude":"21.21036","longitude":"-89.30956","feature_class":"P","feature_code":"PPL","country_code":"MX","cc2":"","admin1_code":"31","admin2_code":"026","admin3_code":"","admin4_code":"","population":"3072","elevation":"","dem":"12","timezone":"America/Merida","modification_date":"2015-06-22"},{"geonameid":"3529672","name":"Dzan","asciiname":"Dzan","alternatenames":["Dzan"],"latitude":"20.38888","longitude":"-89.46855","feature_class":"P","feature_code":"PPL","country_code":"MX","cc2":"","admin1_code":"31","admin2_code":"025","admin3_code":"","admin4_code":"","population":"4532","elevation":"","dem":"31","timezone":"America/Merida","modification_date":"2015-06-22"},{"geonameid":"3529863","name":"Cuzama","asciiname":"Cuzama","alternatenames":["Cuzama","Cuzamá","Guzama"],"latitude":"20.74202","longitude":"-89.31732","feature_class":"P","feature_code":"PPL","country_code":"MX","cc2":"","admin1_code":"31","admin2_code":"015","admin3_code":"","admin4_code":"","population":"3459","elevation":"","dem":"16","timezone":"America/Merida","modification_date":"2015-06-22"},{"geonameid":"3530295","name":"Conkal","asciiname":"Conkal","alternatenames":["Conkal"],"latitude":"21.07365","longitude":"-89.51995","feature_class":"P","feature_code":"PPLA2","country_code":"MX","cc2":"","admin1_code":"31","admin2_code":"013","admin3_code":"","admin4_code":"","population":"6395","elevation":"","dem":"11","timezone":"America/Merida","modification_date":"2015-06-22"},{"geonameid":"3530718","name":"Chumayel","asciiname":"Chumayel","alternatenames":[""],"latitude":"20.42833","longitude":"-89.30111","feature_class":"P","feature_code":"PPLX","country_code":"MX","cc2":"","admin1_code":"31","admin2_code":"024","admin3_code":"","admin4_code":"","population":"3135","elevation":"","dem":"29","timezone":"America/Merida","modification_date":"2013-07-31"},{"geonameid":"3530759","name":"Cholul Cantón","asciiname":"Cholul Canton","alternatenames":["Cholul","Cholul Canton","Cholul Cantón"],"latitude":"21.01078","longitude":"-89.29147","feature_class":"P","feature_code":"PPL","country_code":"MX","cc2":"","admin1_code":"31","admin2_code":"007","admin3_code":"","admin4_code":"","population":"4716","elevation":"","dem":"14","timezone":"America/Merida","modification_date":"2015-06-22"},{"geonameid":"3530775","name":"Chochola","asciiname":"Chochola","alternatenames":["Chochola"],"latitude":"20.75087","longitude":"-89.83041","feature_class":"P","feature_code":"PPL","country_code":"MX","cc2":"","admin1_code":"31","admin2_code":"023","admin3_code":"","admin4_code":"","population":"4244","elevation":"","dem":"12","timezone":"America/Merida","modification_date":"2015-06-22"},{"geonameid":"3530898","name":"Chikindzonot","asciiname":"Chikindzonot","alternatenames":["Chicintzonot","Chikindzonot"],"latitude":"20.33436","longitude":"-88.4863","feature_class":"P","feature_code":"PPL","country_code":"MX","cc2":"","admin1_code":"31","admin2_code":"022","admin3_code":"","admin4_code":"","population":"2699","elevation":"","dem":"30","timezone":"America/Merida","modification_date":"2014-06-05"},{"geonameid":"3530916","name":"Chicxulub Pueblo","asciiname":"Chicxulub Pueblo","alternatenames":["Chicxulub","Chicxulub Pueblo","Pueblo Chicxulub"],"latitude":"21.13617","longitude":"-89.51625","feature_class":"P","feature_code":"PPLA2","country_code":"MX","cc2":"","admin1_code":"31","admin2_code":"020","admin3_code":"","admin4_code":"","population":"3613","elevation":"","dem":"8","timezone":"America/Merida","modification_date":"2015-06-22"},{"geonameid":"3530948","name":"Chichimila","asciiname":"Chichimila","alternatenames":["Chichimila","Chichimilá"],"latitude":"20.63176","longitude":"-88.21689","feature_class":"P","feature_code":"PPL","country_code":"MX","cc2":"","admin1_code":"31","admin2_code":"021","admin3_code":"","admin4_code":"","population":"4693","elevation":"","dem":"26","timezone":"America/Merida","modification_date":"2015-06-22"},{"geonameid":"3530978","name":"Chichén-Itzá","asciiname":"Chichen-Itza","alternatenames":["Chichen Itza","Chichen-Ica","Chichen-Itza","Chichén-Itzá","Чичен-Ица"],"latitude":"20.66667","longitude":"-88.56667","feature_class":"P","feature_code":"PPL","country_code":"MX","cc2":"","admin1_code":"31","admin2_code":"091","admin3_code":"","admin4_code":"","population":"18000","elevation":"","dem":"27","timezone":"America/Merida","modification_date":"2015-06-22"},{"geonameid":"3531042","name":"Chemax","asciiname":"Chemax","alternatenames":["Chemax"],"latitude":"20.65613","longitude":"-87.9364","feature_class":"P","feature_code":"PPL","country_code":"MX","cc2":"","admin1_code":"31","admin2_code":"019","admin3_code":"","admin4_code":"","population":"10596","elevation":"","dem":"21","timezone":"America/Merida","modification_date":"2015-06-22"},{"geonameid":"3531046","name":"Chelem","asciiname":"Chelem","alternatenames":["Chelem","Chelen"],"latitude":"21.26967","longitude":"-89.74006","feature_class":"P","feature_code":"PPL","country_code":"MX","cc2":"","admin1_code":"31","admin2_code":"059","admin3_code":"","admin4_code":"","population":"3509","elevation":"","dem":"2","timezone":"America/Merida","modification_date":"2014-12-03"},{"geonameid":"3531350","name":"Cepeda","asciiname":"Cepeda","alternatenames":["Cepeda"],"latitude":"20.506","longitude":"-90.10979","feature_class":"P","feature_code":"PPL","country_code":"MX","cc2":"","admin1_code":"31","admin2_code":"033","admin3_code":"","admin4_code":"","population":"3064","elevation":"","dem":"11","timezone":"America/Merida","modification_date":"2014-06-05"},{"geonameid":"3531362","name":"Cenotillo","asciiname":"Cenotillo","alternatenames":["Cenotillo"],"latitude":"20.96621","longitude":"-88.60438","feature_class":"P","feature_code":"PPLA2","country_code":"MX","cc2":"","admin1_code":"31","admin2_code":"012","admin3_code":"","admin4_code":"","population":"3176","elevation":"","dem":"24","timezone":"America/Merida","modification_date":"2015-06-22"},{"geonameid":"3531368","name":"Celestún","asciiname":"Celestun","alternatenames":["Celestun","Celestún"],"latitude":"20.85973","longitude":"-90.39902","feature_class":"P","feature_code":"PPLA2","country_code":"MX","cc2":"","admin1_code":"31","admin2_code":"011","admin3_code":"","admin4_code":"","population":"6401","elevation":"","dem":"4","timezone":"America/Merida","modification_date":"2015-06-22"},{"geonameid":"3531406","name":"Caucel","asciiname":"Caucel","alternatenames":["Caucel"],"latitude":"21.01539","longitude":"-89.70347","feature_class":"P","feature_code":"PPL","country_code":"MX","cc2":"","admin1_code":"31","admin2_code":"050","admin3_code":"","admin4_code":"","population":"6396","elevation":"","dem":"9","timezone":"America/Merida","modification_date":"2015-06-22"},{"geonameid":"3531632","name":"Cansahcab","asciiname":"Cansahcab","alternatenames":["Cansahcab"],"latitude":"21.15749","longitude":"-89.10131","feature_class":"P","feature_code":"PPL","country_code":"MX","cc2":"","admin1_code":"31","admin2_code":"009","admin3_code":"","admin4_code":"","population":"4582","elevation":"","dem":"10","timezone":"America/Merida","modification_date":"2015-06-22"},{"geonameid":"3531892","name":"Cacalchen","asciiname":"Cacalchen","alternatenames":["Cacalchen","Cacalchén"],"latitude":"20.98358","longitude":"-89.22686","feature_class":"P","feature_code":"PPL","country_code":"MX","cc2":"","admin1_code":"31","admin2_code":"007","admin3_code":"","admin4_code":"","population":"6671","elevation":"","dem":"14","timezone":"America/Merida","modification_date":"2015-06-22"},{"geonameid":"3532089","name":"Buctzotz","asciiname":"Buctzotz","alternatenames":["Buctzot","Buctzotz"],"latitude":"21.20303","longitude":"-88.79271","feature_class":"P","feature_code":"PPL","country_code":"MX","cc2":"","admin1_code":"31","admin2_code":"006","admin3_code":"","admin4_code":"","population":"7162","elevation":"","dem":"8","timezone":"America/Merida","modification_date":"2015-06-22"},{"geonameid":"3532467","name":"Baca","asciiname":"Baca","alternatenames":["Baca"],"latitude":"21.10874","longitude":"-89.39866","feature_class":"P","feature_code":"PPL","country_code":"MX","cc2":"","admin1_code":"31","admin2_code":"004","admin3_code":"","admin4_code":"","population":"4356","elevation":"","dem":"10","timezone":"America/Merida","modification_date":"2015-06-22"},{"geonameid":"3533117","name":"Akil","asciiname":"Akil","alternatenames":["Akil"],"latitude":"20.26547","longitude":"-89.34787","feature_class":"P","feature_code":"PPL","country_code":"MX","cc2":"","admin1_code":"31","admin2_code":"003","admin3_code":"","admin4_code":"","population":"9858","elevation":"","dem":"29","timezone":"America/Merida","modification_date":"2015-06-22"},{"geonameid":"3533472","name":"Acanceh","asciiname":"Acanceh","alternatenames":["Acanceh"],"latitude":"20.81269","longitude":"-89.45295","feature_class":"P","feature_code":"PPLA2","country_code":"MX","cc2":"","admin1_code":"31","admin2_code":"002","admin3_code":"","admin4_code":"","population":"9892","elevation":"","dem":"14","timezone":"America/Merida","modification_date":"2015-06-22"},{"geonameid":"3822358","name":"Sucilá","asciiname":"Sucila","alternatenames":[""],"latitude":"21.15444","longitude":"-88.31361","feature_class":"P","feature_code":"PPL","country_code":"MX","cc2":"","admin1_code":"31","admin2_code":"070","admin3_code":"","admin4_code":"","population":"3785","elevation":"","dem":"15","timezone":"America/Merida","modification_date":"2013-07-31"},{"geonameid":"3822557","name":"Tixhualactún","asciiname":"Tixhualactun","alternatenames":["Tixhualactun","Tixhualactún","Tixhualahtun","Tixhualahtún"],"latitude":"20.64403","longitude":"-88.14308","feature_class":"P","feature_code":"PPL","country_code":"MX","cc2":"","admin1_code":"31","admin2_code":"102","admin3_code":"","admin4_code":"","population":"1576","elevation":"","dem":"23","timezone":"America/Merida","modification_date":"2014-06-05"},{"geonameid":"3822580","name":"Kinil","asciiname":"Kinil","alternatenames":["Kinil"],"latitude":"20.32379","longitude":"-89.13285","feature_class":"P","feature_code":"PPL","country_code":"MX","cc2":"","admin1_code":"31","admin2_code":"079","admin3_code":"","admin4_code":"","population":"1127","elevation":"","dem":"22","timezone":"America/Merida","modification_date":"2014-06-05"},{"geonameid":"3822614","name":"Xul","asciiname":"Xul","alternatenames":[""],"latitude":"20.10222","longitude":"-89.46","feature_class":"P","feature_code":"PPL","country_code":"MX","cc2":"","admin1_code":"31","admin2_code":"056","admin3_code":"","admin4_code":"","population":"1110","elevation":"","dem":"95","timezone":"America/Merida","modification_date":"2014-04-11"},{"geonameid":"8858311","name":"Campestre Flamboyanes","asciiname":"Campestre Flamboyanes","alternatenames":["Campestre Flamboyanes"],"latitude":"21.21","longitude":"-89.65778","feature_class":"P","feature_code":"PPL","country_code":"MX","cc2":"","admin1_code":"31","admin2_code":"059","admin3_code":"","admin4_code":"","population":"4027","elevation":"","dem":"3","timezone":"America/Merida","modification_date":"2014-04-11"},{"geonameid":"8858474","name":"Leona Vicario","asciiname":"Leona Vicario","alternatenames":["Leona Vicario"],"latitude":"20.90944","longitude":"-89.60111","feature_class":"P","feature_code":"PPL","country_code":"MX","cc2":"","admin1_code":"31","admin2_code":"050","admin3_code":"","admin4_code":"","population":"2754","elevation":"","dem":"13","timezone":"America/Merida","modification_date":"2014-04-11"}]}