{"region_data":{"countryId":"3996063","adminCode1":"32","countryName":"Mexico","fclName":"country, state, region,...","countryCode":"MX","lng":"-103","fcodeName":"first-order administrative division","toponymName":"Estado de Zacatecas","fcl":"A","numberOfChildren":58,"name":"Zacatecas","fcode":"ADM1","geonameId":3979840,"lat":"23.25","adminName1":"Zacatecas","population":1363577},"country_data":{"ISO":"MX","ISO3":"MEX","ISO_Numeric":"484","fips":"MX","country":"Mexico","capital":"Mexico City","area":"1972550","Population":"112468855","Continent":"NA","tld":".mx","CurrencyCode":"MXN","CurrencyName":"Peso","Phone":"52","Postal_Code_Format":"#####","Postal_Code_Regex":"^(\\d{5})$","Languages":"es-MX","geonameid":"3996063","neighbours":"GT,US,BZ","EquivalentFipsCode":""},"cities":[{"geonameid":"3972149","name":"El Nigromante","asciiname":"El Nigromante","alternatenames":[""],"latitude":"22.15373","longitude":"-101.71056","feature_class":"P","feature_code":"PPL","country_code":"MX","cc2":"","admin1_code":"32","admin2_code":"038","admin3_code":"","admin4_code":"","population":"2200","elevation":"","dem":"2212","timezone":"America/Mexico_City","modification_date":"2013-08-01"},{"geonameid":"3972204","name":"Colonia José María Morelos","asciiname":"Colonia Jose Maria Morelos","alternatenames":[""],"latitude":"22.36794","longitude":"-101.79449","feature_class":"P","feature_code":"PPL","country_code":"MX","cc2":"","admin1_code":"32","admin2_code":"054","admin3_code":"","admin4_code":"","population":"1215","elevation":"","dem":"2128","timezone":"America/Mexico_City","modification_date":"2013-08-01"},{"geonameid":"3972265","name":"Piedra Gorda","asciiname":"Piedra Gorda","alternatenames":["Piedra Gorda"],"latitude":"22.50759","longitude":"-102.33187","feature_class":"P","feature_code":"PPL","country_code":"MX","cc2":"","admin1_code":"32","admin2_code":"008","admin3_code":"","admin4_code":"","population":"1007","elevation":"","dem":"2069","timezone":"America/Mexico_City","modification_date":"2014-08-05"},{"geonameid":"3972429","name":"General Pánfilo Natera","asciiname":"General Panfilo Natera","alternatenames":["General Panfilo Natera","General Pánfilo Natera"],"latitude":"22.66461","longitude":"-102.11007","feature_class":"P","feature_code":"PPL","country_code":"MX","cc2":"","admin1_code":"32","admin2_code":"016","admin3_code":"","admin4_code":"","population":"4176","elevation":"","dem":"2105","timezone":"America/Mexico_City","modification_date":"2015-06-22"},{"geonameid":"3972430","name":"Pozo de Jarillas","asciiname":"Pozo de Jarillas","alternatenames":[""],"latitude":"22.65279","longitude":"-102.19782","feature_class":"P","feature_code":"PPL","country_code":"MX","cc2":"","admin1_code":"32","admin2_code":"036","admin3_code":"","admin4_code":"","population":"1221","elevation":"","dem":"2160","timezone":"America/Mexico_City","modification_date":"2013-08-01"},{"geonameid":"3972650","name":"La Luz","asciiname":"La Luz","alternatenames":[""],"latitude":"22.88","longitude":"-102.31028","feature_class":"P","feature_code":"PPL","country_code":"MX","cc2":"","admin1_code":"32","admin2_code":"017","admin3_code":"","admin4_code":"","population":"1244","elevation":"","dem":"2049","timezone":"America/Mexico_City","modification_date":"2013-07-31"},{"geonameid":"3972655","name":"El Lampotal","asciiname":"El Lampotal","alternatenames":[""],"latitude":"22.89583","longitude":"-102.41944","feature_class":"P","feature_code":"PPL","country_code":"MX","cc2":"","admin1_code":"32","admin2_code":"050","admin3_code":"","admin4_code":"","population":"1368","elevation":"","dem":"2089","timezone":"America/Mexico_City","modification_date":"2013-08-01"},{"geonameid":"3972702","name":"General Enrique Estrada","asciiname":"General Enrique Estrada","alternatenames":["General Enrique Estrada"],"latitude":"22.99747","longitude":"-102.74255","feature_class":"P","feature_code":"PPL","country_code":"MX","cc2":"","admin1_code":"32","admin2_code":"013","admin3_code":"","admin4_code":"","population":"3461","elevation":"","dem":"2151","timezone":"America/Mexico_City","modification_date":"2015-06-22"},{"geonameid":"3972706","name":"Las Catarinas","asciiname":"Las Catarinas","alternatenames":["Las Catarinas"],"latitude":"23.09115","longitude":"-102.61597","feature_class":"P","feature_code":"PPL","country_code":"MX","cc2":"","admin1_code":"32","admin2_code":"010","admin3_code":"","admin4_code":"","population":"1535","elevation":"","dem":"2093","timezone":"America/Mexico_City","modification_date":"2014-08-05"},{"geonameid":"3973239","name":"Cañas","asciiname":"Canas","alternatenames":["Canas","Cañas"],"latitude":"23.74366","longitude":"-103.244","feature_class":"P","feature_code":"PPL","country_code":"MX","cc2":"","admin1_code":"32","admin2_code":"040","admin3_code":"","admin4_code":"","population":"1393","elevation":"","dem":"2043","timezone":"America/Mexico_City","modification_date":"2014-07-08"},{"geonameid":"3979844","name":"Zacatecas","asciiname":"Zacatecas","alternatenames":["Sakatekas","ZCL","Zacatecapan","Zacatecas","Zacatēcapan","sa ka te ka si","sakatekaseu","sakatekasu","zakatkas .zakatkas","Сакатекас","زاکاتکاس ٬زاکاتکاس","زاکاٹیکاس","საკატეკასი","サカテカス","萨卡特卡斯","사카테카스"],"latitude":"22.76843","longitude":"-102.58141","feature_class":"P","feature_code":"PPLA","country_code":"MX","cc2":"","admin1_code":"32","admin2_code":"056","admin3_code":"","admin4_code":"","population":"118562","elevation":"","dem":"2480","timezone":"America/Mexico_City","modification_date":"2015-06-22"},{"geonameid":"3980140","name":"Villanueva","asciiname":"Villanueva","alternatenames":["Villanueva"],"latitude":"22.35653","longitude":"-102.88361","feature_class":"P","feature_code":"PPL","country_code":"MX","cc2":"","admin1_code":"32","admin2_code":"055","admin3_code":"","admin4_code":"","population":"11138","elevation":"","dem":"1900","timezone":"America/Mexico_City","modification_date":"2015-06-22"},{"geonameid":"3980167","name":"Villa Hidalgo","asciiname":"Villa Hidalgo","alternatenames":["Santa Rita","Villa Hidalgo"],"latitude":"22.35682","longitude":"-101.71259","feature_class":"P","feature_code":"PPL","country_code":"MX","cc2":"","admin1_code":"32","admin2_code":"054","admin3_code":"","admin4_code":"","population":"3856","elevation":"","dem":"2165","timezone":"America/Mexico_City","modification_date":"2015-06-22"},{"geonameid":"3980175","name":"Villa González Ortega","asciiname":"Villa Gonzalez Ortega","alternatenames":["Carro","El Carro","Villa Gonzalez Ortega","Villa González Ortega"],"latitude":"22.51222","longitude":"-101.91616","feature_class":"P","feature_code":"PPL","country_code":"MX","cc2":"","admin1_code":"32","admin2_code":"053","admin3_code":"","admin4_code":"","population":"5287","elevation":"","dem":"2140","timezone":"America/Mexico_City","modification_date":"2015-06-22"},{"geonameid":"3980177","name":"Villa García","asciiname":"Villa Garcia","alternatenames":["Villa Garcia","Villa García"],"latitude":"22.16246","longitude":"-101.9553","feature_class":"P","feature_code":"PPL","country_code":"MX","cc2":"","admin1_code":"32","admin2_code":"052","admin3_code":"","admin4_code":"","population":"5489","elevation":"","dem":"2101","timezone":"America/Mexico_City","modification_date":"2015-06-22"},{"geonameid":"3980192","name":"Villa de Cos","asciiname":"Villa de Cos","alternatenames":["Villa de Cos"],"latitude":"23.29329","longitude":"-102.3502","feature_class":"P","feature_code":"PPL","country_code":"MX","cc2":"","admin1_code":"32","admin2_code":"051","admin3_code":"","admin4_code":"","population":"4297","elevation":"","dem":"1982","timezone":"America/Mexico_City","modification_date":"2015-06-22"},{"geonameid":"3980586","name":"Valparaíso","asciiname":"Valparaiso","alternatenames":["Valparaiso","Valparaíso"],"latitude":"22.77061","longitude":"-103.57036","feature_class":"P","feature_code":"PPL","country_code":"MX","cc2":"","admin1_code":"32","admin2_code":"049","admin3_code":"","admin4_code":"","population":"10545","elevation":"","dem":"1895","timezone":"America/Mexico_City","modification_date":"2015-06-22"},{"geonameid":"3981145","name":"Trancoso","asciiname":"Trancoso","alternatenames":["Trancoso","Troncoso"],"latitude":"22.7349","longitude":"-102.36638","feature_class":"P","feature_code":"PPL","country_code":"MX","cc2":"","admin1_code":"32","admin2_code":"057","admin3_code":"","admin4_code":"","population":"10459","elevation":"","dem":"2190","timezone":"America/Mexico_City","modification_date":"2015-06-22"},{"geonameid":"3981725","name":"Teul de González Ortega","asciiname":"Teul de Gonzalez Ortega","alternatenames":["San Juan Bautista del Teul","Teul","Teul de Gonzalez Ortega","Teul de González Ortega"],"latitude":"21.4634","longitude":"-103.46131","feature_class":"P","feature_code":"PPL","country_code":"MX","cc2":"","admin1_code":"32","admin2_code":"047","admin3_code":"","admin4_code":"","population":"3168","elevation":"","dem":"1912","timezone":"America/Mexico_City","modification_date":"2015-06-22"},{"geonameid":"3981981","name":"Tepechitlán","asciiname":"Tepechitlan","alternatenames":["Tepechitlan","Tepechitlán"],"latitude":"21.67063","longitude":"-103.3264","feature_class":"P","feature_code":"PPLA2","country_code":"MX","cc2":"","admin1_code":"32","admin2_code":"045","admin3_code":"","admin4_code":"","population":"4419","elevation":"","dem":"1719","timezone":"America/Mexico_City","modification_date":"2015-06-22"},{"geonameid":"3982668","name":"Tacoaleche","asciiname":"Tacoaleche","alternatenames":["Tacoaleche","Tacualeche","Tlacoaleche"],"latitude":"22.8201","longitude":"-102.40476","feature_class":"P","feature_code":"PPL","country_code":"MX","cc2":"","admin1_code":"32","admin2_code":"017","admin3_code":"","admin4_code":"","population":"6821","elevation":"","dem":"2141","timezone":"America/Mexico_City","modification_date":"2015-06-22"},{"geonameid":"3982729","name":"Tabasco","asciiname":"Tabasco","alternatenames":["Garcia de la Cadena","Tabasco","Tabasko","Villa Garcia de la Cadena","Villa García de la Cadena","Villa del Refugio","Табаско"],"latitude":"21.86286","longitude":"-102.91105","feature_class":"P","feature_code":"PPL","country_code":"MX","cc2":"","admin1_code":"32","admin2_code":"044","admin3_code":"","admin4_code":"","population":"6626","elevation":"","dem":"1520","timezone":"America/Mexico_City","modification_date":"2015-06-22"},{"geonameid":"3982887","name":"Sombrerete","asciiname":"Sombrerete","alternatenames":["Sombrerete"],"latitude":"23.63466","longitude":"-103.64244","feature_class":"P","feature_code":"PPL","country_code":"MX","cc2":"","admin1_code":"32","admin2_code":"042","admin3_code":"","admin4_code":"","population":"18805","elevation":"","dem":"2305","timezone":"America/Mexico_City","modification_date":"2015-06-22"},{"geonameid":"3983679","name":"Santiago","asciiname":"Santiago","alternatenames":[""],"latitude":"22.45464","longitude":"-101.45909","feature_class":"P","feature_code":"PPL","country_code":"MX","cc2":"","admin1_code":"32","admin2_code":"038","admin3_code":"","admin4_code":"","population":"1447","elevation":"","dem":"2142","timezone":"America/Mexico_City","modification_date":"2013-07-31"},{"geonameid":"3984048","name":"José María Morelos (Santa Mónica)","asciiname":"Jose Maria Morelos (Santa Monica)","alternatenames":[""],"latitude":"23.60556","longitude":"-103.11028","feature_class":"P","feature_code":"PPL","country_code":"MX","cc2":"","admin1_code":"32","admin2_code":"040","admin3_code":"","admin4_code":"","population":"1225","elevation":"","dem":"1965","timezone":"America/Mexico_City","modification_date":"2013-08-01"},{"geonameid":"3984157","name":"Santa María de la Paz","asciiname":"Santa Maria de la Paz","alternatenames":["Santa Maria","Santa Maria de la Paz","Santa María","Santa María de la Paz"],"latitude":"21.51167","longitude":"-103.40611","feature_class":"P","feature_code":"PPL","country_code":"MX","cc2":"MX","admin1_code":"32","admin2_code":"058","admin3_code":"","admin4_code":"","population":"1684","elevation":"","dem":"1933","timezone":"America/Mexico_City","modification_date":"2013-08-01"},{"geonameid":"3985008","name":"San Pedro Piedra Gorda","asciiname":"San Pedro Piedra Gorda","alternatenames":["Ciudad Cuauhtemoc","Ciudad Cuauhtémoc","Cuauhtemoc","Cuauhtémoc","San Pedro","San Pedro Piedra Gorda"],"latitude":"22.4482","longitude":"-102.35","feature_class":"P","feature_code":"PPL","country_code":"MX","cc2":"","admin1_code":"32","admin2_code":"008","admin3_code":"","admin4_code":"","population":"8297","elevation":"","dem":"2029","timezone":"America/Mexico_City","modification_date":"2013-07-31"},{"geonameid":"3986452","name":"Estación San José","asciiname":"Estacion San Jose","alternatenames":[""],"latitude":"23.18972","longitude":"-102.78472","feature_class":"P","feature_code":"PPL","country_code":"MX","cc2":"","admin1_code":"32","admin2_code":"010","admin3_code":"","admin4_code":"","population":"3487","elevation":"","dem":"2092","timezone":"America/Mexico_City","modification_date":"2013-08-01"},{"geonameid":"3987402","name":"Tlaltenango de Sánchez Román","asciiname":"Tlaltenango de Sanchez Roman","alternatenames":["Sanchez Roman","Sánchez Román","Tlaltenango","Tlaltenango de Sanchez Roman","Tlaltenango de Sánchez Román"],"latitude":"21.78221","longitude":"-103.30298","feature_class":"P","feature_code":"PPL","country_code":"MX","cc2":"","admin1_code":"32","admin2_code":"048","admin3_code":"","admin4_code":"","population":"14240","elevation":"","dem":"1691","timezone":"America/Mexico_City","modification_date":"2015-06-22"},{"geonameid":"3988251","name":"Sain Alto","asciiname":"Sain Alto","alternatenames":["Sain Alto"],"latitude":"23.58086","longitude":"-103.24807","feature_class":"P","feature_code":"PPL","country_code":"MX","cc2":"","admin1_code":"32","admin2_code":"040","admin3_code":"","admin4_code":"","population":"4653","elevation":"","dem":"2051","timezone":"America/Mexico_City","modification_date":"2015-06-22"},{"geonameid":"3988594","name":"Río Grande","asciiname":"Rio Grande","alternatenames":["Rio Grande","Río Grande"],"latitude":"23.82647","longitude":"-103.03034","feature_class":"P","feature_code":"PPLA2","country_code":"MX","cc2":"","admin1_code":"32","admin2_code":"039","admin3_code":"","admin4_code":"","population":"29841","elevation":"","dem":"1870","timezone":"America/Mexico_City","modification_date":"2015-06-22"},{"geonameid":"3990207","name":"Lázaro Cárdenas (Rancho Grande)","asciiname":"Lazaro Cardenas (Rancho Grande)","alternatenames":[""],"latitude":"23.45056","longitude":"-102.9625","feature_class":"P","feature_code":"PPL","country_code":"MX","cc2":"","admin1_code":"32","admin2_code":"010","admin3_code":"","admin4_code":"","population":"3857","elevation":"","dem":"2022","timezone":"America/Mexico_City","modification_date":"2013-08-01"},{"geonameid":"3991930","name":"Pozos de Gamboa","asciiname":"Pozos de Gamboa","alternatenames":["Pozo Gamboa","Pozo de Gamboa","Pozos de Gamboa"],"latitude":"22.94861","longitude":"-102.5701","feature_class":"P","feature_code":"PPL","country_code":"MX","cc2":"","admin1_code":"32","admin2_code":"037","admin3_code":"","admin4_code":"","population":"4178","elevation":"","dem":"2263","timezone":"America/Mexico_City","modification_date":"2015-06-22"},{"geonameid":"3992327","name":"Plateros","asciiname":"Plateros","alternatenames":["Plateros"],"latitude":"23.22922","longitude":"-102.8429","feature_class":"P","feature_code":"PPL","country_code":"MX","cc2":"","admin1_code":"32","admin2_code":"010","admin3_code":"","admin4_code":"","population":"4158","elevation":"","dem":"2175","timezone":"America/Mexico_City","modification_date":"2015-06-22"},{"geonameid":"3992485","name":"Pinos","asciiname":"Pinos","alternatenames":[""],"latitude":"22.29734","longitude":"-101.57512","feature_class":"P","feature_code":"PPL","country_code":"MX","cc2":"","admin1_code":"32","admin2_code":"038","admin3_code":"","admin4_code":"","population":"4631","elevation":"","dem":"2464","timezone":"America/Mexico_City","modification_date":"2015-06-22"},{"geonameid":"3993226","name":"Pastoría","asciiname":"Pastoria","alternatenames":[""],"latitude":"22.48666","longitude":"-102.08162","feature_class":"P","feature_code":"PPL","country_code":"MX","cc2":"","admin1_code":"32","admin2_code":"036","admin3_code":"","admin4_code":"","population":"1089","elevation":"","dem":"2228","timezone":"America/Mexico_City","modification_date":"2013-07-31"},{"geonameid":"3994912","name":"Nochistlán","asciiname":"Nochistlan","alternatenames":[""],"latitude":"21.36545","longitude":"-102.84659","feature_class":"P","feature_code":"PPL","country_code":"MX","cc2":"","admin1_code":"32","admin2_code":"034","admin3_code":"","admin4_code":"","population":"15613","elevation":"","dem":"1874","timezone":"America/Mexico_City","modification_date":"2015-06-22"},{"geonameid":"3994939","name":"Nieves","asciiname":"Nieves","alternatenames":["Francisco R. Murguia","Las Nieves","Nieves"],"latitude":"23.99609","longitude":"-103.02013","feature_class":"P","feature_code":"PPLA2","country_code":"MX","cc2":"","admin1_code":"32","admin2_code":"014","admin3_code":"","admin4_code":"","population":"5296","elevation":"","dem":"1914","timezone":"America/Mexico_City","modification_date":"2015-06-22"},{"geonameid":"3995398","name":"Morelos","asciiname":"Morelos","alternatenames":["Morelos"],"latitude":"22.86215","longitude":"-102.61061","feature_class":"P","feature_code":"PPL","country_code":"MX","cc2":"","admin1_code":"32","admin2_code":"032","admin3_code":"","admin4_code":"","population":"5650","elevation":"","dem":"2309","timezone":"America/Mexico_City","modification_date":"2015-06-22"},{"geonameid":"3995490","name":"Monte Escobedo","asciiname":"Monte Escobedo","alternatenames":["Monte Escobedo"],"latitude":"22.30362","longitude":"-103.56751","feature_class":"P","feature_code":"PPL","country_code":"MX","cc2":"","admin1_code":"32","admin2_code":"031","admin3_code":"","admin4_code":"","population":"3776","elevation":"","dem":"2208","timezone":"America/Mexico_City","modification_date":"2015-06-22"},{"geonameid":"3995533","name":"Momax","asciiname":"Momax","alternatenames":["Momax"],"latitude":"21.9226","longitude":"-103.31307","feature_class":"P","feature_code":"PPLA2","country_code":"MX","cc2":"","admin1_code":"32","admin2_code":"030","admin3_code":"","admin4_code":"","population":"0","elevation":"","dem":"1650","timezone":"America/Mexico_City","modification_date":"2015-06-22"},{"geonameid":"3995943","name":"Miguel Auza","asciiname":"Miguel Auza","alternatenames":["Miguel Auza","San Miguel Mezquital","San Miguel del Mezquital"],"latitude":"24.29421","longitude":"-103.4509","feature_class":"P","feature_code":"PPL","country_code":"MX","cc2":"","admin1_code":"32","admin2_code":"029","admin3_code":"","admin4_code":"","population":"12685","elevation":"","dem":"1965","timezone":"America/Mexico_City","modification_date":"2015-06-22"},{"geonameid":"3996008","name":"Mezquital del Oro","asciiname":"Mezquital del Oro","alternatenames":["Mezquital","Mezquital del Oro"],"latitude":"21.21667","longitude":"-103.36278","feature_class":"P","feature_code":"PPL","country_code":"MX","cc2":"MX","admin1_code":"32","admin2_code":"028","admin3_code":"","admin4_code":"","population":"1147","elevation":"","dem":"1214","timezone":"America/Mexico_City","modification_date":"2013-08-01"},{"geonameid":"3997017","name":"Luis Moya","asciiname":"Luis Moya","alternatenames":["Adame","Luis Moya","San Francisco","San Francisco de los Adame"],"latitude":"22.43237","longitude":"-102.24864","feature_class":"P","feature_code":"PPL","country_code":"MX","cc2":"","admin1_code":"32","admin2_code":"025","admin3_code":"","admin4_code":"","population":"6335","elevation":"","dem":"1983","timezone":"America/Mexico_City","modification_date":"2013-07-31"},{"geonameid":"3998291","name":"Loreto","asciiname":"Loreto","alternatenames":["Loreto"],"latitude":"22.27248","longitude":"-101.98898","feature_class":"P","feature_code":"PPL","country_code":"MX","cc2":"","admin1_code":"32","admin2_code":"024","admin3_code":"","admin4_code":"","population":"19779","elevation":"","dem":"2032","timezone":"America/Mexico_City","modification_date":"2015-06-22"},{"geonameid":"4000852","name":"La Pendencia","asciiname":"La Pendencia","alternatenames":["La Pendencia","Pendencia"],"latitude":"22.43778","longitude":"-101.57583","feature_class":"P","feature_code":"PPL","country_code":"MX","cc2":"MX","admin1_code":"32","admin2_code":"038","admin3_code":"","admin4_code":"","population":"1121","elevation":"","dem":"2193","timezone":"America/Mexico_City","modification_date":"2013-07-31"},{"geonameid":"4002565","name":"San José de la Era","asciiname":"San Jose de la Era","alternatenames":[""],"latitude":"22.85073","longitude":"-102.42239","feature_class":"P","feature_code":"PPL","country_code":"MX","cc2":"","admin1_code":"32","admin2_code":"050","admin3_code":"","admin4_code":"","population":"1253","elevation":"","dem":"2126","timezone":"America/Mexico_City","modification_date":"2013-08-01"},{"geonameid":"4003739","name":"Juchipila","asciiname":"Juchipila","alternatenames":[""],"latitude":"21.40862","longitude":"-103.11663","feature_class":"P","feature_code":"PPL","country_code":"MX","cc2":"","admin1_code":"32","admin2_code":"023","admin3_code":"","admin4_code":"","population":"6700","elevation":"","dem":"1248","timezone":"America/Mexico_City","modification_date":"2015-06-22"},{"geonameid":"4003804","name":"Juan Aldama","asciiname":"Juan Aldama","alternatenames":["Juan Aldama","San Juan del Mezquita","San Juan del Mezquital"],"latitude":"24.29188","longitude":"-103.39272","feature_class":"P","feature_code":"PPL","country_code":"MX","cc2":"","admin1_code":"32","admin2_code":"022","admin3_code":"","admin4_code":"","population":"14162","elevation":"","dem":"2000","timezone":"America/Mexico_City","modification_date":"2015-06-22"},{"geonameid":"4004024","name":"Jerez de García Salinas","asciiname":"Jerez de Garcia Salinas","alternatenames":["Ciudad Garcia","Ciudad Garcia Salinas","Ciudad García","Ciudad García Salinas","Jerez","Jerez de Garcia Salinas","Jerez de García Salinas","Kheres-de-Garsija-Salinas","Херес-де-Гарсия-Салинас"],"latitude":"22.64862","longitude":"-102.99034","feature_class":"P","feature_code":"PPL","country_code":"MX","cc2":"","admin1_code":"32","admin2_code":"020","admin3_code":"","admin4_code":"","population":"43064","elevation":"","dem":"1999","timezone":"America/Mexico_City","modification_date":"2013-07-31"},{"geonameid":"4004148","name":"Jalpa","asciiname":"Jalpa","alternatenames":[""],"latitude":"21.63432","longitude":"-102.98005","feature_class":"P","feature_code":"PPL","country_code":"MX","cc2":"","admin1_code":"32","admin2_code":"019","admin3_code":"","admin4_code":"","population":"13686","elevation":"","dem":"1392","timezone":"America/Mexico_City","modification_date":"2015-06-22"},{"geonameid":"4004949","name":"Hacienda Toribio","asciiname":"Hacienda Toribio","alternatenames":[""],"latitude":"23.08333","longitude":"-102.68333","feature_class":"P","feature_code":"PPL","country_code":"MX","cc2":"","admin1_code":"32","admin2_code":"005","admin3_code":"","admin4_code":"","population":"3825","elevation":"","dem":"2088","timezone":"America/Mexico_City","modification_date":"2015-06-22"},{"geonameid":"4005509","name":"Guadalupe","asciiname":"Guadalupe","alternatenames":["Guadalupe","Gvadalupe","Гвадалупе"],"latitude":"22.75305","longitude":"-102.51822","feature_class":"P","feature_code":"PPL","country_code":"MX","cc2":"","admin1_code":"32","admin2_code":"017","admin3_code":"","admin4_code":"","population":"94089","elevation":"","dem":"2301","timezone":"America/Mexico_City","modification_date":"2015-06-22"},{"geonameid":"4005951","name":"Trinidad García de la Cadena","asciiname":"Trinidad Garcia de la Cadena","alternatenames":["Estanzuela","Garcia de la Cadena","García de la Cadena","La Estanzuela"],"latitude":"21.21","longitude":"-103.46444","feature_class":"P","feature_code":"PPL","country_code":"MX","cc2":"MX","admin1_code":"32","admin2_code":"011","admin3_code":"","admin4_code":"","population":"2269","elevation":"","dem":"1737","timezone":"America/Mexico_City","modification_date":"2013-08-01"},{"geonameid":"4006163","name":"Fresnillo","asciiname":"Fresnillo","alternatenames":["Fresnillo","Fresnillo de Gonzalez Echeverria","Fresnillo de González Echeverría"],"latitude":"23.18126","longitude":"-102.87136","feature_class":"P","feature_code":"PPL","country_code":"MX","cc2":"","admin1_code":"32","admin2_code":"010","admin3_code":"","admin4_code":"","population":"105488","elevation":"","dem":"2197","timezone":"America/Mexico_City","modification_date":"2015-06-22"},{"geonameid":"4010804","name":"Villa Insurgentes (El Calabazal)","asciiname":"Villa Insurgentes (El Calabazal)","alternatenames":["Calabazal","El Calabazal"],"latitude":"23.74306","longitude":"-103.8425","feature_class":"P","feature_code":"PPL","country_code":"MX","cc2":"MX","admin1_code":"32","admin2_code":"042","admin3_code":"","admin4_code":"","population":"1355","elevation":"","dem":"2159","timezone":"America/Mexico_City","modification_date":"2013-08-01"},{"geonameid":"4013039","name":"Concepcion del Oro","asciiname":"Concepcion del Oro","alternatenames":["Concepcion del Oro","Concepción del Oro"],"latitude":"24.61326","longitude":"-101.41844","feature_class":"P","feature_code":"PPL","country_code":"MX","cc2":"","admin1_code":"32","admin2_code":"007","admin3_code":"","admin4_code":"","population":"6523","elevation":"","dem":"2073","timezone":"America/Mexico_City","modification_date":"2015-06-22"},{"geonameid":"4013329","name":"Colonia Plenitud","asciiname":"Colonia Plenitud","alternatenames":[""],"latitude":"23.2325","longitude":"-103.075","feature_class":"P","feature_code":"PPL","country_code":"MX","cc2":"","admin1_code":"32","admin2_code":"010","admin3_code":"","admin4_code":"","population":"1233","elevation":"","dem":"2060","timezone":"America/Mexico_City","modification_date":"2013-08-01"},{"geonameid":"4014603","name":"Chalchihuites","asciiname":"Chalchihuites","alternatenames":["Calchihuites","Chalchihuites"],"latitude":"23.47498","longitude":"-103.88293","feature_class":"P","feature_code":"PPL","country_code":"MX","cc2":"","admin1_code":"32","admin2_code":"009","admin3_code":"","admin4_code":"","population":"4028","elevation":"","dem":"2279","timezone":"America/Mexico_City","modification_date":"2015-06-22"},{"geonameid":"4015633","name":"Cañitas de Felipe Pescador","asciiname":"Canitas de Felipe Pescador","alternatenames":["Canitas","Canitas de Felipe Pescador","Cañitas","Cañitas de Felipe Pescador","Felipe Pescador"],"latitude":"23.60371","longitude":"-102.72704","feature_class":"P","feature_code":"PPLA2","country_code":"MX","cc2":"","admin1_code":"32","admin2_code":"006","admin3_code":"","admin4_code":"","population":"5965","elevation":"","dem":"2019","timezone":"America/Mexico_City","modification_date":"2015-06-22"},{"geonameid":"4016132","name":"Víctor Rosales","asciiname":"Victor Rosales","alternatenames":["Calera","Calera Victor Rosales","Calera Víctor Rosales","Victor Rosales"],"latitude":"22.94889","longitude":"-102.70222","feature_class":"P","feature_code":"PPL","country_code":"MX","cc2":"","admin1_code":"32","admin2_code":"005","admin3_code":"","admin4_code":"","population":"32721","elevation":"","dem":"2167","timezone":"America/Mexico_City","modification_date":"2013-08-01"},{"geonameid":"4017546","name":"Gonzales Ortega","asciiname":"Gonzales Ortega","alternatenames":["Banon","Bañón","Gonzales Ortega"],"latitude":"23.18056","longitude":"-102.47589","feature_class":"P","feature_code":"PPL","country_code":"MX","cc2":"","admin1_code":"32","admin2_code":"051","admin3_code":"","admin4_code":"","population":"4137","elevation":"","dem":"2042","timezone":"America/Mexico_City","modification_date":"2015-06-22"},{"geonameid":"4018380","name":"Apozol","asciiname":"Apozol","alternatenames":[""],"latitude":"21.46952","longitude":"-103.09076","feature_class":"P","feature_code":"PPL","country_code":"MX","cc2":"","admin1_code":"32","admin2_code":"001","admin3_code":"","admin4_code":"","population":"2933","elevation":"","dem":"1272","timezone":"America/Mexico_City","modification_date":"2015-06-22"},{"geonameid":"8858405","name":"El Saucito (El Horno)","asciiname":"El Saucito (El Horno)","alternatenames":["El Saucito (El Horno)"],"latitude":"22.73111","longitude":"-102.09528","feature_class":"P","feature_code":"PPL","country_code":"MX","cc2":"","admin1_code":"32","admin2_code":"016","admin3_code":"","admin4_code":"","population":"3190","elevation":"","dem":"2128","timezone":"America/Mexico_City","modification_date":"2014-04-11"},{"geonameid":"8858471","name":"Florencia","asciiname":"Florencia","alternatenames":["Florencia"],"latitude":"21.50389","longitude":"-103.55611","feature_class":"P","feature_code":"PPL","country_code":"MX","cc2":"","admin1_code":"32","admin2_code":"004","admin3_code":"","admin4_code":"","population":"2768","elevation":"","dem":"2182","timezone":"America/Mexico_City","modification_date":"2014-04-11"},{"geonameid":"8858481","name":"San José el Saladillo (El Saladillo)","asciiname":"San Jose el Saladillo (El Saladillo)","alternatenames":["San Jose el Saladillo (El Saladillo)","San José el Saladillo (El Saladillo)"],"latitude":"22.685","longitude":"-102.03778","feature_class":"P","feature_code":"PPL","country_code":"MX","cc2":"","admin1_code":"32","admin2_code":"016","admin3_code":"","admin4_code":"","population":"2718","elevation":"","dem":"2035","timezone":"America/Mexico_City","modification_date":"2014-04-11"},{"geonameid":"8858504","name":"Charco Blanco","asciiname":"Charco Blanco","alternatenames":["Charco Blanco"],"latitude":"23.86306","longitude":"-103.6575","feature_class":"P","feature_code":"PPL","country_code":"MX","cc2":"","admin1_code":"32","admin2_code":"042","admin3_code":"","admin4_code":"","population":"2645","elevation":"","dem":"2234","timezone":"America/Mexico_City","modification_date":"2014-04-11"},{"geonameid":"8858571","name":"Las Esperanzas (El Ranchito)","asciiname":"Las Esperanzas (El Ranchito)","alternatenames":["Las Esperanzas (El Ranchito)"],"latitude":"23.84972","longitude":"-103.13111","feature_class":"P","feature_code":"PPL","country_code":"MX","cc2":"","admin1_code":"32","admin2_code":"039","admin3_code":"","admin4_code":"","population":"2425","elevation":"","dem":"1942","timezone":"America/Mexico_City","modification_date":"2014-04-11"},{"geonameid":"8858674","name":"El Salto","asciiname":"El Salto","alternatenames":["El Salto"],"latitude":"23.19556","longitude":"-103.0675","feature_class":"P","feature_code":"PPL","country_code":"MX","cc2":"","admin1_code":"32","admin2_code":"010","admin3_code":"","admin4_code":"","population":"2137","elevation":"","dem":"2079","timezone":"America/Mexico_City","modification_date":"2014-04-11"},{"geonameid":"8858694","name":"Rafael Yáñez Sosa (El Mezquite)","asciiname":"Rafael Yanez Sosa (El Mezquite)","alternatenames":["Rafael Yanez Sosa (El Mezquite)","Rafael Yáñez Sosa (El Mezquite)"],"latitude":"23.32833","longitude":"-102.61028","feature_class":"P","feature_code":"PPL","country_code":"MX","cc2":"","admin1_code":"32","admin2_code":"010","admin3_code":"","admin4_code":"","population":"2085","elevation":"","dem":"2093","timezone":"America/Mexico_City","modification_date":"2014-04-11"},{"geonameid":"8858740","name":"Colonia Montemariana (Colonia Mariana)","asciiname":"Colonia Montemariana (Colonia Mariana)","alternatenames":["Colonia Montemariana (Colonia Mariana)"],"latitude":"23.32639","longitude":"-103.11222","feature_class":"P","feature_code":"PPL","country_code":"MX","cc2":"","admin1_code":"32","admin2_code":"010","admin3_code":"","admin4_code":"","population":"1978","elevation":"","dem":"2131","timezone":"America/Mexico_City","modification_date":"2014-04-11"},{"geonameid":"8858892","name":"El Refugio","asciiname":"El Refugio","alternatenames":["El Refugio"],"latitude":"22.37028","longitude":"-101.76083","feature_class":"P","feature_code":"PPL","country_code":"MX","cc2":"","admin1_code":"32","admin2_code":"054","admin3_code":"","admin4_code":"","population":"1715","elevation":"","dem":"2119","timezone":"America/Mexico_City","modification_date":"2014-04-11"},{"geonameid":"8858933","name":"Jiménez del Teul","asciiname":"Jimenez del Teul","alternatenames":["Jimenez del Teul","Jiménez del Teul"],"latitude":"23.255","longitude":"-103.79778","feature_class":"P","feature_code":"PPL","country_code":"MX","cc2":"","admin1_code":"32","admin2_code":"021","admin3_code":"","admin4_code":"","population":"1662","elevation":"","dem":"1897","timezone":"America/Mexico_City","modification_date":"2014-04-11"},{"geonameid":"8858999","name":"Martínez Domínguez","asciiname":"Martinez Dominguez","alternatenames":["Martinez Dominguez","Martínez Domínguez"],"latitude":"22.74806","longitude":"-102.48111","feature_class":"P","feature_code":"PPL","country_code":"MX","cc2":"","admin1_code":"32","admin2_code":"017","admin3_code":"","admin4_code":"","population":"1574","elevation":"","dem":"2222","timezone":"America/Mexico_City","modification_date":"2014-04-11"},{"geonameid":"8859066","name":"Tapias de Santa Cruz (Pedro Ruiz González)","asciiname":"Tapias de Santa Cruz (Pedro Ruiz Gonzalez)","alternatenames":["Tapias de Santa Cruz (Pedro Ruiz Gonzalez)","Tapias de Santa Cruz (Pedro Ruiz González)"],"latitude":"23.18889","longitude":"-103.13111","feature_class":"P","feature_code":"PPL","country_code":"MX","cc2":"","admin1_code":"32","admin2_code":"010","admin3_code":"","admin4_code":"","population":"1495","elevation":"","dem":"2087","timezone":"America/Mexico_City","modification_date":"2014-04-11"},{"geonameid":"8859158","name":"Los Condes","asciiname":"Los Condes","alternatenames":["Los Condes"],"latitude":"23.83889","longitude":"-103.07861","feature_class":"P","feature_code":"PPL","country_code":"MX","cc2":"","admin1_code":"32","admin2_code":"039","admin3_code":"","admin4_code":"","population":"1418","elevation":"","dem":"1893","timezone":"America/Mexico_City","modification_date":"2014-04-11"},{"geonameid":"8859175","name":"Rancho Nuevo de Morelos (De Guadalupe)","asciiname":"Rancho Nuevo de Morelos (De Guadalupe)","alternatenames":["Rancho Nuevo de Morelos (De Guadalupe)"],"latitude":"22.34056","longitude":"-101.78528","feature_class":"P","feature_code":"PPL","country_code":"MX","cc2":"","admin1_code":"32","admin2_code":"035","admin3_code":"","admin4_code":"","population":"1406","elevation":"","dem":"2124","timezone":"America/Mexico_City","modification_date":"2014-04-11"},{"geonameid":"8859215","name":"El Copetillo","asciiname":"El Copetillo","alternatenames":["El Copetillo"],"latitude":"22.14333","longitude":"-102.00139","feature_class":"P","feature_code":"PPL","country_code":"MX","cc2":"","admin1_code":"32","admin2_code":"052","admin3_code":"","admin4_code":"","population":"1373","elevation":"","dem":"2064","timezone":"America/Mexico_City","modification_date":"2014-04-11"},{"geonameid":"8859226","name":"Tierra Blanca","asciiname":"Tierra Blanca","alternatenames":["Tierra Blanca"],"latitude":"23.82722","longitude":"-103.07667","feature_class":"P","feature_code":"PPL","country_code":"MX","cc2":"","admin1_code":"32","admin2_code":"039","admin3_code":"","admin4_code":"","population":"1361","elevation":"","dem":"1874","timezone":"America/Mexico_City","modification_date":"2014-04-11"},{"geonameid":"8859277","name":"Santa Rita","asciiname":"Santa Rita","alternatenames":["Santa Rita"],"latitude":"22.91194","longitude":"-102.41833","feature_class":"P","feature_code":"PPL","country_code":"MX","cc2":"","admin1_code":"32","admin2_code":"050","admin3_code":"","admin4_code":"","population":"1320","elevation":"","dem":"2084","timezone":"America/Mexico_City","modification_date":"2014-04-11"},{"geonameid":"8859286","name":"Colonia San Francisco (San Francisco)","asciiname":"Colonia San Francisco (San Francisco)","alternatenames":["Colonia San Francisco (San Francisco)"],"latitude":"22.30361","longitude":"-101.82056","feature_class":"P","feature_code":"PPL","country_code":"MX","cc2":"","admin1_code":"32","admin2_code":"035","admin3_code":"","admin4_code":"","population":"1314","elevation":"","dem":"2133","timezone":"America/Mexico_City","modification_date":"2014-04-11"},{"geonameid":"8859386","name":"Ejido Hidalgo","asciiname":"Ejido Hidalgo","alternatenames":["Ejido Hidalgo"],"latitude":"22.30083","longitude":"-102.03861","feature_class":"P","feature_code":"PPL","country_code":"MX","cc2":"","admin1_code":"32","admin2_code":"024","admin3_code":"","admin4_code":"","population":"1255","elevation":"","dem":"2023","timezone":"America/Mexico_City","modification_date":"2014-04-11"},{"geonameid":"8859427","name":"Colonia Hidalgo (El Tecolote)","asciiname":"Colonia Hidalgo (El Tecolote)","alternatenames":["Colonia Hidalgo (El Tecolote)"],"latitude":"22.32972","longitude":"-102.03583","feature_class":"P","feature_code":"PPL","country_code":"MX","cc2":"","admin1_code":"32","admin2_code":"024","admin3_code":"","admin4_code":"","population":"1235","elevation":"","dem":"2023","timezone":"America/Mexico_City","modification_date":"2014-04-11"},{"geonameid":"8859520","name":"José María Morelos","asciiname":"Jose Maria Morelos","alternatenames":["Jose Maria Morelos","José María Morelos"],"latitude":"23.32278","longitude":"-103.01444","feature_class":"P","feature_code":"PPL","country_code":"MX","cc2":"","admin1_code":"32","admin2_code":"010","admin3_code":"","admin4_code":"","population":"1182","elevation":"","dem":"2040","timezone":"America/Mexico_City","modification_date":"2014-04-11"},{"geonameid":"8859624","name":"Las Pilas","asciiname":"Las Pilas","alternatenames":["Las Pilas"],"latitude":"22.84","longitude":"-102.61278","feature_class":"P","feature_code":"PPL","country_code":"MX","cc2":"","admin1_code":"32","admin2_code":"032","admin3_code":"","admin4_code":"","population":"1129","elevation":"","dem":"2338","timezone":"America/Mexico_City","modification_date":"2014-04-11"},{"geonameid":"8859645","name":"General Lauro G. Caloca (El Rascón)","asciiname":"General Lauro G. Caloca (El Rascon)","alternatenames":["General Lauro G. Caloca (El Rascon)","General Lauro G. Caloca (El Rascón)"],"latitude":"22.37806","longitude":"-102.0575","feature_class":"P","feature_code":"PPL","country_code":"MX","cc2":"","admin1_code":"32","admin2_code":"035","admin3_code":"","admin4_code":"","population":"1121","elevation":"","dem":"2042","timezone":"America/Mexico_City","modification_date":"2014-04-11"},{"geonameid":"8859701","name":"J. Jesús González Ortega (San Mateo)","asciiname":"J. Jesus Gonzalez Ortega (San Mateo)","alternatenames":["J. Jesus Gonzalez Ortega (San Mateo)","J. Jesús González Ortega (San Mateo)"],"latitude":"22.88722","longitude":"-103.48528","feature_class":"P","feature_code":"PPL","country_code":"MX","cc2":"","admin1_code":"32","admin2_code":"049","admin3_code":"","admin4_code":"","population":"1100","elevation":"","dem":"1998","timezone":"America/Mexico_City","modification_date":"2014-04-11"}]}