{"region_data":{"countryId":"3996063","adminCode1":"17","countryName":"Mexico","fclName":"country, state, region,...","countryCode":"MX","lng":"-99.06667","fcodeName":"first-order administrative division","toponymName":"Estado de Morelos","fcl":"A","numberOfChildren":33,"name":"Morelos","fcode":"ADM1","geonameId":3522961,"lat":"18.75","adminName1":"Morelos","population":1680239},"country_data":{"ISO":"MX","ISO3":"MEX","ISO_Numeric":"484","fips":"MX","country":"Mexico","capital":"Mexico City","area":"1972550","Population":"112468855","Continent":"NA","tld":".mx","CurrencyCode":"MXN","CurrencyName":"Peso","Phone":"52","Postal_Code_Format":"#####","Postal_Code_Regex":"^(\\d{5})$","Languages":"es-MX","geonameid":"3996063","neighbours":"GT,US,BZ","EquivalentFipsCode":""},"cities":[{"geonameid":"3514052","name":"Zaragoza de Guadalupe","asciiname":"Zaragoza de Guadalupe","alternatenames":["Zaragoza","Zaragoza de Guadalupe"],"latitude":"19.1483","longitude":"-99.64405","feature_class":"P","feature_code":"PPL","country_code":"MX","cc2":"","admin1_code":"17","admin2_code":"","admin3_code":"","admin4_code":"","population":"6896","elevation":"","dem":"2861","timezone":"America/Mexico_City","modification_date":"2014-09-05"},{"geonameid":"3514163","name":"Zacatepec","asciiname":"Zacatepec","alternatenames":["Zacatepec"],"latitude":"18.65388","longitude":"-99.19054","feature_class":"P","feature_code":"PPL","country_code":"MX","cc2":"","admin1_code":"17","admin2_code":"031","admin3_code":"","admin4_code":"","population":"21533","elevation":"","dem":"921","timezone":"America/Mexico_City","modification_date":"2015-06-22"},{"geonameid":"3514278","name":"Yecapixtla","asciiname":"Yecapixtla","alternatenames":["Yacapitztla","Yecapixilac","Yecapixtla"],"latitude":"18.88333","longitude":"-98.865","feature_class":"P","feature_code":"PPL","country_code":"MX","cc2":"","admin1_code":"17","admin2_code":"030","admin3_code":"","admin4_code":"","population":"16811","elevation":"","dem":"1590","timezone":"America/Mexico_City","modification_date":"2013-07-31"},{"geonameid":"3514321","name":"Yautepec","asciiname":"Yautepec","alternatenames":[""],"latitude":"18.88188","longitude":"-99.06715","feature_class":"P","feature_code":"PPL","country_code":"MX","cc2":"","admin1_code":"17","admin2_code":"029","admin3_code":"","admin4_code":"","population":"41386","elevation":"","dem":"1225","timezone":"America/Mexico_City","modification_date":"2015-06-22"},{"geonameid":"3514398","name":"Xoxocotla","asciiname":"Xoxocotla","alternatenames":[""],"latitude":"18.68502","longitude":"-99.24608","feature_class":"P","feature_code":"PPL","country_code":"MX","cc2":"","admin1_code":"17","admin2_code":"017","admin3_code":"","admin4_code":"","population":"19790","elevation":"","dem":"1032","timezone":"America/Mexico_City","modification_date":"2015-06-22"},{"geonameid":"3514409","name":"Xonacatlán","asciiname":"Xonacatlan","alternatenames":["San Francisco","San Francisco Xonacatlan","San Francisco Xonacatlán","Xonacatlan","Xonacatlan de Vicencio","Xonacatlán","Xonacatlán de Vicencio","Xonacaxtlan","Xonacaxtlán"],"latitude":"19.40513","longitude":"-99.52807","feature_class":"P","feature_code":"PPLA2","country_code":"MX","cc2":"","admin1_code":"17","admin2_code":"","admin3_code":"","admin4_code":"","population":"19687","elevation":"","dem":"2585","timezone":"America/Mexico_City","modification_date":"2014-09-05"},{"geonameid":"3514414","name":"Xometla","asciiname":"Xometla","alternatenames":["Xametla","Xometla"],"latitude":"19.64245","longitude":"-98.88257","feature_class":"P","feature_code":"PPL","country_code":"MX","cc2":"","admin1_code":"17","admin2_code":"","admin3_code":"","admin4_code":"","population":"4454","elevation":"","dem":"2267","timezone":"America/Mexico_City","modification_date":"2014-04-30"},{"geonameid":"3514437","name":"Xochitepec","asciiname":"Xochitepec","alternatenames":["Xochiltepec","Xochitepec"],"latitude":"18.78121","longitude":"-99.23055","feature_class":"P","feature_code":"PPL","country_code":"MX","cc2":"","admin1_code":"17","admin2_code":"028","admin3_code":"","admin4_code":"","population":"16768","elevation":"","dem":"1123","timezone":"America/Mexico_City","modification_date":"2015-06-22"},{"geonameid":"3515195","name":"Totolapan","asciiname":"Totolapan","alternatenames":["Totolapan"],"latitude":"18.98487","longitude":"-98.92073","feature_class":"P","feature_code":"PPL","country_code":"MX","cc2":"","admin1_code":"17","admin2_code":"027","admin3_code":"","admin4_code":"","population":"5584","elevation":"","dem":"1902","timezone":"America/Mexico_City","modification_date":"2015-06-22"},{"geonameid":"3515205","name":"San Miguel Totocuitlapilco","asciiname":"San Miguel Totocuitlapilco","alternatenames":["San Miguel Totocuitlapilco","Totocuitlapilco"],"latitude":"19.23107","longitude":"-99.59116","feature_class":"P","feature_code":"PPL","country_code":"MX","cc2":"","admin1_code":"17","admin2_code":"","admin3_code":"","admin4_code":"","population":"7966","elevation":"","dem":"2610","timezone":"America/Mexico_City","modification_date":"2014-09-05"},{"geonameid":"3515321","name":"Tolcayuca","asciiname":"Tolcayuca","alternatenames":["Tolcayuca"],"latitude":"19.95814","longitude":"-98.91941","feature_class":"P","feature_code":"PPLA2","country_code":"MX","cc2":"","admin1_code":"17","admin2_code":"","admin3_code":"","admin4_code":"","population":"5964","elevation":"","dem":"2388","timezone":"America/Mexico_City","modification_date":"2014-04-30"},{"geonameid":"3515343","name":"Tlayacapan","asciiname":"Tlayacapan","alternatenames":["Tlayacapan"],"latitude":"18.95556","longitude":"-98.98111","feature_class":"P","feature_code":"PPL","country_code":"MX","cc2":"","admin1_code":"17","admin2_code":"026","admin3_code":"","admin4_code":"","population":"7989","elevation":"","dem":"1637","timezone":"America/Mexico_City","modification_date":"2013-07-31"},{"geonameid":"3515369","name":"Tlatenchi","asciiname":"Tlatenchi","alternatenames":["Tlatenchi","Tlatenchu"],"latitude":"18.59639","longitude":"-99.18639","feature_class":"P","feature_code":"PPL","country_code":"MX","cc2":"","admin1_code":"17","admin2_code":"012","admin3_code":"","admin4_code":"","population":"5555","elevation":"","dem":"908","timezone":"America/Mexico_City","modification_date":"2013-07-31"},{"geonameid":"3515373","name":"Tlaquiltenango","asciiname":"Tlaquiltenango","alternatenames":["Tlaquiltenango"],"latitude":"18.63693","longitude":"-99.16208","feature_class":"P","feature_code":"PPL","country_code":"MX","cc2":"","admin1_code":"17","admin2_code":"025","admin3_code":"","admin4_code":"","population":"19056","elevation":"","dem":"924","timezone":"America/Mexico_City","modification_date":"2015-06-22"},{"geonameid":"3515415","name":"Tlaltizapán","asciiname":"Tlaltizapan","alternatenames":["Tlaltizapan","Tlaltizapán"],"latitude":"18.68594","longitude":"-99.11982","feature_class":"P","feature_code":"PPL","country_code":"MX","cc2":"","admin1_code":"17","admin2_code":"024","admin3_code":"","admin4_code":"","population":"10465","elevation":"","dem":"954","timezone":"America/Mexico_City","modification_date":"2015-06-22"},{"geonameid":"3515434","name":"Tlalnepantla","asciiname":"Tlalnepantla","alternatenames":["Tlalnepantla","Tlanepantla","Тлалнепантла"],"latitude":"19.00917","longitude":"-98.99715","feature_class":"P","feature_code":"PPLA2","country_code":"MX","cc2":"","admin1_code":"17","admin2_code":"023","admin3_code":"","admin4_code":"","population":"3742","elevation":"","dem":"2070","timezone":"America/Mexico_City","modification_date":"2015-06-22"},{"geonameid":"3515475","name":"Tlacotepec","asciiname":"Tlacotepec","alternatenames":[""],"latitude":"18.80222","longitude":"-98.74972","feature_class":"P","feature_code":"PPL","country_code":"MX","cc2":"","admin1_code":"17","admin2_code":"032","admin3_code":"","admin4_code":"","population":"4914","elevation":"","dem":"1711","timezone":"America/Mexico_City","modification_date":"2015-06-22"},{"geonameid":"3515505","name":"Tizayuca","asciiname":"Tizayuca","alternatenames":["Tizayuca","Tizayucan"],"latitude":"19.83721","longitude":"-98.97607","feature_class":"P","feature_code":"PPLA2","country_code":"MX","cc2":"","admin1_code":"17","admin2_code":"","admin3_code":"","admin4_code":"","population":"39323","elevation":"","dem":"2275","timezone":"America/Mexico_City","modification_date":"2014-04-30"},{"geonameid":"3515570","name":"Tilzapotla","asciiname":"Tilzapotla","alternatenames":[""],"latitude":"18.48991","longitude":"-99.27555","feature_class":"P","feature_code":"PPL","country_code":"MX","cc2":"","admin1_code":"17","admin2_code":"017","admin3_code":"","admin4_code":"","population":"5256","elevation":"","dem":"1014","timezone":"America/Mexico_City","modification_date":"2015-06-22"},{"geonameid":"3515722","name":"Texcalyacac","asciiname":"Texcalyacac","alternatenames":["San Mateo Texcalyacac","Texcaliacac","Texcalyacac","Texcalyecac"],"latitude":"19.13253","longitude":"-99.50163","feature_class":"P","feature_code":"PPLA2","country_code":"MX","cc2":"","admin1_code":"17","admin2_code":"","admin3_code":"","admin4_code":"","population":"0","elevation":"","dem":"2590","timezone":"America/Mexico_City","modification_date":"2014-09-05"},{"geonameid":"3515724","name":"San Juan Texcalpan","asciiname":"San Juan Texcalpan","alternatenames":[""],"latitude":"18.93583","longitude":"-98.92889","feature_class":"P","feature_code":"PPL","country_code":"MX","cc2":"","admin1_code":"17","admin2_code":"002","admin3_code":"","admin4_code":"","population":"1162","elevation":"","dem":"1603","timezone":"America/Mexico_City","modification_date":"2013-08-01"},{"geonameid":"3515726","name":"Texcala","asciiname":"Texcala","alternatenames":[""],"latitude":"18.93444","longitude":"-98.79472","feature_class":"P","feature_code":"PPL","country_code":"MX","cc2":"","admin1_code":"17","admin2_code":"030","admin3_code":"","admin4_code":"","population":"1444","elevation":"","dem":"2011","timezone":"America/Mexico_City","modification_date":"2013-07-31"},{"geonameid":"3515763","name":"Tetela del Volcán","asciiname":"Tetela del Volcan","alternatenames":["Telela del Volcan","Tetela del Volcan","Tetela del Volcán"],"latitude":"18.89306","longitude":"-98.72972","feature_class":"P","feature_code":"PPL","country_code":"MX","cc2":"","admin1_code":"17","admin2_code":"022","admin3_code":"","admin4_code":"","population":"10199","elevation":"","dem":"2222","timezone":"America/Mexico_City","modification_date":"2013-08-01"},{"geonameid":"3515767","name":"Tetecala","asciiname":"Tetecala","alternatenames":["Tetecala"],"latitude":"18.73009","longitude":"-99.39933","feature_class":"P","feature_code":"PPL","country_code":"MX","cc2":"","admin1_code":"17","admin2_code":"021","admin3_code":"","admin4_code":"","population":"5111","elevation":"","dem":"993","timezone":"America/Mexico_City","modification_date":"2015-06-22"},{"geonameid":"3515811","name":"Tepoztlán","asciiname":"Tepoztlan","alternatenames":["Tepoxtlan","Tepoxtlán","Tepoztlan","Tepoztlán"],"latitude":"18.98603","longitude":"-99.09914","feature_class":"P","feature_code":"PPL","country_code":"MX","cc2":"","admin1_code":"17","admin2_code":"020","admin3_code":"","admin4_code":"","population":"15963","elevation":"","dem":"1716","timezone":"America/Mexico_City","modification_date":"2015-06-22"},{"geonameid":"3515862","name":"Tepetlaoxtoc de Hidalgo","asciiname":"Tepetlaoxtoc de Hidalgo","alternatenames":["Tepetlaoxtoc","Tepetlaoxtoc de Hidalgo"],"latitude":"19.57437","longitude":"-98.81835","feature_class":"P","feature_code":"PPLA2","country_code":"MX","cc2":"","admin1_code":"17","admin2_code":"","admin3_code":"","admin4_code":"","population":"5860","elevation":"","dem":"2302","timezone":"America/Mexico_City","modification_date":"2014-04-30"},{"geonameid":"3515921","name":"Tepalcingo","asciiname":"Tepalcingo","alternatenames":["Tepalcingo","Tepaltzingo"],"latitude":"18.59582","longitude":"-98.84302","feature_class":"P","feature_code":"PPL","country_code":"MX","cc2":"","admin1_code":"17","admin2_code":"019","admin3_code":"","admin4_code":"","population":"11846","elevation":"","dem":"1162","timezone":"America/Mexico_City","modification_date":"2015-06-22"},{"geonameid":"3515993","name":"Tenango de Arista","asciiname":"Tenango de Arista","alternatenames":["Tenango","Tenango de Arista","Tenango del Valle"],"latitude":"19.10446","longitude":"-99.5898","feature_class":"P","feature_code":"PPLA2","country_code":"MX","cc2":"","admin1_code":"17","admin2_code":"","admin3_code":"","admin4_code":"","population":"20969","elevation":"","dem":"2610","timezone":"America/Mexico_City","modification_date":"2014-09-05"},{"geonameid":"3516030","name":"Temoaya","asciiname":"Temoaya","alternatenames":["Santiago","Santiago Temoaya","Temoaya"],"latitude":"19.46747","longitude":"-99.59407","feature_class":"P","feature_code":"PPLA2","country_code":"MX","cc2":"","admin1_code":"17","admin2_code":"","admin3_code":"","admin4_code":"","population":"3382","elevation":"","dem":"2671","timezone":"America/Mexico_City","modification_date":"2014-09-05"},{"geonameid":"3516031","name":"Temoac","asciiname":"Temoac","alternatenames":["Temoac"],"latitude":"18.77222","longitude":"-98.7775","feature_class":"P","feature_code":"PPL","country_code":"MX","cc2":"","admin1_code":"17","admin2_code":"033","admin3_code":"","admin4_code":"","population":"5799","elevation":"","dem":"1588","timezone":"America/Mexico_City","modification_date":"2013-07-31"},{"geonameid":"3516035","name":"Temixco","asciiname":"Temixco","alternatenames":["Temisco","Temisko","Temixco","te mi si ke","tmykskw","Темиско","تمیکسکو","特米斯科"],"latitude":"18.85528","longitude":"-99.23072","feature_class":"P","feature_code":"PPL","country_code":"MX","cc2":"","admin1_code":"17","admin2_code":"018","admin3_code":"","admin4_code":"","population":"91059","elevation":"","dem":"1299","timezone":"America/Mexico_City","modification_date":"2015-06-22"},{"geonameid":"3516063","name":"Telixtac","asciiname":"Telixtac","alternatenames":[""],"latitude":"18.56121","longitude":"-98.77632","feature_class":"P","feature_code":"PPL","country_code":"MX","cc2":"","admin1_code":"17","admin2_code":"003","admin3_code":"","admin4_code":"","population":"4294","elevation":"","dem":"1103","timezone":"America/Mexico_City","modification_date":"2015-06-22"},{"geonameid":"3516098","name":"Tehuixtla","asciiname":"Tehuixtla","alternatenames":[""],"latitude":"18.55979","longitude":"-99.27078","feature_class":"P","feature_code":"PPL","country_code":"MX","cc2":"","admin1_code":"17","admin2_code":"012","admin3_code":"","admin4_code":"","population":"6311","elevation":"","dem":"896","timezone":"America/Mexico_City","modification_date":"2013-07-31"},{"geonameid":"3516174","name":"San Pedro Techuchulco","asciiname":"San Pedro Techuchulco","alternatenames":["San Pedro Techuchulco","Techuchulco","Techuchulco de Allende"],"latitude":"19.11359","longitude":"-99.52425","feature_class":"P","feature_code":"PPL","country_code":"MX","cc2":"","admin1_code":"17","admin2_code":"","admin3_code":"","admin4_code":"","population":"4405","elevation":"","dem":"2589","timezone":"America/Mexico_City","modification_date":"2014-09-05"},{"geonameid":"3516200","name":"Tecajec","asciiname":"Tecajec","alternatenames":[""],"latitude":"18.79806","longitude":"-98.815","feature_class":"P","feature_code":"PPL","country_code":"MX","cc2":"","admin1_code":"17","admin2_code":"030","admin3_code":"","admin4_code":"","population":"1665","elevation":"","dem":"1584","timezone":"America/Mexico_City","modification_date":"2013-07-31"},{"geonameid":"3517225","name":"Nopaltepec","asciiname":"Nopaltepec","alternatenames":["Nopaltepec","Santa Maria","Santa Maria Nopaltepec","Santa María Nopaltepec"],"latitude":"19.77829","longitude":"-98.71046","feature_class":"P","feature_code":"PPLA2","country_code":"MX","cc2":"","admin1_code":"17","admin2_code":"","admin3_code":"","admin4_code":"","population":"3572","elevation":"","dem":"2451","timezone":"America/Mexico_City","modification_date":"2014-04-30"},{"geonameid":"3517524","name":"Tecamac de Felipe Villanueva","asciiname":"Tecamac de Felipe Villanueva","alternatenames":["Santa Cruz","Santa Cruz Tecamac","Tecama","Tecamac","Tecamac de Felipe Villanueva"],"latitude":"19.71288","longitude":"-98.96895","feature_class":"P","feature_code":"PPLA2","country_code":"MX","cc2":"","admin1_code":"17","admin2_code":"","admin3_code":"","admin4_code":"","population":"15244","elevation":"","dem":"2279","timezone":"America/Mexico_City","modification_date":"2014-04-30"},{"geonameid":"3517687","name":"Santa Catarina","asciiname":"Santa Catarina","alternatenames":["Santa Catarina","Santa Catarina Zacatepec","Santa-Katarina","Санта-Катарина"],"latitude":"18.96972","longitude":"-99.14028","feature_class":"P","feature_code":"PPL","country_code":"MX","cc2":"","admin1_code":"17","admin2_code":"020","admin3_code":"","admin4_code":"","population":"4521","elevation":"","dem":"1621","timezone":"America/Mexico_City","modification_date":"2013-07-31"},{"geonameid":"3518122","name":"San Pablo Tecalco","asciiname":"San Pablo Tecalco","alternatenames":["San Pablo","San Pablo Tecalco","Tecalco"],"latitude":"19.67309","longitude":"-98.95837","feature_class":"P","feature_code":"PPL","country_code":"MX","cc2":"","admin1_code":"17","admin2_code":"","admin3_code":"","admin4_code":"","population":"4810","elevation":"","dem":"2362","timezone":"America/Mexico_City","modification_date":"2014-04-30"},{"geonameid":"3518138","name":"San Pablo Autopan","asciiname":"San Pablo Autopan","alternatenames":["Autopan","San Pablo","San Pablo Autopan"],"latitude":"19.35638","longitude":"-99.65724","feature_class":"P","feature_code":"PPL","country_code":"MX","cc2":"","admin1_code":"17","admin2_code":"","admin3_code":"","admin4_code":"","population":"30417","elevation":"","dem":"2613","timezone":"America/Mexico_City","modification_date":"2014-09-05"},{"geonameid":"3518183","name":"San Nicolás Coatepec","asciiname":"San Nicolas Coatepec","alternatenames":["Bateas","Coatepec","Coatepec de las Bateas","San Nicolas Coatepec","San Nicolás Coatepec"],"latitude":"19.13735","longitude":"-99.42948","feature_class":"P","feature_code":"PPL","country_code":"MX","cc2":"","admin1_code":"17","admin2_code":"","admin3_code":"","admin4_code":"","population":"7604","elevation":"","dem":"2756","timezone":"America/Mexico_City","modification_date":"2014-09-05"},{"geonameid":"3518280","name":"Chapultepec","asciiname":"Chapultepec","alternatenames":["Chapultepec","San Miguel Chapultepec"],"latitude":"19.20216","longitude":"-99.56176","feature_class":"P","feature_code":"PPLA2","country_code":"MX","cc2":"","admin1_code":"17","admin2_code":"","admin3_code":"","admin4_code":"","population":"5828","elevation":"","dem":"2597","timezone":"America/Mexico_City","modification_date":"2014-09-05"},{"geonameid":"3518286","name":"San Miguel Balderas","asciiname":"San Miguel Balderas","alternatenames":["Balderas","San Miguel","San Miguel Balderas"],"latitude":"19.10943","longitude":"-99.65165","feature_class":"P","feature_code":"PPL","country_code":"MX","cc2":"","admin1_code":"17","admin2_code":"","admin3_code":"","admin4_code":"","population":"4621","elevation":"","dem":"2857","timezone":"America/Mexico_City","modification_date":"2014-09-05"},{"geonameid":"3518387","name":"San Mateo Atenco","asciiname":"San Mateo Atenco","alternatenames":["Atenco","San Mateo","San Mateo Atenco"],"latitude":"19.26757","longitude":"-99.53214","feature_class":"P","feature_code":"PPLA2","country_code":"MX","cc2":"","admin1_code":"17","admin2_code":"","admin3_code":"","admin4_code":"","population":"68602","elevation":"","dem":"2580","timezone":"America/Mexico_City","modification_date":"2014-09-05"},{"geonameid":"3518414","name":"San Martín de las Pirámides","asciiname":"San Martin de las Piramides","alternatenames":["San Martin","San Martin de las Piramides","San Martín de las Pirámides"],"latitude":"19.70582","longitude":"-98.83554","feature_class":"P","feature_code":"PPLA2","country_code":"MX","cc2":"","admin1_code":"17","admin2_code":"","admin3_code":"","admin4_code":"","population":"13017","elevation":"","dem":"2311","timezone":"America/Mexico_City","modification_date":"2014-04-30"},{"geonameid":"3518538","name":"San Lorenzo Oyamel","asciiname":"San Lorenzo Oyamel","alternatenames":["Oyamel","San Lorenzo","San Lorenzo Oyamel"],"latitude":"19.43355","longitude":"-99.57761","feature_class":"P","feature_code":"PPL","country_code":"MX","cc2":"","admin1_code":"17","admin2_code":"","admin3_code":"","admin4_code":"","population":"5110","elevation":"","dem":"2605","timezone":"America/Mexico_City","modification_date":"2014-09-05"},{"geonameid":"3518618","name":"Teotihuacán de Arista","asciiname":"Teotihuacan de Arista","alternatenames":["San Juan","San Juan Teotihuacan","San Juan Teotihuacán","Teotihuacan","Teotihuacan de Arista","Teotihuacán","Teotihuacán de Arista"],"latitude":"19.68782","longitude":"-98.86208","feature_class":"P","feature_code":"PPLA2","country_code":"MX","cc2":"","admin1_code":"17","admin2_code":"","admin3_code":"","admin4_code":"","population":"22541","elevation":"","dem":"2277","timezone":"America/Mexico_City","modification_date":"2014-04-30"},{"geonameid":"3519238","name":"San Gabriel las Palmas","asciiname":"San Gabriel las Palmas","alternatenames":[""],"latitude":"18.61417","longitude":"-99.34694","feature_class":"P","feature_code":"PPL","country_code":"MX","cc2":"","admin1_code":"17","admin2_code":"001","admin3_code":"","admin4_code":"","population":"3005","elevation":"","dem":"928","timezone":"America/Mexico_City","modification_date":"2013-08-01"},{"geonameid":"3519243","name":"San Francisco Zacacalco","asciiname":"San Francisco Zacacalco","alternatenames":["San Francisco","San Francisco Zacacalco","Zacacalco"],"latitude":"19.92875","longitude":"-98.98279","feature_class":"P","feature_code":"PPL","country_code":"MX","cc2":"","admin1_code":"17","admin2_code":"","admin3_code":"","admin4_code":"","population":"7225","elevation":"","dem":"2356","timezone":"America/Mexico_City","modification_date":"2014-04-30"},{"geonameid":"3519833","name":"San Antonio la Isla","asciiname":"San Antonio la Isla","alternatenames":["San Antonio","San Antonio la Isla"],"latitude":"19.16441","longitude":"-99.56685","feature_class":"P","feature_code":"PPLA2","country_code":"MX","cc2":"","admin1_code":"17","admin2_code":"","admin3_code":"","admin4_code":"","population":"0","elevation":"","dem":"2589","timezone":"America/Mexico_City","modification_date":"2014-09-05"},{"geonameid":"3520927","name":"Quebrantadero","asciiname":"Quebrantadero","alternatenames":[""],"latitude":"18.52384","longitude":"-98.7905","feature_class":"P","feature_code":"PPL","country_code":"MX","cc2":"","admin1_code":"17","admin2_code":"003","admin3_code":"","admin4_code":"","population":"2273","elevation":"","dem":"1067","timezone":"America/Mexico_City","modification_date":"2013-07-31"},{"geonameid":"3521051","name":"Puente de Ixtla","asciiname":"Puente de Ixtla","alternatenames":[""],"latitude":"18.61472","longitude":"-99.31806","feature_class":"P","feature_code":"PPL","country_code":"MX","cc2":"","admin1_code":"17","admin2_code":"017","admin3_code":"","admin4_code":"","population":"20668","elevation":"900","dem":"911","timezone":"America/Mexico_City","modification_date":"2015-06-22"},{"geonameid":"3521925","name":"Papalotla","asciiname":"Papalotla","alternatenames":["Papalotla","Papalotlan","Papalutla"],"latitude":"19.56341","longitude":"-98.85681","feature_class":"P","feature_code":"PPLA2","country_code":"MX","cc2":"","admin1_code":"17","admin2_code":"","admin3_code":"","admin4_code":"","population":"3546","elevation":"","dem":"2270","timezone":"America/Mexico_City","modification_date":"2014-04-30"},{"geonameid":"3522265","name":"Otumba de Gómez Farías","asciiname":"Otumba de Gomez Farias","alternatenames":["Gomez","Gómez","Otumba","Otumba de Gomez Farias","Otumba de Gómez Farías"],"latitude":"19.69985","longitude":"-98.75638","feature_class":"P","feature_code":"PPLA2","country_code":"MX","cc2":"","admin1_code":"17","admin2_code":"","admin3_code":"","admin4_code":"","population":"9718","elevation":"","dem":"2367","timezone":"America/Mexico_City","modification_date":"2014-04-30"},{"geonameid":"3522439","name":"Ocuituco","asciiname":"Ocuituco","alternatenames":["Ocuituco"],"latitude":"18.87857","longitude":"-98.77299","feature_class":"P","feature_code":"PPL","country_code":"MX","cc2":"","admin1_code":"17","admin2_code":"016","admin3_code":"","admin4_code":"","population":"4728","elevation":"","dem":"1933","timezone":"America/Mexico_City","modification_date":"2015-06-22"},{"geonameid":"3522445","name":"Ocoyoacac","asciiname":"Ocoyoacac","alternatenames":["Ocoyoacac"],"latitude":"19.27127","longitude":"-99.45787","feature_class":"P","feature_code":"PPLA2","country_code":"MX","cc2":"","admin1_code":"17","admin2_code":"","admin3_code":"","admin4_code":"","population":"24647","elevation":"","dem":"2597","timezone":"America/Mexico_City","modification_date":"2014-09-05"},{"geonameid":"3522459","name":"Santa María Magdalena Ocotitlán","asciiname":"Santa Maria Magdalena Ocotitlan","alternatenames":["Ocotitlan","Ocotitlán","Santa Maria Magdalena Ocotitlan","Santa Maria Ocotitlan","Santa María Magdalena Ocotitlán","Santa María Ocotitlán"],"latitude":"19.23713","longitude":"-99.62418","feature_class":"P","feature_code":"PPL","country_code":"MX","cc2":"","admin1_code":"17","admin2_code":"","admin3_code":"","admin4_code":"","population":"4799","elevation":"","dem":"2656","timezone":"America/Mexico_City","modification_date":"2014-09-05"},{"geonameid":"3522505","name":"Oaxtepec","asciiname":"Oaxtepec","alternatenames":["Oaxtepec"],"latitude":"18.90583","longitude":"-98.98071","feature_class":"P","feature_code":"PPL","country_code":"MX","cc2":"","admin1_code":"17","admin2_code":"029","admin3_code":"","admin4_code":"","population":"6993","elevation":"","dem":"1333","timezone":"America/Mexico_City","modification_date":"2015-06-22"},{"geonameid":"3523247","name":"Miacatlán","asciiname":"Miacatlan","alternatenames":["Miacatlan","Miacatlán"],"latitude":"18.77071","longitude":"-99.36042","feature_class":"P","feature_code":"PPL","country_code":"MX","cc2":"","admin1_code":"17","admin2_code":"015","admin3_code":"","admin4_code":"","population":"8253","elevation":"","dem":"1019","timezone":"America/Mexico_City","modification_date":"2015-06-22"},{"geonameid":"3523303","name":"Metepec","asciiname":"Metepec","alternatenames":["Metepec","Metepek","Metepēc","Municipio Metepec","Municipio de Metepec","mei te pei ke","mtpk","Метепек","متپک","梅特佩克"],"latitude":"19.25934","longitude":"-99.60175","feature_class":"P","feature_code":"PPLA2","country_code":"MX","cc2":"","admin1_code":"17","admin2_code":"","admin3_code":"","admin4_code":"","population":"172982","elevation":"","dem":"2623","timezone":"America/Mexico_City","modification_date":"2014-09-05"},{"geonameid":"3523415","name":"Mazatepec","asciiname":"Mazatepec","alternatenames":["Mazatepec"],"latitude":"18.72061","longitude":"-99.36126","feature_class":"P","feature_code":"PPL","country_code":"MX","cc2":"","admin1_code":"17","admin2_code":"014","admin3_code":"","admin4_code":"","population":"4975","elevation":"","dem":"994","timezone":"America/Mexico_City","modification_date":"2015-06-22"},{"geonameid":"3523900","name":"Reyes Acozac","asciiname":"Reyes Acozac","alternatenames":["Los Reyes Acozac","Los Reyes Xoloc","Reyes","Reyes Acozac"],"latitude":"19.7755","longitude":"-98.98079","feature_class":"P","feature_code":"PPL","country_code":"MX","cc2":"","admin1_code":"17","admin2_code":"","admin3_code":"","admin4_code":"","population":"22133","elevation":"","dem":"2259","timezone":"America/Mexico_City","modification_date":"2014-04-30"},{"geonameid":"3524389","name":"Lerma de Villada","asciiname":"Lerma de Villada","alternatenames":["Lerma","Lerma de Villada","Zerma de Villada"],"latitude":"19.28881","longitude":"-99.51163","feature_class":"P","feature_code":"PPLA2","country_code":"MX","cc2":"","admin1_code":"17","admin2_code":"","admin3_code":"","admin4_code":"","population":"18145","elevation":"","dem":"2587","timezone":"America/Mexico_City","modification_date":"2014-09-05"},{"geonameid":"3525570","name":"La Joya","asciiname":"La Joya","alternatenames":[""],"latitude":"18.66667","longitude":"-99.46667","feature_class":"P","feature_code":"PPL","country_code":"MX","cc2":"","admin1_code":"17","admin2_code":"005","admin3_code":"","admin4_code":"","population":"13158","elevation":"","dem":"1010","timezone":"America/Mexico_City","modification_date":"2015-06-22"},{"geonameid":"3526450","name":"Joquicingo de León Guzmán","asciiname":"Joquicingo de Leon Guzman","alternatenames":["Joquicingo","Joquicingo de Leon Guzman","Joquicingo de León Guzmán"],"latitude":"19.05032","longitude":"-99.53375","feature_class":"P","feature_code":"PPLA2","country_code":"MX","cc2":"","admin1_code":"17","admin2_code":"","admin3_code":"","admin4_code":"","population":"4206","elevation":"","dem":"2635","timezone":"America/Mexico_City","modification_date":"2014-09-05"},{"geonameid":"3526458","name":"Jonacatepec de Leandro Valle","asciiname":"Jonacatepec de Leandro Valle","alternatenames":["Jonacatepec","Jonacatepec de Leandro Valle"],"latitude":"18.68308","longitude":"-98.80302","feature_class":"P","feature_code":"PPL","country_code":"MX","cc2":"","admin1_code":"17","admin2_code":"013","admin3_code":"","admin4_code":"","population":"8252","elevation":"","dem":"1346","timezone":"America/Mexico_City","modification_date":"2015-06-22"},{"geonameid":"3526467","name":"Jojutla","asciiname":"Jojutla","alternatenames":["Jojutla","Jojutla de Juarez","Jojutla de Juárez"],"latitude":"18.61472","longitude":"-99.18028","feature_class":"P","feature_code":"PPL","country_code":"MX","cc2":"","admin1_code":"17","admin2_code":"012","admin3_code":"","admin4_code":"","population":"18867","elevation":"","dem":"896","timezone":"America/Mexico_City","modification_date":"2013-08-01"},{"geonameid":"3526485","name":"Jiutepec","asciiname":"Jiutepec","alternatenames":["Jiutepec","Xiutepec"],"latitude":"18.88139","longitude":"-99.17778","feature_class":"P","feature_code":"PPL","country_code":"MX","cc2":"","admin1_code":"17","admin2_code":"011","admin3_code":"","admin4_code":"","population":"162427","elevation":"","dem":"1361","timezone":"America/Mexico_City","modification_date":"2013-07-31"},{"geonameid":"3526584","name":"Jantetelco","asciiname":"Jantetelco","alternatenames":["Jantetelco"],"latitude":"18.71694","longitude":"-98.77635","feature_class":"P","feature_code":"PPL","country_code":"MX","cc2":"","admin1_code":"17","admin2_code":"010","admin3_code":"","admin4_code":"","population":"4514","elevation":"","dem":"1436","timezone":"America/Mexico_City","modification_date":"2015-06-22"},{"geonameid":"3526599","name":"Jaltepec","asciiname":"Jaltepec","alternatenames":["Jaltepec","Xaltepec"],"latitude":"19.7296","longitude":"-98.63456","feature_class":"P","feature_code":"PPL","country_code":"MX","cc2":"","admin1_code":"17","admin2_code":"","admin3_code":"","admin4_code":"","population":"5275","elevation":"","dem":"2539","timezone":"America/Mexico_City","modification_date":"2014-06-05"},{"geonameid":"3526600","name":"Jaltenco","asciiname":"Jaltenco","alternatenames":["Jaltenco","Jaltengo","San Andres Jaltenco","San Andres Jaltengo","San Andrés Jaltenco","San Andrés Jaltengo","Xaltenco"],"latitude":"19.75399","longitude":"-99.09367","feature_class":"P","feature_code":"PPLA2","country_code":"MX","cc2":"","admin1_code":"17","admin2_code":"","admin3_code":"","admin4_code":"","population":"9603","elevation":"","dem":"2252","timezone":"America/Mexico_City","modification_date":"2014-06-05"},{"geonameid":"3526883","name":"Huitzilac","asciiname":"Huitzilac","alternatenames":["Huitzilac"],"latitude":"19.02983","longitude":"-99.26788","feature_class":"P","feature_code":"PPL","country_code":"MX","cc2":"","admin1_code":"17","admin2_code":"009","admin3_code":"","admin4_code":"","population":"4328","elevation":"","dem":"2560","timezone":"America/Mexico_City","modification_date":"2015-06-22"},{"geonameid":"3526928","name":"Hueypoxtla","asciiname":"Hueypoxtla","alternatenames":["Hueypoxtla"],"latitude":"19.91301","longitude":"-99.07384","feature_class":"P","feature_code":"PPLA2","country_code":"MX","cc2":"","admin1_code":"17","admin2_code":"","admin3_code":"","admin4_code":"","population":"3566","elevation":"","dem":"2275","timezone":"America/Mexico_City","modification_date":"2014-06-05"},{"geonameid":"3526934","name":"Hueyapan","asciiname":"Hueyapan","alternatenames":["Hueyapan"],"latitude":"18.88587","longitude":"-98.68948","feature_class":"P","feature_code":"PPL","country_code":"MX","cc2":"","admin1_code":"17","admin2_code":"022","admin3_code":"","admin4_code":"","population":"6353","elevation":"","dem":"2297","timezone":"America/Mexico_City","modification_date":"2015-06-22"},{"geonameid":"3526951","name":"Huepalcalco (San Miguel)","asciiname":"Huepalcalco (San Miguel)","alternatenames":[""],"latitude":"18.90889","longitude":"-98.75","feature_class":"P","feature_code":"PPL","country_code":"MX","cc2":"","admin1_code":"17","admin2_code":"016","admin3_code":"","admin4_code":"","population":"1094","elevation":"","dem":"2286","timezone":"America/Mexico_City","modification_date":"2013-08-01"},{"geonameid":"3526977","name":"Huazulco","asciiname":"Huazulco","alternatenames":[""],"latitude":"18.75309","longitude":"-98.77551","feature_class":"P","feature_code":"PPL","country_code":"MX","cc2":"","admin1_code":"17","admin2_code":"033","admin3_code":"","admin4_code":"","population":"3847","elevation":"","dem":"1541","timezone":"America/Mexico_City","modification_date":"2013-07-31"},{"geonameid":"3527042","name":"Ex-Hacienda el Hospital","asciiname":"Ex-Hacienda el Hospital","alternatenames":[""],"latitude":"18.83111","longitude":"-98.99667","feature_class":"P","feature_code":"PPL","country_code":"MX","cc2":"","admin1_code":"17","admin2_code":"006","admin3_code":"","admin4_code":"","population":"2053","elevation":"","dem":"1280","timezone":"America/Mexico_City","modification_date":"2013-08-01"},{"geonameid":"3527879","name":"Emiliano Zapata","asciiname":"Emiliano Zapata","alternatenames":["Emiliano Zapata"],"latitude":"18.83677","longitude":"-99.18207","feature_class":"P","feature_code":"PPL","country_code":"MX","cc2":"","admin1_code":"17","admin2_code":"008","admin3_code":"","admin4_code":"","population":"37724","elevation":"","dem":"1250","timezone":"America/Mexico_City","modification_date":"2015-06-22"},{"geonameid":"3529947","name":"Cuernavaca","asciiname":"Cuernavaca","alternatenames":["CVJ","Cuauhnahuac","Cuauhnāhuac","Cuernavaca","Gorad Kuehrnavaka","Kuehrnavaka","Kuernavaka","ku ai na wa ka","kueleunabaka","kuerunabaka","kwrnawak","Горад Куэрнавака","Куернавака","Куэрнавака","کورناواک","കെർണവാക്കാ","კუერნავაკა","クエルナバカ","庫埃納瓦卡","쿠에르나바카"],"latitude":"18.9261","longitude":"-99.23075","feature_class":"P","feature_code":"PPLA","country_code":"MX","cc2":"","admin1_code":"17","admin2_code":"007","admin3_code":"","admin4_code":"","population":"343769","elevation":"","dem":"1540","timezone":"America/Mexico_City","modification_date":"2013-10-22"},{"geonameid":"3529982","name":"Cuautla Morelos","asciiname":"Cuautla Morelos","alternatenames":["Cuautla","Cuautla Morelos"],"latitude":"18.80459","longitude":"-98.94555","feature_class":"P","feature_code":"PPL","country_code":"MX","cc2":"","admin1_code":"17","admin2_code":"006","admin3_code":"","admin4_code":"","population":"146178","elevation":"","dem":"1318","timezone":"America/Mexico_City","modification_date":"2015-06-22"},{"geonameid":"3530003","name":"Cuauchichinola","asciiname":"Cuauchichinola","alternatenames":[""],"latitude":"18.66389","longitude":"-99.37583","feature_class":"P","feature_code":"PPL","country_code":"MX","cc2":"","admin1_code":"17","admin2_code":"014","admin3_code":"","admin4_code":"","population":"2383","elevation":"","dem":"945","timezone":"America/Mexico_City","modification_date":"2013-07-31"},{"geonameid":"3530123","name":"Coyotepec","asciiname":"Coyotepec","alternatenames":["Coyotepec"],"latitude":"19.77722","longitude":"-99.21295","feature_class":"P","feature_code":"PPLA2","country_code":"MX","cc2":"","admin1_code":"17","admin2_code":"","admin3_code":"","admin4_code":"","population":"35793","elevation":"","dem":"2321","timezone":"America/Mexico_City","modification_date":"2014-06-05"},{"geonameid":"3530492","name":"Cocoyoc","asciiname":"Cocoyoc","alternatenames":["Cocoyoc"],"latitude":"18.88417","longitude":"-98.98194","feature_class":"P","feature_code":"PPL","country_code":"MX","cc2":"","admin1_code":"17","admin2_code":"029","admin3_code":"","admin4_code":"","population":"9663","elevation":"","dem":"1327","timezone":"America/Mexico_City","modification_date":"2013-07-31"},{"geonameid":"3530523","name":"Coatetelco","asciiname":"Coatetelco","alternatenames":["Coatetelco"],"latitude":"18.7302","longitude":"-99.32707","feature_class":"P","feature_code":"PPL","country_code":"MX","cc2":"","admin1_code":"17","admin2_code":"015","admin3_code":"","admin4_code":"","population":"9503","elevation":"","dem":"987","timezone":"America/Mexico_City","modification_date":"2015-06-22"},{"geonameid":"3530756","name":"San Pedro Chochula","asciiname":"San Pedro Chochula","alternatenames":["Cholula","San Pedro Chochula","San Pedro Cholula"],"latitude":"19.26359","longitude":"-99.4859","feature_class":"P","feature_code":"PPL","country_code":"MX","cc2":"","admin1_code":"17","admin2_code":"","admin3_code":"","admin4_code":"","population":"8798","elevation":"","dem":"2577","timezone":"America/Mexico_City","modification_date":"2014-09-05"},{"geonameid":"3530852","name":"San Francisco Chimalpa","asciiname":"San Francisco Chimalpa","alternatenames":["Chimalpa","San Francisco Chimalpa"],"latitude":"19.44279","longitude":"-99.34398","feature_class":"P","feature_code":"PPL","country_code":"MX","cc2":"","admin1_code":"17","admin2_code":"","admin3_code":"","admin4_code":"","population":"7182","elevation":"","dem":"2884","timezone":"America/Mexico_City","modification_date":"2014-09-05"},{"geonameid":"3531598","name":"Capulhuac","asciiname":"Capulhuac","alternatenames":["Capulhuac","Capulhuac de Mirafuentes","Mirafuentes"],"latitude":"19.19354","longitude":"-99.46585","feature_class":"P","feature_code":"PPLA2","country_code":"MX","cc2":"","admin1_code":"17","admin2_code":"","admin3_code":"","admin4_code":"","population":"20517","elevation":"","dem":"2627","timezone":"America/Mexico_City","modification_date":"2014-09-05"},{"geonameid":"3531798","name":"Calimaya de Díaz González","asciiname":"Calimaya de Diaz Gonzalez","alternatenames":["Calimaya","Calimaya Diaz Gonzalez","Calimaya Díaz González","Calimaya de Diaz Gonzalez","Calimaya de Díaz González"],"latitude":"19.16324","longitude":"-99.6181","feature_class":"P","feature_code":"PPLA2","country_code":"MX","cc2":"","admin1_code":"17","admin2_code":"","admin3_code":"","admin4_code":"","population":"10407","elevation":"","dem":"2698","timezone":"America/Mexico_City","modification_date":"2014-09-05"},{"geonameid":"3532188","name":"Miguel Bocanegra","asciiname":"Miguel Bocanegra","alternatenames":["Bocanegra","Miguel Bocanegra","San Miguel Bocanegra"],"latitude":"19.84574","longitude":"-99.11193","feature_class":"P","feature_code":"PPL","country_code":"MX","cc2":"","admin1_code":"17","admin2_code":"","admin3_code":"","admin4_code":"","population":"5681","elevation":"","dem":"2281","timezone":"America/Mexico_City","modification_date":"2014-06-05"},{"geonameid":"3532530","name":"Ciudad Ayala","asciiname":"Ciudad Ayala","alternatenames":["Ayala"],"latitude":"18.76694","longitude":"-98.98222","feature_class":"P","feature_code":"PPL","country_code":"MX","cc2":"","admin1_code":"17","admin2_code":"004","admin3_code":"","admin4_code":"","population":"6777","elevation":"","dem":"1231","timezone":"America/Mexico_City","modification_date":"2013-08-01"},{"geonameid":"3532545","name":"Axochiapan","asciiname":"Axochiapan","alternatenames":["Axochiapan"],"latitude":"18.50307","longitude":"-98.75219","feature_class":"P","feature_code":"PPL","country_code":"MX","cc2":"","admin1_code":"17","admin2_code":"003","admin3_code":"","admin4_code":"","population":"17568","elevation":"","dem":"1040","timezone":"America/Mexico_City","modification_date":"2015-06-22"},{"geonameid":"3532548","name":"Axapusco","asciiname":"Axapusco","alternatenames":["Axapusco"],"latitude":"19.72487","longitude":"-98.75763","feature_class":"P","feature_code":"PPLA2","country_code":"MX","cc2":"","admin1_code":"17","admin2_code":"","admin3_code":"","admin4_code":"","population":"3343","elevation":"","dem":"2351","timezone":"America/Mexico_City","modification_date":"2014-04-30"},{"geonameid":"3532602","name":"Santiago Atlatongo","asciiname":"Santiago Atlatongo","alternatenames":["Atlatongo","Santiago Atlatongo"],"latitude":"19.66776","longitude":"-98.90402","feature_class":"P","feature_code":"PPL","country_code":"MX","cc2":"","admin1_code":"17","admin2_code":"","admin3_code":"","admin4_code":"","population":"4983","elevation":"","dem":"2263","timezone":"America/Mexico_City","modification_date":"2014-04-30"},{"geonameid":"3532603","name":"Atlatlahucan","asciiname":"Atlatlahucan","alternatenames":["Atlatlahuacan","Atlatlahucan"],"latitude":"18.93537","longitude":"-98.89797","feature_class":"P","feature_code":"PPL","country_code":"MX","cc2":"","admin1_code":"17","admin2_code":"002","admin3_code":"","admin4_code":"","population":"7554","elevation":"","dem":"1642","timezone":"America/Mexico_City","modification_date":"2015-06-22"},{"geonameid":"3532808","name":"San Pedro Apatlaco","asciiname":"San Pedro Apatlaco","alternatenames":[""],"latitude":"18.79306","longitude":"-98.95972","feature_class":"P","feature_code":"PPL","country_code":"MX","cc2":"","admin1_code":"17","admin2_code":"004","admin3_code":"","admin4_code":"","population":"12630","elevation":"","dem":"1291","timezone":"America/Mexico_City","modification_date":"2013-08-01"},{"geonameid":"3532858","name":"Anenecuilco","asciiname":"Anenecuilco","alternatenames":["Anenecuilco"],"latitude":"18.76891","longitude":"-98.98841","feature_class":"P","feature_code":"PPL","country_code":"MX","cc2":"","admin1_code":"17","admin2_code":"004","admin3_code":"","admin4_code":"","population":"10295","elevation":"","dem":"1298","timezone":"America/Mexico_City","modification_date":"2015-06-22"},{"geonameid":"3532895","name":"San Miguel Ameyalco","asciiname":"San Miguel Ameyalco","alternatenames":["Ameyalco","San Miguel Ameyalco"],"latitude":"19.30681","longitude":"-99.4588","feature_class":"P","feature_code":"PPL","country_code":"MX","cc2":"","admin1_code":"17","admin2_code":"","admin3_code":"","admin4_code":"","population":"5022","elevation":"","dem":"2587","timezone":"America/Mexico_City","modification_date":"2014-09-05"},{"geonameid":"3532903","name":"Amayuca","asciiname":"Amayuca","alternatenames":[""],"latitude":"18.72371","longitude":"-98.79746","feature_class":"P","feature_code":"PPL","country_code":"MX","cc2":"","admin1_code":"17","admin2_code":"010","admin3_code":"","admin4_code":"","population":"4984","elevation":"","dem":"1440","timezone":"America/Mexico_City","modification_date":"2015-06-22"},{"geonameid":"3532951","name":"Amacuzac","asciiname":"Amacuzac","alternatenames":["Amacuzac"],"latitude":"18.59861","longitude":"-99.36944","feature_class":"P","feature_code":"PPL","country_code":"MX","cc2":"","admin1_code":"17","admin2_code":"001","admin3_code":"","admin4_code":"","population":"5368","elevation":"","dem":"922","timezone":"America/Mexico_City","modification_date":"2013-07-31"},{"geonameid":"3533020","name":"Alpuyeca","asciiname":"Alpuyeca","alternatenames":[""],"latitude":"18.74126","longitude":"-99.25943","feature_class":"P","feature_code":"PPL","country_code":"MX","cc2":"","admin1_code":"17","admin2_code":"028","admin3_code":"","admin4_code":"","population":"7811","elevation":"","dem":"1049","timezone":"America/Mexico_City","modification_date":"2015-06-22"},{"geonameid":"3533037","name":"Almoloya del Río","asciiname":"Almoloya del Rio","alternatenames":["Almoloya","Almoloya del Rio","Almoloya del Río","Almoloyita"],"latitude":"19.16046","longitude":"-99.4874","feature_class":"P","feature_code":"PPLA2","country_code":"MX","cc2":"","admin1_code":"17","admin2_code":"","admin3_code":"","admin4_code":"","population":"8995","elevation":"","dem":"2604","timezone":"America/Mexico_City","modification_date":"2014-09-05"},{"geonameid":"3533047","name":"San Miguel Almaya","asciiname":"San Miguel Almaya","alternatenames":["Almaya","San Miguel Almaya"],"latitude":"19.21047","longitude":"-99.44195","feature_class":"P","feature_code":"PPL","country_code":"MX","cc2":"","admin1_code":"17","admin2_code":"","admin3_code":"","admin4_code":"","population":"4810","elevation":"","dem":"2726","timezone":"America/Mexico_City","modification_date":"2014-09-05"},{"geonameid":"3533143","name":"Ahuehuetzingo","asciiname":"Ahuehuetzingo","alternatenames":["Ahuehuecingo"],"latitude":"18.68024","longitude":"-99.30834","feature_class":"P","feature_code":"PPL","country_code":"MX","cc2":"MX","admin1_code":"17","admin2_code":"017","admin3_code":"","admin4_code":"","population":"1198","elevation":"970","dem":"975","timezone":"America/Mexico_City","modification_date":"2015-06-22"},{"geonameid":"3533156","name":"Lomas de Ahuatepec","asciiname":"Lomas de Ahuatepec","alternatenames":[""],"latitude":"18.97139","longitude":"-99.18972","feature_class":"P","feature_code":"PPL","country_code":"MX","cc2":"","admin1_code":"17","admin2_code":"007","admin3_code":"","admin4_code":"","population":"1040","elevation":"","dem":"1739","timezone":"America/Mexico_City","modification_date":"2013-08-01"},{"geonameid":"3533417","name":"Achichipico","asciiname":"Achichipico","alternatenames":["Achichipico","Achichipilco"],"latitude":"18.94861","longitude":"-98.82611","feature_class":"P","feature_code":"PPL","country_code":"MX","cc2":"MX","admin1_code":"17","admin2_code":"030","admin3_code":"","admin4_code":"","population":"2288","elevation":"","dem":"1940","timezone":"America/Mexico_City","modification_date":"2013-08-01"},{"geonameid":"3533422","name":"San Jerónimo Acazulco","asciiname":"San Jeronimo Acazulco","alternatenames":["Acazulco","San Jeronimo Acazulco","San Jerónimo Acazulco"],"latitude":"19.26563","longitude":"-99.41629","feature_class":"P","feature_code":"PPL","country_code":"MX","cc2":"","admin1_code":"17","admin2_code":"","admin3_code":"","admin4_code":"","population":"5131","elevation":"","dem":"2754","timezone":"America/Mexico_City","modification_date":"2014-09-05"},{"geonameid":"3761664","name":"Higuerón","asciiname":"Higueron","alternatenames":[""],"latitude":"18.5775","longitude":"-99.18056","feature_class":"P","feature_code":"PPL","country_code":"MX","cc2":"","admin1_code":"17","admin2_code":"012","admin3_code":"","admin4_code":"","population":"4568","elevation":"","dem":"907","timezone":"America/Mexico_City","modification_date":"2013-08-03"},{"geonameid":"3761686","name":"Cuauhtempan (San Andrés Cuauhtempan)","asciiname":"Cuauhtempan (San Andres Cuauhtempan)","alternatenames":[""],"latitude":"18.97472","longitude":"-98.94639","feature_class":"P","feature_code":"PPL","country_code":"MX","cc2":"","admin1_code":"17","admin2_code":"026","admin3_code":"","admin4_code":"","population":"1320","elevation":"","dem":"1860","timezone":"America/Mexico_City","modification_date":"2013-08-01"},{"geonameid":"3761693","name":"Tlaltetelco (San Miguel Tlaltetelco)","asciiname":"Tlaltetelco (San Miguel Tlaltetelco)","alternatenames":[""],"latitude":"18.95222","longitude":"-98.88806","feature_class":"P","feature_code":"PPL","country_code":"MX","cc2":"","admin1_code":"17","admin2_code":"002","admin3_code":"","admin4_code":"","population":"1424","elevation":"","dem":"1715","timezone":"America/Mexico_City","modification_date":"2013-08-01"},{"geonameid":"3761710","name":"Huecahuasco","asciiname":"Huecahuasco","alternatenames":[""],"latitude":"18.93694","longitude":"-98.7825","feature_class":"P","feature_code":"PPL","country_code":"MX","cc2":"","admin1_code":"17","admin2_code":"016","admin3_code":"","admin4_code":"","population":"1785","elevation":"","dem":"2095","timezone":"America/Mexico_City","modification_date":"2013-07-31"},{"geonameid":"3817731","name":"Tezoyuca","asciiname":"Tezoyuca","alternatenames":["Tezoyuca","Villa Altezoyuca"],"latitude":"19.59283","longitude":"-98.91084","feature_class":"P","feature_code":"PPLA2","country_code":"MX","cc2":"","admin1_code":"17","admin2_code":"","admin3_code":"","admin4_code":"","population":"13504","elevation":"","dem":"2276","timezone":"America/Mexico_City","modification_date":"2014-04-30"},{"geonameid":"3827219","name":"Enthavi","asciiname":"Enthavi","alternatenames":["Enthavi"],"latitude":"19.49842","longitude":"-99.57502","feature_class":"P","feature_code":"PPL","country_code":"MX","cc2":"","admin1_code":"17","admin2_code":"","admin3_code":"","admin4_code":"","population":"4810","elevation":"","dem":"2803","timezone":"America/Mexico_City","modification_date":"2014-09-06"},{"geonameid":"3827254","name":"San Mateo Otzacatipan","asciiname":"San Mateo Otzacatipan","alternatenames":["San Mateo Otzacatipan"],"latitude":"19.33273","longitude":"-99.60345","feature_class":"P","feature_code":"PPL","country_code":"MX","cc2":"","admin1_code":"17","admin2_code":"","admin3_code":"","admin4_code":"","population":"18823","elevation":"","dem":"2603","timezone":"America/Mexico_City","modification_date":"2014-09-06"},{"geonameid":"3827267","name":"San Pedro Tultepec","asciiname":"San Pedro Tultepec","alternatenames":["San Pedro Tultepec"],"latitude":"19.26514","longitude":"-99.50934","feature_class":"P","feature_code":"PPL","country_code":"MX","cc2":"","admin1_code":"17","admin2_code":"","admin3_code":"","admin4_code":"","population":"12795","elevation":"","dem":"2592","timezone":"America/Mexico_City","modification_date":"2014-09-06"},{"geonameid":"3827273","name":"San Bartolomé Tlaltelulco","asciiname":"San Bartolome Tlaltelulco","alternatenames":["San Bartolome Tlaltelulco","San Bartolomé Tlaltelulco"],"latitude":"19.22738","longitude":"-99.62964","feature_class":"P","feature_code":"PPL","country_code":"MX","cc2":"","admin1_code":"17","admin2_code":"","admin3_code":"","admin4_code":"","population":"7354","elevation":"","dem":"2688","timezone":"America/Mexico_City","modification_date":"2014-09-06"},{"geonameid":"3827274","name":"San Juan Tilapa","asciiname":"San Juan Tilapa","alternatenames":["San Juan Tilapa"],"latitude":"19.22021","longitude":"-99.66012","feature_class":"P","feature_code":"PPL","country_code":"MX","cc2":"","admin1_code":"17","admin2_code":"","admin3_code":"","admin4_code":"","population":"8019","elevation":"","dem":"2785","timezone":"America/Mexico_City","modification_date":"2014-09-06"},{"geonameid":"3827278","name":"San Pedro Tlaltizapan","asciiname":"San Pedro Tlaltizapan","alternatenames":["San Pedro Tlaltizapan"],"latitude":"19.19973","longitude":"-99.49956","feature_class":"P","feature_code":"PPL","country_code":"MX","cc2":"","admin1_code":"17","admin2_code":"","admin3_code":"","admin4_code":"","population":"9620","elevation":"","dem":"2580","timezone":"America/Mexico_City","modification_date":"2014-09-06"},{"geonameid":"3827283","name":"San Andrés Ocotlán","asciiname":"San Andres Ocotlan","alternatenames":["San Andres Ocotlan","San Andrés Ocotlán"],"latitude":"19.19297","longitude":"-99.58612","feature_class":"P","feature_code":"PPL","country_code":"MX","cc2":"","admin1_code":"17","admin2_code":"","admin3_code":"","admin4_code":"","population":"5226","elevation":"","dem":"2612","timezone":"America/Mexico_City","modification_date":"2014-09-06"},{"geonameid":"3827299","name":"San Pedro Zictepec","asciiname":"San Pedro Zictepec","alternatenames":["San Pedro Zictepec"],"latitude":"19.03659","longitude":"-99.57771","feature_class":"P","feature_code":"PPL","country_code":"MX","cc2":"","admin1_code":"17","admin2_code":"","admin3_code":"","admin4_code":"","population":"5559","elevation":"","dem":"2572","timezone":"America/Mexico_City","modification_date":"2014-09-06"},{"geonameid":"3827335","name":"Santiago Tílapa","asciiname":"Santiago Tilapa","alternatenames":["Santiago Tilapa","Santiago Tílapa"],"latitude":"19.18953","longitude":"-99.42089","feature_class":"P","feature_code":"PPL","country_code":"MX","cc2":"","admin1_code":"17","admin2_code":"","admin3_code":"","admin4_code":"","population":"9676","elevation":"","dem":"2777","timezone":"America/Mexico_City","modification_date":"2014-09-06"},{"geonameid":"3827341","name":"Tres Marías","asciiname":"Tres Marias","alternatenames":["Tres Cumbres","Tres Marias","Tres Marías"],"latitude":"19.0549","longitude":"-99.24301","feature_class":"P","feature_code":"PPL","country_code":"MX","cc2":"","admin1_code":"17","admin2_code":"009","admin3_code":"","admin4_code":"","population":"5713","elevation":"","dem":"2812","timezone":"America/Mexico_City","modification_date":"2015-06-22"},{"geonameid":"3827368","name":"San Mateo Atarasquíllo","asciiname":"San Mateo Atarasquillo","alternatenames":["San Mateo Atarasquillo","San Mateo Atarasquíllo"],"latitude":"19.32304","longitude":"-99.46156","feature_class":"P","feature_code":"PPL","country_code":"MX","cc2":"","admin1_code":"17","admin2_code":"","admin3_code":"","admin4_code":"","population":"13556","elevation":"","dem":"2621","timezone":"America/Mexico_City","modification_date":"2014-09-06"},{"geonameid":"3827566","name":"San Pedro Xalpa","asciiname":"San Pedro Xalpa","alternatenames":["San Pedro Xalpa"],"latitude":"19.82666","longitude":"-99.18466","feature_class":"P","feature_code":"PPL","country_code":"MX","cc2":"","admin1_code":"17","admin2_code":"","admin3_code":"","admin4_code":"","population":"10444","elevation":"","dem":"2292","timezone":"America/Mexico_City","modification_date":"2014-06-05"},{"geonameid":"4008868","name":"El Oro de Hidalgo","asciiname":"El Oro de Hidalgo","alternatenames":["El Oro","El Oro Hidalgo","El Oro de Hidalgo","Oro de Hidalgo"],"latitude":"19.80272","longitude":"-100.13081","feature_class":"P","feature_code":"PPLA2","country_code":"MX","cc2":"","admin1_code":"17","admin2_code":"","admin3_code":"","admin4_code":"","population":"6805","elevation":"","dem":"2748","timezone":"America/Mexico_City","modification_date":"2014-11-05"},{"geonameid":"8858112","name":"Tres de Mayo","asciiname":"Tres de Mayo","alternatenames":["Tres de Mayo"],"latitude":"18.86861","longitude":"-99.20833","feature_class":"P","feature_code":"PPL","country_code":"MX","cc2":"","admin1_code":"17","admin2_code":"008","admin3_code":"","admin4_code":"","population":"17966","elevation":"","dem":"1379","timezone":"America/Mexico_City","modification_date":"2014-04-11"},{"geonameid":"8858125","name":"Progreso","asciiname":"Progreso","alternatenames":["Progreso"],"latitude":"18.88008","longitude":"-99.1526","feature_class":"P","feature_code":"PPL","country_code":"MX","cc2":"","admin1_code":"17","admin2_code":"011","admin3_code":"","admin4_code":"","population":"14525","elevation":"","dem":"1363","timezone":"America/Mexico_City","modification_date":"2014-04-11"},{"geonameid":"8858136","name":"Juan Morales","asciiname":"Juan Morales","alternatenames":["Juan Morales"],"latitude":"18.81139","longitude":"-98.92194","feature_class":"P","feature_code":"PPL","country_code":"MX","cc2":"","admin1_code":"17","admin2_code":"030","admin3_code":"","admin4_code":"","population":"12756","elevation":"","dem":"1367","timezone":"America/Mexico_City","modification_date":"2014-04-11"},{"geonameid":"8858154","name":"Unidad Habitacional José María Morelos y Pavón","asciiname":"Unidad Habitacional Jose Maria Morelos y Pavon","alternatenames":["Unidad Habitacional Jose Maria Morelos y Pavon","Unidad Habitacional José María Morelos y Pavón"],"latitude":"18.82028","longitude":"-99.26222","feature_class":"P","feature_code":"PPL","country_code":"MX","cc2":"","admin1_code":"17","admin2_code":"028","admin3_code":"","admin4_code":"","population":"10625","elevation":"","dem":"1273","timezone":"America/Mexico_City","modification_date":"2014-04-11"},{"geonameid":"8858171","name":"Fraccionamiento Lomas de Ahuatlán","asciiname":"Fraccionamiento Lomas de Ahuatlan","alternatenames":["Fraccionamiento Lomas de Ahuatlan","Fraccionamiento Lomas de Ahuatlán"],"latitude":"18.95444","longitude":"-99.25722","feature_class":"P","feature_code":"PPL","country_code":"MX","cc2":"","admin1_code":"17","admin2_code":"007","admin3_code":"","admin4_code":"","population":"8990","elevation":"","dem":"1745","timezone":"America/Mexico_City","modification_date":"2014-04-11"},{"geonameid":"8858185","name":"Tenextepango","asciiname":"Tenextepango","alternatenames":["Tenextepango"],"latitude":"18.72889","longitude":"-98.95778","feature_class":"P","feature_code":"PPL","country_code":"MX","cc2":"","admin1_code":"17","admin2_code":"004","admin3_code":"","admin4_code":"","population":"8083","elevation":"","dem":"1158","timezone":"America/Mexico_City","modification_date":"2014-04-11"},{"geonameid":"8858196","name":"Independencia","asciiname":"Independencia","alternatenames":["Independencia"],"latitude":"18.87716","longitude":"-99.12237","feature_class":"P","feature_code":"PPL","country_code":"MX","cc2":"","admin1_code":"17","admin2_code":"011","admin3_code":"","admin4_code":"","population":"7282","elevation":"","dem":"1446","timezone":"America/Mexico_City","modification_date":"2014-04-11"},{"geonameid":"8858199","name":"Chiconcuac","asciiname":"Chiconcuac","alternatenames":["Chiconcuac"],"latitude":"18.78278","longitude":"-99.20722","feature_class":"P","feature_code":"PPL","country_code":"MX","cc2":"","admin1_code":"17","admin2_code":"028","admin3_code":"","admin4_code":"","population":"7071","elevation":"","dem":"1153","timezone":"America/Mexico_City","modification_date":"2014-04-11"},{"geonameid":"8858250","name":"Pedro Amaro","asciiname":"Pedro Amaro","alternatenames":["Pedro Amaro"],"latitude":"18.59639","longitude":"-99.17306","feature_class":"P","feature_code":"PPL","country_code":"MX","cc2":"","admin1_code":"17","admin2_code":"012","admin3_code":"","admin4_code":"","population":"5551","elevation":"","dem":"917","timezone":"America/Mexico_City","modification_date":"2014-04-11"},{"geonameid":"8858252","name":"Los Arcos","asciiname":"Los Arcos","alternatenames":["Los Arcos"],"latitude":"18.88722","longitude":"-99.02417","feature_class":"P","feature_code":"PPL","country_code":"MX","cc2":"","admin1_code":"17","admin2_code":"029","admin3_code":"","admin4_code":"","population":"5446","elevation":"","dem":"1256","timezone":"America/Mexico_City","modification_date":"2014-04-11"},{"geonameid":"8858254","name":"Calera Chica","asciiname":"Calera Chica","alternatenames":["Calera Chica"],"latitude":"18.85833","longitude":"-99.18194","feature_class":"P","feature_code":"PPL","country_code":"MX","cc2":"","admin1_code":"17","admin2_code":"011","admin3_code":"","admin4_code":"","population":"5392","elevation":"","dem":"1316","timezone":"America/Mexico_City","modification_date":"2014-04-11"},{"geonameid":"8858326","name":"Peña Flores (Palo Verde)","asciiname":"Pena Flores (Palo Verde)","alternatenames":["Pena Flores (Palo Verde)","Peña Flores (Palo Verde)"],"latitude":"18.86722","longitude":"-98.96833","feature_class":"P","feature_code":"PPL","country_code":"MX","cc2":"","admin1_code":"17","admin2_code":"006","admin3_code":"","admin4_code":"","population":"3867","elevation":"","dem":"1352","timezone":"America/Mexico_City","modification_date":"2014-04-11"},{"geonameid":"8858368","name":"Zacualpan de Amilpas","asciiname":"Zacualpan de Amilpas","alternatenames":["Zacualpan de Amilpas"],"latitude":"18.78389","longitude":"-98.76583","feature_class":"P","feature_code":"PPL","country_code":"MX","cc2":"","admin1_code":"17","admin2_code":"032","admin3_code":"","admin4_code":"","population":"3492","elevation":"","dem":"1649","timezone":"America/Mexico_City","modification_date":"2014-04-11"},{"geonameid":"8858374","name":"Villa Santiago","asciiname":"Villa Santiago","alternatenames":["Villa Santiago"],"latitude":"18.97972","longitude":"-99.18528","feature_class":"P","feature_code":"PPL","country_code":"MX","cc2":"","admin1_code":"17","admin2_code":"007","admin3_code":"","admin4_code":"","population":"3408","elevation":"","dem":"1788","timezone":"America/Mexico_City","modification_date":"2014-04-11"},{"geonameid":"8858404","name":"Unidad Habitacional Rinconada Acolapa","asciiname":"Unidad Habitacional Rinconada Acolapa","alternatenames":["Unidad Habitacional Rinconada Acolapa"],"latitude":"18.89722","longitude":"-99.13139","feature_class":"P","feature_code":"PPL","country_code":"MX","cc2":"","admin1_code":"17","admin2_code":"020","admin3_code":"","admin4_code":"","population":"3205","elevation":"","dem":"1405","timezone":"America/Mexico_City","modification_date":"2014-04-11"},{"geonameid":"8858555","name":"Ninguno [Centro de Readaptación Social de Atlacholoaya]","asciiname":"Ninguno [Centro de Readaptacion Social de Atlacholoaya]","alternatenames":["Ninguno [Centro de Readaptacion Social de Atlacholoaya]","Ninguno [Centro de Readaptación Social de Atlacholoaya]"],"latitude":"18.75778","longitude":"-99.22944","feature_class":"P","feature_code":"PPL","country_code":"MX","cc2":"","admin1_code":"17","admin2_code":"028","admin3_code":"","admin4_code":"","population":"2487","elevation":"","dem":"1090","timezone":"America/Mexico_City","modification_date":"2014-04-11"},{"geonameid":"8858605","name":"Amacuitlapilco","asciiname":"Amacuitlapilco","alternatenames":["Amacuitlapilco"],"latitude":"18.69611","longitude":"-98.81167","feature_class":"P","feature_code":"PPL","country_code":"MX","cc2":"","admin1_code":"17","admin2_code":"013","admin3_code":"","admin4_code":"","population":"2332","elevation":"","dem":"1368","timezone":"America/Mexico_City","modification_date":"2014-04-11"},{"geonameid":"8858606","name":"Loma Bonita","asciiname":"Loma Bonita","alternatenames":["Loma Bonita"],"latitude":"18.93144","longitude":"-99.17564","feature_class":"P","feature_code":"PPL","country_code":"MX","cc2":"","admin1_code":"17","admin2_code":"020","admin3_code":"","admin4_code":"","population":"2332","elevation":"","dem":"1491","timezone":"America/Mexico_City","modification_date":"2014-04-11"},{"geonameid":"8858610","name":"San Juan Ahuehueyo","asciiname":"San Juan Ahuehueyo","alternatenames":["San Juan Ahuehueyo"],"latitude":"18.715","longitude":"-98.93278","feature_class":"P","feature_code":"PPL","country_code":"MX","cc2":"","admin1_code":"17","admin2_code":"004","admin3_code":"","admin4_code":"","population":"2325","elevation":"","dem":"1170","timezone":"America/Mexico_City","modification_date":"2014-04-11"},{"geonameid":"8858688","name":"Cliserio Alanís (San Gaspar)","asciiname":"Cliserio Alanis (San Gaspar)","alternatenames":["Cliserio Alanis (San Gaspar)","Cliserio Alanís (San Gaspar)"],"latitude":"18.86111","longitude":"-99.16","feature_class":"P","feature_code":"PPL","country_code":"MX","cc2":"","admin1_code":"17","admin2_code":"011","admin3_code":"","admin4_code":"","population":"2092","elevation":"","dem":"1313","timezone":"America/Mexico_City","modification_date":"2014-04-11"},{"geonameid":"8858698","name":"Alfredo V. Bonfil (Chacampalco)","asciiname":"Alfredo V. Bonfil (Chacampalco)","alternatenames":["Alfredo V. Bonfil (Chacampalco)"],"latitude":"18.65528","longitude":"-99.15417","feature_class":"P","feature_code":"PPL","country_code":"MX","cc2":"","admin1_code":"17","admin2_code":"025","admin3_code":"","admin4_code":"","population":"2068","elevation":"","dem":"944","timezone":"America/Mexico_City","modification_date":"2014-04-11"},{"geonameid":"8858750","name":"Constancio Farfán (La Pascuala)","asciiname":"Constancio Farfan (La Pascuala)","alternatenames":["Constancio Farfan (La Pascuala)","Constancio Farfán (La Pascuala)"],"latitude":"18.74194","longitude":"-98.95389","feature_class":"P","feature_code":"PPL","country_code":"MX","cc2":"","admin1_code":"17","admin2_code":"004","admin3_code":"","admin4_code":"","population":"1958","elevation":"","dem":"1213","timezone":"America/Mexico_City","modification_date":"2014-04-11"},{"geonameid":"8858753","name":"Abelardo L. Rodríguez","asciiname":"Abelardo L. Rodriguez","alternatenames":["Abelardo L. Rodriguez","Abelardo L. Rodríguez"],"latitude":"18.7375","longitude":"-98.98528","feature_class":"P","feature_code":"PPL","country_code":"MX","cc2":"","admin1_code":"17","admin2_code":"004","admin3_code":"","admin4_code":"","population":"1948","elevation":"","dem":"1170","timezone":"America/Mexico_City","modification_date":"2014-04-11"},{"geonameid":"8858797","name":"Marcelino Rodríguez (San Ignacio)","asciiname":"Marcelino Rodriguez (San Ignacio)","alternatenames":["Marcelino Rodriguez (San Ignacio)","Marcelino Rodríguez (San Ignacio)"],"latitude":"18.57889","longitude":"-98.74361","feature_class":"P","feature_code":"PPL","country_code":"MX","cc2":"","admin1_code":"17","admin2_code":"003","admin3_code":"","admin4_code":"","population":"1868","elevation":"","dem":"1115","timezone":"America/Mexico_City","modification_date":"2014-04-11"},{"geonameid":"8858800","name":"Fraccionamiento Universo","asciiname":"Fraccionamiento Universo","alternatenames":["Fraccionamiento Universo"],"latitude":"18.96167","longitude":"-99.18639","feature_class":"P","feature_code":"PPL","country_code":"MX","cc2":"","admin1_code":"17","admin2_code":"007","admin3_code":"","admin4_code":"","population":"1862","elevation":"","dem":"1638","timezone":"America/Mexico_City","modification_date":"2014-04-11"},{"geonameid":"8858822","name":"Olintepec","asciiname":"Olintepec","alternatenames":["Olintepec"],"latitude":"18.74056","longitude":"-98.98722","feature_class":"P","feature_code":"PPL","country_code":"MX","cc2":"","admin1_code":"17","admin2_code":"004","admin3_code":"","admin4_code":"","population":"1827","elevation":"","dem":"1176","timezone":"America/Mexico_City","modification_date":"2014-04-11"},{"geonameid":"8858893","name":"Zacapalco","asciiname":"Zacapalco","alternatenames":["Zacapalco"],"latitude":"18.63917","longitude":"-98.95944","feature_class":"P","feature_code":"PPL","country_code":"MX","cc2":"","admin1_code":"17","admin2_code":"019","admin3_code":"","admin4_code":"","population":"1714","elevation":"","dem":"1101","timezone":"America/Mexico_City","modification_date":"2014-04-11"},{"geonameid":"8858972","name":"Narciso Mendoza","asciiname":"Narciso Mendoza","alternatenames":["Narciso Mendoza"],"latitude":"18.87417","longitude":"-98.96972","feature_class":"P","feature_code":"PPL","country_code":"MX","cc2":"","admin1_code":"17","admin2_code":"006","admin3_code":"","admin4_code":"","population":"1612","elevation":"","dem":"1352","timezone":"America/Mexico_City","modification_date":"2014-04-11"},{"geonameid":"8859031","name":"Unidad Habitacional 10 de Abril","asciiname":"Unidad Habitacional 10 de Abril","alternatenames":["Unidad Habitacional 10 de Abril"],"latitude":"18.75444","longitude":"-98.91611","feature_class":"P","feature_code":"PPL","country_code":"MX","cc2":"","admin1_code":"17","admin2_code":"004","admin3_code":"","admin4_code":"","population":"1531","elevation":"","dem":"1293","timezone":"America/Mexico_City","modification_date":"2014-04-11"},{"geonameid":"8859056","name":"Lázaro Cárdenas (El Empalme)","asciiname":"Lazaro Cardenas (El Empalme)","alternatenames":["Lazaro Cardenas (El Empalme)","Lázaro Cárdenas (El Empalme)"],"latitude":"18.93222","longitude":"-99.02528","feature_class":"P","feature_code":"PPL","country_code":"MX","cc2":"","admin1_code":"17","admin2_code":"029","admin3_code":"","admin4_code":"","population":"1507","elevation":"","dem":"1285","timezone":"America/Mexico_City","modification_date":"2014-04-11"},{"geonameid":"8859094","name":"Puxtla","asciiname":"Puxtla","alternatenames":["Puxtla"],"latitude":"18.81","longitude":"-98.9825","feature_class":"P","feature_code":"PPL","country_code":"MX","cc2":"","admin1_code":"17","admin2_code":"006","admin3_code":"","admin4_code":"","population":"1476","elevation":"","dem":"1275","timezone":"America/Mexico_City","modification_date":"2014-04-11"},{"geonameid":"8859119","name":"Tetecolala","asciiname":"Tetecolala","alternatenames":["Tetecolala"],"latitude":"18.9225","longitude":"-99.16278","feature_class":"P","feature_code":"PPL","country_code":"MX","cc2":"","admin1_code":"17","admin2_code":"020","admin3_code":"","admin4_code":"","population":"1449","elevation":"","dem":"1443","timezone":"America/Mexico_City","modification_date":"2014-04-11"},{"geonameid":"8859168","name":"Colonia las Arboledas","asciiname":"Colonia las Arboledas","alternatenames":["Colonia las Arboledas"],"latitude":"18.78528","longitude":"-98.93972","feature_class":"P","feature_code":"PPL","country_code":"MX","cc2":"","admin1_code":"17","admin2_code":"004","admin3_code":"","admin4_code":"","population":"1409","elevation":"","dem":"1308","timezone":"America/Mexico_City","modification_date":"2014-04-11"},{"geonameid":"8859189","name":"El Mirador","asciiname":"El Mirador","alternatenames":["El Mirador"],"latitude":"18.77139","longitude":"-99.34139","feature_class":"P","feature_code":"PPL","country_code":"MX","cc2":"","admin1_code":"17","admin2_code":"015","admin3_code":"","admin4_code":"","population":"1392","elevation":"","dem":"1064","timezone":"America/Mexico_City","modification_date":"2014-04-11"},{"geonameid":"8859196","name":"San Andrés de la Cal","asciiname":"San Andres de la Cal","alternatenames":["San Andres de la Cal","San Andrés de la Cal"],"latitude":"18.95694","longitude":"-99.11444","feature_class":"P","feature_code":"PPL","country_code":"MX","cc2":"","admin1_code":"17","admin2_code":"020","admin3_code":"","admin4_code":"","population":"1383","elevation":"","dem":"1499","timezone":"America/Mexico_City","modification_date":"2014-04-11"},{"geonameid":"8859225","name":"Xochicalco (Cirenio Longares)","asciiname":"Xochicalco (Cirenio Longares)","alternatenames":["Xochicalco (Cirenio Longares)"],"latitude":"18.78722","longitude":"-99.29944","feature_class":"P","feature_code":"PPL","country_code":"MX","cc2":"","admin1_code":"17","admin2_code":"015","admin3_code":"","admin4_code":"","population":"1361","elevation":"","dem":"1183","timezone":"America/Mexico_City","modification_date":"2014-04-11"},{"geonameid":"8859254","name":"Ixtlilco el Chico","asciiname":"Ixtlilco el Chico","alternatenames":["Ixtlilco el Chico"],"latitude":"18.55833","longitude":"-98.84694","feature_class":"P","feature_code":"PPL","country_code":"MX","cc2":"","admin1_code":"17","admin2_code":"019","admin3_code":"","admin4_code":"","population":"1340","elevation":"","dem":"1101","timezone":"America/Mexico_City","modification_date":"2014-04-11"},{"geonameid":"8859255","name":"Ocoxaltepec","asciiname":"Ocoxaltepec","alternatenames":["Ocoxaltepec"],"latitude":"18.935","longitude":"-98.7525","feature_class":"P","feature_code":"PPL","country_code":"MX","cc2":"","admin1_code":"17","admin2_code":"016","admin3_code":"","admin4_code":"","population":"1338","elevation":"","dem":"2374","timezone":"America/Mexico_City","modification_date":"2014-04-11"},{"geonameid":"8859256","name":"Felipe Neri (Cuatepec)","asciiname":"Felipe Neri (Cuatepec)","alternatenames":["Felipe Neri (Cuatepec)"],"latitude":"19.03944","longitude":"-98.94361","feature_class":"P","feature_code":"PPL","country_code":"MX","cc2":"","admin1_code":"17","admin2_code":"023","admin3_code":"","admin4_code":"","population":"1338","elevation":"","dem":"2555","timezone":"America/Mexico_City","modification_date":"2014-04-11"},{"geonameid":"8859282","name":"Colonia Obrera","asciiname":"Colonia Obrera","alternatenames":["Colonia Obrera"],"latitude":"18.93167","longitude":"-99.03889","feature_class":"P","feature_code":"PPL","country_code":"MX","cc2":"","admin1_code":"17","admin2_code":"020","admin3_code":"","admin4_code":"","population":"1316","elevation":"","dem":"1290","timezone":"America/Mexico_City","modification_date":"2014-04-11"},{"geonameid":"8859337","name":"San Antonio Chiverías","asciiname":"San Antonio Chiverias","alternatenames":["San Antonio Chiverias","San Antonio Chiverías"],"latitude":"18.65222","longitude":"-99.22139","feature_class":"P","feature_code":"PPL","country_code":"MX","cc2":"","admin1_code":"17","admin2_code":"031","admin3_code":"","admin4_code":"","population":"1280","elevation":"","dem":"952","timezone":"America/Mexico_City","modification_date":"2014-04-11"},{"geonameid":"8859377","name":"Mixtlalcingo","asciiname":"Mixtlalcingo","alternatenames":["Mixtlalcingo"],"latitude":"18.80333","longitude":"-98.90028","feature_class":"P","feature_code":"PPL","country_code":"MX","cc2":"","admin1_code":"17","admin2_code":"030","admin3_code":"","admin4_code":"","population":"1257","elevation":"","dem":"1413","timezone":"America/Mexico_City","modification_date":"2014-04-11"},{"geonameid":"8859426","name":"Colonia Ángel Bocanegra (Adolfo López Mateos)","asciiname":"Colonia Angel Bocanegra (Adolfo Lopez Mateos)","alternatenames":["Colonia Angel Bocanegra (Adolfo Lopez Mateos)","Colonia Ángel Bocanegra (Adolfo López Mateos)"],"latitude":"18.92639","longitude":"-99.02972","feature_class":"P","feature_code":"PPL","country_code":"MX","cc2":"","admin1_code":"17","admin2_code":"020","admin3_code":"","admin4_code":"","population":"1235","elevation":"","dem":"1266","timezone":"America/Mexico_City","modification_date":"2014-04-11"},{"geonameid":"8859547","name":"Ignacio Bastida (Santa Catarina Tlayca)","asciiname":"Ignacio Bastida (Santa Catarina Tlayca)","alternatenames":["Ignacio Bastida (Santa Catarina Tlayca)"],"latitude":"18.94028","longitude":"-99.01444","feature_class":"P","feature_code":"PPL","country_code":"MX","cc2":"","admin1_code":"17","admin2_code":"029","admin3_code":"","admin4_code":"","population":"1164","elevation":"","dem":"1302","timezone":"America/Mexico_City","modification_date":"2014-04-11"},{"geonameid":"8859647","name":"Emiliano Zapata (Casahuates)","asciiname":"Emiliano Zapata (Casahuates)","alternatenames":["Emiliano Zapata (Casahuates)"],"latitude":"18.93056","longitude":"-98.95889","feature_class":"P","feature_code":"PPL","country_code":"MX","cc2":"","admin1_code":"17","admin2_code":"029","admin3_code":"","admin4_code":"","population":"1120","elevation":"","dem":"1518","timezone":"America/Mexico_City","modification_date":"2014-04-11"},{"geonameid":"8859688","name":"El Salitre","asciiname":"El Salitre","alternatenames":["El Salitre"],"latitude":"18.67583","longitude":"-98.95806","feature_class":"P","feature_code":"PPL","country_code":"MX","cc2":"","admin1_code":"17","admin2_code":"004","admin3_code":"","admin4_code":"","population":"1104","elevation":"","dem":"1147","timezone":"America/Mexico_City","modification_date":"2014-04-11"},{"geonameid":"8859772","name":"Colonia los Cerritos","asciiname":"Colonia los Cerritos","alternatenames":["Colonia los Cerritos"],"latitude":"18.95389","longitude":"-99.1925","feature_class":"P","feature_code":"PPL","country_code":"MX","cc2":"","admin1_code":"17","admin2_code":"007","admin3_code":"","admin4_code":"","population":"1068","elevation":"","dem":"1615","timezone":"America/Mexico_City","modification_date":"2014-04-11"},{"geonameid":"8859805","name":"Unidad Habitacional Mariano Matamoros","asciiname":"Unidad Habitacional Mariano Matamoros","alternatenames":["Unidad Habitacional Mariano Matamoros"],"latitude":"18.7475","longitude":"-98.85222","feature_class":"P","feature_code":"PPL","country_code":"MX","cc2":"","admin1_code":"17","admin2_code":"004","admin3_code":"","admin4_code":"","population":"1056","elevation":"","dem":"1435","timezone":"America/Mexico_City","modification_date":"2014-04-11"},{"geonameid":"8859813","name":"Tierra Larga (Campo Nuevo)","asciiname":"Tierra Larga (Campo Nuevo)","alternatenames":["Tierra Larga (Campo Nuevo)"],"latitude":"18.86444","longitude":"-98.94806","feature_class":"P","feature_code":"PPL","country_code":"MX","cc2":"","admin1_code":"17","admin2_code":"006","admin3_code":"","admin4_code":"","population":"1052","elevation":"","dem":"1382","timezone":"America/Mexico_City","modification_date":"2014-04-11"},{"geonameid":"8859825","name":"Coahuixtla","asciiname":"Coahuixtla","alternatenames":["Coahuixtla"],"latitude":"18.57417","longitude":"-99.37","feature_class":"P","feature_code":"PPL","country_code":"MX","cc2":"","admin1_code":"17","admin2_code":"001","admin3_code":"","admin4_code":"","population":"1046","elevation":"","dem":"929","timezone":"America/Mexico_City","modification_date":"2014-04-11"},{"geonameid":"8859907","name":"Colonia Palo Prieto (Chipitongo)","asciiname":"Colonia Palo Prieto (Chipitongo)","alternatenames":["Colonia Palo Prieto (Chipitongo)"],"latitude":"18.70417","longitude":"-99.11278","feature_class":"P","feature_code":"PPL","country_code":"MX","cc2":"","admin1_code":"17","admin2_code":"024","admin3_code":"","admin4_code":"","population":"1012","elevation":"","dem":"958","timezone":"America/Mexico_City","modification_date":"2014-04-11"},{"geonameid":"8859925","name":"Colonia el Florido","asciiname":"Colonia el Florido","alternatenames":["Colonia el Florido"],"latitude":"18.73833","longitude":"-99.36722","feature_class":"P","feature_code":"PPL","country_code":"MX","cc2":"","admin1_code":"17","admin2_code":"014","admin3_code":"","admin4_code":"","population":"1008","elevation":"","dem":"990","timezone":"America/Mexico_City","modification_date":"2014-04-11"},{"geonameid":"8859937","name":"Colonia San Francisco","asciiname":"Colonia San Francisco","alternatenames":["Colonia San Francisco"],"latitude":"18.89611","longitude":"-98.90361","feature_class":"P","feature_code":"PPL","country_code":"MX","cc2":"","admin1_code":"17","admin2_code":"002","admin3_code":"","admin4_code":"","population":"1004","elevation":"","dem":"1523","timezone":"America/Mexico_City","modification_date":"2014-04-11"}]}