{"region_data":{"adminCode1":"04","lng":"138.097","geonameId":2081175,"toponymName":"State of Yap","countryId":"2081918","fcl":"A","population":11241,"numberOfChildren":22,"countryCode":"FM","name":"State of Yap","fclName":"country, state, region,...","countryName":"Micronesia","fcodeName":"first-order administrative division","adminName1":"Yap","lat":"9.538","fcode":"ADM1"},"country_data":{"ISO":"FM","ISO3":"FSM","ISO_Numeric":"583","fips":"FM","country":"Micronesia","capital":"Palikir","area":"702","Population":"107708","Continent":"OC","tld":".fm","CurrencyCode":"USD","CurrencyName":"Dollar","Phone":"691","Postal_Code_Format":"#####","Postal_Code_Regex":"^(\\d{5})$","Languages":"en-FM,chk,pon,yap,kos,uli,woe,nkr,kpg","geonameid":"2081918","neighbours":"","EquivalentFipsCode":""},"cities":[{"geonameid":"4036933","name":"Rumung","asciiname":"Rumung","alternatenames":[""],"latitude":"9.622","longitude":"138.154","feature_class":"P","feature_code":"PPLA2","country_code":"FM","cc2":"","admin1_code":"04","admin2_code":"RM","admin3_code":"","admin4_code":"","population":"0","elevation":"0","dem":"38","timezone":"Pacific/Chuuk","modification_date":"2011-02-03"},{"geonameid":"7645723","name":"Satawal","asciiname":"Satawal","alternatenames":[""],"latitude":"7.382","longitude":"147.0322","feature_class":"P","feature_code":"PPLA2","country_code":"FM","cc2":"","admin1_code":"04","admin2_code":"SA","admin3_code":"","admin4_code":"","population":"0","elevation":"","dem":"9","timezone":"Pacific/Chuuk","modification_date":"2011-01-17"},{"geonameid":"7645726","name":"Lamotrek","asciiname":"Lamotrek","alternatenames":[""],"latitude":"7.491","longitude":"146.305","feature_class":"P","feature_code":"PPLA2","country_code":"FM","cc2":"","admin1_code":"04","admin2_code":"LA","admin3_code":"","admin4_code":"","population":"0","elevation":"","dem":"-9999","timezone":"Pacific/Chuuk","modification_date":"2011-01-12"},{"geonameid":"7645731","name":"Elato","asciiname":"Elato","alternatenames":[""],"latitude":"7.502","longitude":"146.166","feature_class":"P","feature_code":"PPLA2","country_code":"FM","cc2":"","admin1_code":"04","admin2_code":"EL","admin3_code":"","admin4_code":"","population":"0","elevation":"","dem":"-9999","timezone":"Pacific/Chuuk","modification_date":"2011-01-12"},{"geonameid":"7645749","name":"Faraulep","asciiname":"Faraulep","alternatenames":[""],"latitude":"8.588","longitude":"144.508","feature_class":"P","feature_code":"PPLA2","country_code":"FM","cc2":"","admin1_code":"04","admin2_code":"FP","admin3_code":"","admin4_code":"","population":"0","elevation":"","dem":"-9999","timezone":"Pacific/Chuuk","modification_date":"2011-01-12"},{"geonameid":"7645754","name":"Ifalik","asciiname":"Ifalik","alternatenames":[""],"latitude":"7.25","longitude":"144.4445","feature_class":"P","feature_code":"PPLA2","country_code":"FM","cc2":"","admin1_code":"04","admin2_code":"IF","admin3_code":"","admin4_code":"","population":"0","elevation":"","dem":"-9999","timezone":"Pacific/Chuuk","modification_date":"2011-01-12"},{"geonameid":"7645763","name":"Eauripik","asciiname":"Eauripik","alternatenames":[""],"latitude":"6.687","longitude":"143.0375","feature_class":"P","feature_code":"PPLA2","country_code":"FM","cc2":"","admin1_code":"04","admin2_code":"ER","admin3_code":"","admin4_code":"","population":"0","elevation":"","dem":"-9999","timezone":"Pacific/Chuuk","modification_date":"2011-01-12"},{"geonameid":"7645768","name":"Sorol","asciiname":"Sorol","alternatenames":[""],"latitude":"8.1435","longitude":"140.394","feature_class":"P","feature_code":"PPLA2","country_code":"FM","cc2":"","admin1_code":"04","admin2_code":"SO","admin3_code":"","admin4_code":"","population":"0","elevation":"","dem":"-9999","timezone":"Pacific/Chuuk","modification_date":"2011-01-12"},{"geonameid":"7645769","name":"Fais","asciiname":"Fais","alternatenames":[""],"latitude":"9.766","longitude":"140.52","feature_class":"P","feature_code":"PPLA2","country_code":"FM","cc2":"","admin1_code":"04","admin2_code":"FS","admin3_code":"","admin4_code":"","population":"215","elevation":"","dem":"20","timezone":"Pacific/Chuuk","modification_date":"2011-01-13"},{"geonameid":"7645772","name":"Ngulu","asciiname":"Ngulu","alternatenames":[""],"latitude":"8.45","longitude":"137.484","feature_class":"P","feature_code":"PPLA2","country_code":"FM","cc2":"","admin1_code":"04","admin2_code":"NG","admin3_code":"","admin4_code":"","population":"0","elevation":"","dem":"-9999","timezone":"Pacific/Chuuk","modification_date":"2011-01-12"},{"geonameid":"7648112","name":"Colonia","asciiname":"Colonia","alternatenames":["Colonia"],"latitude":"9.51638","longitude":"138.12167","feature_class":"P","feature_code":"PPLA","country_code":"FM","cc2":"","admin1_code":"04","admin2_code":"WE","admin3_code":"","admin4_code":"","population":"7371","elevation":"","dem":"10","timezone":"Pacific/Chuuk","modification_date":"2014-08-19"}]}