{"region_data":{"countryId":"2589581","adminCode1":"22","countryName":"Algeria","fclName":"country, state, region,...","countryCode":"DZ","lng":"3.66667","fcodeName":"first-order administrative division","toponymName":"Wilaya de Djelfa","fcl":"A","name":"Wilaya de Djelfa","fcode":"ADM1","geonameId":2500013,"lat":"34.33333","adminName1":"Djelfa","population":1092184},"country_data":{"ISO":"DZ","ISO3":"DZA","ISO_Numeric":"012","fips":"AG","country":"Algeria","capital":"Algiers","area":"2381740","Population":"34586184","Continent":"AF","tld":".dz","CurrencyCode":"DZD","CurrencyName":"Dinar","Phone":"213","Postal_Code_Format":"#####","Postal_Code_Regex":"^(\\d{5})$","Languages":"ar-DZ","geonameid":"2589581","neighbours":"NE,EH,LY,MR,TN,MA,ML","EquivalentFipsCode":""},"cities":[{"geonameid":"2487772","name":"Messaad","asciiname":"Messaad","alternatenames":["Messaad","Messad","Мессад"],"latitude":"34.15429","longitude":"3.50309","feature_class":"P","feature_code":"PPL","country_code":"DZ","cc2":"","admin1_code":"22","admin2_code":"","admin3_code":"","admin4_code":"","population":"99485","elevation":"","dem":"777","timezone":"Africa/Algiers","modification_date":"2012-01-19"},{"geonameid":"2498000","name":"El Idrissia","asciiname":"El Idrissia","alternatenames":["El Idrissia","Zenina"],"latitude":"34.44542","longitude":"2.52749","feature_class":"P","feature_code":"PPL","country_code":"DZ","cc2":"","admin1_code":"22","admin2_code":"","admin3_code":"","admin4_code":"","population":"38714","elevation":"","dem":"1070","timezone":"Africa/Algiers","modification_date":"2012-01-19"},{"geonameid":"2500017","name":"Djelfa","asciiname":"Djelfa","alternatenames":["Djelfa","Dzilfa","Dżilfa","Jelfa","QDJ","jlfh","wlayt aljlft","جلفه","ولاية الجلفة"],"latitude":"34.67279","longitude":"3.263","feature_class":"P","feature_code":"PPLA","country_code":"DZ","cc2":"","admin1_code":"22","admin2_code":"","admin3_code":"","admin4_code":"","population":"154265","elevation":"","dem":"1138","timezone":"Africa/Algiers","modification_date":"2013-08-04"},{"geonameid":"2500904","name":"Dar Chioukh","asciiname":"Dar Chioukh","alternatenames":["Dar Chioukh","Diar el Chioukh"],"latitude":"34.89638","longitude":"3.48543","feature_class":"P","feature_code":"PPL","country_code":"DZ","cc2":"","admin1_code":"22","admin2_code":"","admin3_code":"","admin4_code":"","population":"54022","elevation":"","dem":"1094","timezone":"Africa/Algiers","modification_date":"2012-01-19"},{"geonameid":"2501767","name":"Charef","asciiname":"Charef","alternatenames":["Charef","Charet"],"latitude":"34.62098","longitude":"2.79503","feature_class":"P","feature_code":"PPL","country_code":"DZ","cc2":"","admin1_code":"22","admin2_code":"","admin3_code":"","admin4_code":"","population":"27700","elevation":"","dem":"1157","timezone":"Africa/Algiers","modification_date":"2012-01-19"},{"geonameid":"2503852","name":"Birine","asciiname":"Birine","alternatenames":["Birin","Birine"],"latitude":"35.635","longitude":"3.225","feature_class":"P","feature_code":"PPL","country_code":"DZ","cc2":"","admin1_code":"22","admin2_code":"","admin3_code":"","admin4_code":"","population":"51209","elevation":"","dem":"736","timezone":"Africa/Algiers","modification_date":"2012-01-19"},{"geonameid":"2507972","name":"Aïn Oussera","asciiname":"Ain Oussera","alternatenames":["Ain Oussera","Aïn Oussera","El Oussera","Paul Cazelles"],"latitude":"35.45139","longitude":"2.90583","feature_class":"P","feature_code":"PPL","country_code":"DZ","cc2":"","admin1_code":"22","admin2_code":"","admin3_code":"","admin4_code":"","population":"118687","elevation":"","dem":"685","timezone":"Africa/Algiers","modification_date":"2012-01-19"},{"geonameid":"2508184","name":"’Aïn el Bell","asciiname":"'Ain el Bell","alternatenames":["'Ain el Bell","Ain el Ibel","Ajn-ehl'-Bella","Aïn el Ibel","Fontaine des Chameaux","Айн-эль-Белла","’Aïn el Bell"],"latitude":"34.34381","longitude":"3.22475","feature_class":"P","feature_code":"PPL","country_code":"DZ","cc2":"","admin1_code":"22","admin2_code":"","admin3_code":"","admin4_code":"","population":"31916","elevation":"","dem":"1008","timezone":"Africa/Algiers","modification_date":"2012-01-19"}]}