{"region_data":{"countryId":"2589581","adminCode1":"12","countryName":"Algeria","fclName":"country, state, region,...","countryCode":"DZ","lng":"5.5","fcodeName":"first-order administrative division","toponymName":"Wilaya de Sétif","fcl":"A","name":"Wilaya de Sétif","fcode":"ADM1","geonameId":2481696,"lat":"36.16667","adminName1":"Sétif","population":1489979},"country_data":{"ISO":"DZ","ISO3":"DZA","ISO_Numeric":"012","fips":"AG","country":"Algeria","capital":"Algiers","area":"2381740","Population":"34586184","Continent":"AF","tld":".dz","CurrencyCode":"DZD","CurrencyName":"Dinar","Phone":"213","Postal_Code_Format":"#####","Postal_Code_Regex":"^(\\d{5})$","Languages":"ar-DZ","geonameid":"2589581","neighbours":"NE,EH,LY,MR,TN,MA,ML","EquivalentFipsCode":""},"cities":[{"geonameid":"2481700","name":"Sétif","asciiname":"Setif","alternatenames":["Gorad Setyf","QSF","Sathif","Satif","Setif","Setifas","Sitifis","Stif","Sétif","sai ti fu","setifu","setipeu","stf","styf","styp","wlayt styf","Горад Сетыф","Сетиф","Сетиф қаласы","Сетіф","סטיף","سطف","سطيف","ولاية سطيف","Ṣṭif","セティフ","塞提夫","세티프"],"latitude":"36.19112","longitude":"5.41373","feature_class":"P","feature_code":"PPLA","country_code":"DZ","cc2":"","admin1_code":"12","admin2_code":"","admin3_code":"","admin4_code":"","population":"288461","elevation":"","dem":"1096","timezone":"Africa/Algiers","modification_date":"2013-08-04"},{"geonameid":"2482447","name":"Salah Bey","asciiname":"Salah Bey","alternatenames":["Dzeira","Pascal","Salah Bey"],"latitude":"35.85451","longitude":"5.29053","feature_class":"P","feature_code":"PPL","country_code":"DZ","cc2":"","admin1_code":"12","admin2_code":"","admin3_code":"","admin4_code":"","population":"23339","elevation":"","dem":"976","timezone":"Africa/Algiers","modification_date":"2012-01-19"},{"geonameid":"2498392","name":"El Eulma","asciiname":"El Eulma","alternatenames":["El Eulma","Saint-Arnaud","ZAE"],"latitude":"36.15281","longitude":"5.69016","feature_class":"P","feature_code":"PPL","country_code":"DZ","cc2":"","admin1_code":"12","admin2_code":"","admin3_code":"","admin4_code":"","population":"128351","elevation":"","dem":"959","timezone":"Africa/Algiers","modification_date":"2012-01-19"},{"geonameid":"2503156","name":"Bougaa","asciiname":"Bougaa","alternatenames":["Bougaa","Lafayette"],"latitude":"36.33293","longitude":"5.08843","feature_class":"P","feature_code":"PPL","country_code":"DZ","cc2":"","admin1_code":"12","admin2_code":"","admin3_code":"","admin4_code":"","population":"38597","elevation":"","dem":"859","timezone":"Africa/Algiers","modification_date":"2012-01-19"},{"geonameid":"2508297","name":"Aïn Arnat","asciiname":"Ain Arnat","alternatenames":["Ain Arnat","Aine Arnat","Arnat","Aïn Arnat","Aïne Arnat","ʿyn arnat","عين أرنات"],"latitude":"36.18683","longitude":"5.31347","feature_class":"P","feature_code":"PPL","country_code":"DZ","cc2":"","admin1_code":"12","admin2_code":"","admin3_code":"","admin4_code":"","population":"35088","elevation":"","dem":"1022","timezone":"Africa/Algiers","modification_date":"2013-05-11"},{"geonameid":"6698360","name":"BABOR - VILLE","asciiname":"BABOR - VILLE","alternatenames":[""],"latitude":"36.48994","longitude":"5.5393","feature_class":"P","feature_code":"PPL","country_code":"DZ","cc2":"","admin1_code":"12","admin2_code":"","admin3_code":"","admin4_code":"","population":"33000","elevation":"1000","dem":"944","timezone":"Africa/Algiers","modification_date":"2008-12-12"}]}