{"region_data":{"countryId":"2589581","adminCode1":"21","countryName":"Algeria","fclName":"country, state, region,...","countryCode":"DZ","lng":"3.91667","fcodeName":"first-order administrative division","toponymName":"Wilaya de Bouira","fcl":"A","name":"Wilaya de Bouira","fcode":"ADM1","geonameId":2502951,"lat":"36.25","adminName1":"Bouira","population":695583},"country_data":{"ISO":"DZ","ISO3":"DZA","ISO_Numeric":"012","fips":"AG","country":"Algeria","capital":"Algiers","area":"2381740","Population":"34586184","Continent":"AF","tld":".dz","CurrencyCode":"DZD","CurrencyName":"Dinar","Phone":"213","Postal_Code_Format":"#####","Postal_Code_Regex":"^(\\d{5})$","Languages":"ar-DZ","geonameid":"2589581","neighbours":"NE,EH,LY,MR,TN,MA,ML","EquivalentFipsCode":""},"cities":[{"geonameid":"2479161","name":"Sour el Ghozlane","asciiname":"Sour el Ghozlane","alternatenames":["Aumale","Aumale-d'Algerie","Aumale-d’Algérie","Aumate","Sour el Ghozlane"],"latitude":"36.14766","longitude":"3.69123","feature_class":"P","feature_code":"PPL","country_code":"DZ","cc2":"","admin1_code":"21","admin2_code":"","admin3_code":"","admin4_code":"","population":"50204","elevation":"","dem":"884","timezone":"Africa/Algiers","modification_date":"2012-01-19"},{"geonameid":"2491134","name":"Lakhdaria","asciiname":"Lakhdaria","alternatenames":["Lakhdaria","Palestro"],"latitude":"36.56463","longitude":"3.5933","feature_class":"P","feature_code":"PPL","country_code":"DZ","cc2":"","admin1_code":"21","admin2_code":"","admin3_code":"","admin4_code":"","population":"56719","elevation":"","dem":"171","timezone":"Africa/Algiers","modification_date":"2012-01-19"},{"geonameid":"2499104","name":"Draa el Mizan","asciiname":"Draa el Mizan","alternatenames":["Dra el Mizan","Dra el Mizane","Dra-ehl'-Mizan","Draa el Mizan","ZZD","Дра-эль-Мизан"],"latitude":"36.53628","longitude":"3.8334","feature_class":"P","feature_code":"PPL","country_code":"DZ","cc2":"","admin1_code":"21","admin2_code":"","admin3_code":"","admin4_code":"","population":"41263","elevation":"","dem":"410","timezone":"Africa/Algiers","modification_date":"2012-01-19"},{"geonameid":"2501289","name":"Chorfa","asciiname":"Chorfa","alternatenames":["Cheurfa","Chorfa","Чорфа"],"latitude":"36.36505","longitude":"4.32636","feature_class":"P","feature_code":"PPL","country_code":"DZ","cc2":"","admin1_code":"21","admin2_code":"","admin3_code":"","admin4_code":"","population":"20556","elevation":"","dem":"342","timezone":"Africa/Algiers","modification_date":"2012-01-19"},{"geonameid":"2502958","name":"Bouïra","asciiname":"Bouira","alternatenames":["Bouira","Bouïra","QBZ"],"latitude":"36.37489","longitude":"3.902","feature_class":"P","feature_code":"PPLA","country_code":"DZ","cc2":"","admin1_code":"21","admin2_code":"","admin3_code":"","admin4_code":"","population":"52500","elevation":"","dem":"519","timezone":"Africa/Algiers","modification_date":"2013-08-04"},{"geonameid":"2508268","name":"Aïn Bessem","asciiname":"Ain Bessem","alternatenames":["Ain Bessem","Aïn Bessem"],"latitude":"36.29333","longitude":"3.67319","feature_class":"P","feature_code":"PPL","country_code":"DZ","cc2":"","admin1_code":"21","admin2_code":"","admin3_code":"","admin4_code":"","population":"29461","elevation":"","dem":"677","timezone":"Africa/Algiers","modification_date":"2013-04-04"}]}