{"region_data":{"countryId":"3608932","adminCode1":"12","countryName":"Honduras","fclName":"country, state, region,...","countryCode":"HN","lng":"-87.91667","fcodeName":"first-order administrative division","toponymName":"Departamento de La Paz","fcl":"A","numberOfChildren":19,"name":"Departamento de La Paz","fcode":"ADM1","geonameId":3607251,"lat":"14.08333","adminName1":"La Paz","population":0},"country_data":{"ISO":"HN","ISO3":"HND","ISO_Numeric":"340","fips":"HO","country":"Honduras","capital":"Tegucigalpa","area":"112090","Population":"7989415","Continent":"NA","tld":".hn","CurrencyCode":"HNL","CurrencyName":"Lempira","Phone":"504","Postal_Code_Format":"@@####","Postal_Code_Regex":"^([A-Z]{2}\\d{4})$","Languages":"es-HN","geonameid":"3608932","neighbours":"GT,NI,SV","EquivalentFipsCode":""},"cities":[{"geonameid":"3600232","name":"Yarumela","asciiname":"Yarumela","alternatenames":[""],"latitude":"14.33333","longitude":"-87.63333","feature_class":"P","feature_code":"PPL","country_code":"HN","cc2":"","admin1_code":"12","admin2_code":"","admin3_code":"","admin4_code":"","population":"3059","elevation":"","dem":"593","timezone":"America/Tegucigalpa","modification_date":"2006-01-17"},{"geonameid":"3600906","name":"Tepanguare","asciiname":"Tepanguare","alternatenames":["Tepanguara","Tepanguare"],"latitude":"14.33333","longitude":"-87.75","feature_class":"P","feature_code":"PPL","country_code":"HN","cc2":"","admin1_code":"12","admin2_code":"","admin3_code":"","admin4_code":"","population":"1040","elevation":"","dem":"1672","timezone":"America/Tegucigalpa","modification_date":"2012-01-18"},{"geonameid":"3601462","name":"Santiago Puringla","asciiname":"Santiago Puringla","alternatenames":["Santiago Puringla","Santiago de Puringla"],"latitude":"14.35","longitude":"-87.9","feature_class":"P","feature_code":"PPL","country_code":"HN","cc2":"","admin1_code":"12","admin2_code":"","admin3_code":"","admin4_code":"","population":"2433","elevation":"","dem":"1036","timezone":"America/Tegucigalpa","modification_date":"2012-01-18"},{"geonameid":"3601784","name":"San Pedro de Tutule","asciiname":"San Pedro de Tutule","alternatenames":["San Pedro Tutule","San Pedro de Tutule","Tutule"],"latitude":"14.25","longitude":"-87.85","feature_class":"P","feature_code":"PPL","country_code":"HN","cc2":"","admin1_code":"12","admin2_code":"","admin3_code":"","admin4_code":"","population":"1876","elevation":"","dem":"1257","timezone":"America/Tegucigalpa","modification_date":"2012-01-18"},{"geonameid":"3602137","name":"San José","asciiname":"San Jose","alternatenames":["San Jose","San José"],"latitude":"14.25","longitude":"-87.95","feature_class":"P","feature_code":"PPL","country_code":"HN","cc2":"","admin1_code":"12","admin2_code":"","admin3_code":"","admin4_code":"","population":"1463","elevation":"","dem":"1333","timezone":"America/Tegucigalpa","modification_date":"2013-04-04"},{"geonameid":"3602428","name":"San Antonio del Norte","asciiname":"San Antonio del Norte","alternatenames":["San Antonio Norte","San Antonio del Norte"],"latitude":"13.88444","longitude":"-87.70306","feature_class":"P","feature_code":"PPL","country_code":"HN","cc2":"","admin1_code":"12","admin2_code":"","admin3_code":"","admin4_code":"","population":"1002","elevation":"","dem":"301","timezone":"America/Tegucigalpa","modification_date":"2012-01-18"},{"geonameid":"3605005","name":"Marcala","asciiname":"Marcala","alternatenames":["MRJ","Marcala"],"latitude":"14.15","longitude":"-88.03333","feature_class":"P","feature_code":"PPL","country_code":"HN","cc2":"","admin1_code":"12","admin2_code":"","admin3_code":"","admin4_code":"","population":"10054","elevation":"","dem":"1248","timezone":"America/Tegucigalpa","modification_date":"2012-05-06"},{"geonameid":"3605382","name":"Los Planes","asciiname":"Los Planes","alternatenames":["Los Planes","Planes"],"latitude":"14.05","longitude":"-88.01667","feature_class":"P","feature_code":"PPL","country_code":"HN","cc2":"","admin1_code":"12","admin2_code":"","admin3_code":"","admin4_code":"","population":"1320","elevation":"","dem":"1811","timezone":"America/Tegucigalpa","modification_date":"2012-01-18"},{"geonameid":"3607254","name":"La Paz","asciiname":"La Paz","alternatenames":["La Paz"],"latitude":"14.31944","longitude":"-87.67917","feature_class":"P","feature_code":"PPLA","country_code":"HN","cc2":"","admin1_code":"12","admin2_code":"","admin3_code":"","admin4_code":"","population":"17555","elevation":"","dem":"688","timezone":"America/Tegucigalpa","modification_date":"2013-01-10"},{"geonameid":"3614218","name":"Cane","asciiname":"Cane","alternatenames":["Cane"],"latitude":"14.28333","longitude":"-87.66667","feature_class":"P","feature_code":"PPL","country_code":"HN","cc2":"","admin1_code":"12","admin2_code":"","admin3_code":"","admin4_code":"","population":"2190","elevation":"","dem":"659","timezone":"America/Tegucigalpa","modification_date":"2012-05-06"}]}