{"region_data":{"countryId":"1227603","adminCode1":"36","countryName":"Sri Lanka","fclName":"country, state, region,...","countryCode":"LK","lng":"80.08333","fcodeName":"first-order administrative division","toponymName":"Western Province","fcl":"A","numberOfChildren":3,"name":"Western Province","fcode":"ADM1","geonameId":1223421,"lat":"6.83333","adminName1":"Western","population":0},"country_data":{"ISO":"LK","ISO3":"LKA","ISO_Numeric":"144","fips":"CE","country":"Sri Lanka","capital":"Colombo","area":"65610","Population":"21513990","Continent":"AS","tld":".lk","CurrencyCode":"LKR","CurrencyName":"Rupee","Phone":"94","Postal_Code_Format":"#####","Postal_Code_Regex":"^(\\d{5})$","Languages":"si,ta,en","geonameid":"1227603","neighbours":"","EquivalentFipsCode":""},"cities":[{"geonameid":"1223648","name":"Welisara","asciiname":"Welisara","alternatenames":[""],"latitude":"7.0281","longitude":"79.9014","feature_class":"P","feature_code":"PPL","country_code":"LK","cc2":"","admin1_code":"36","admin2_code":"","admin3_code":"","admin4_code":"","population":"41306","elevation":"","dem":"11","timezone":"Asia/Colombo","modification_date":"2006-01-27"},{"geonameid":"1224085","name":"Wattala","asciiname":"Wattala","alternatenames":["Wattala"],"latitude":"6.9779","longitude":"79.8898","feature_class":"P","feature_code":"PPL","country_code":"LK","cc2":"","admin1_code":"36","admin2_code":"","admin3_code":"","admin4_code":"","population":"30725","elevation":"","dem":"9","timezone":"Asia/Colombo","modification_date":"2012-01-17"},{"geonameid":"1230089","name":"Pita Kotte","asciiname":"Pita Kotte","alternatenames":[""],"latitude":"6.8905","longitude":"79.9015","feature_class":"P","feature_code":"PPL","country_code":"LK","cc2":"","admin1_code":"36","admin2_code":"","admin3_code":"","admin4_code":"","population":"118179","elevation":"","dem":"20","timezone":"Asia/Colombo","modification_date":"2006-01-17"},{"geonameid":"1230613","name":"Peliyagoda","asciiname":"Peliyagoda","alternatenames":["Peliyagoda"],"latitude":"6.9685","longitude":"79.8836","feature_class":"P","feature_code":"PPL","country_code":"LK","cc2":"","admin1_code":"36","admin2_code":"","admin3_code":"","admin4_code":"","population":"30717","elevation":"","dem":"7","timezone":"Asia/Colombo","modification_date":"2012-01-17"},{"geonameid":"1231410","name":"Panadura","asciiname":"Panadura","alternatenames":["Panadura","Panadure","Pandura"],"latitude":"6.7132","longitude":"79.9026","feature_class":"P","feature_code":"PPL","country_code":"LK","cc2":"","admin1_code":"36","admin2_code":"","admin3_code":"","admin4_code":"","population":"33735","elevation":"","dem":"10","timezone":"Asia/Colombo","modification_date":"2012-01-17"},{"geonameid":"1233369","name":"Negombo","asciiname":"Negombo","alternatenames":["Negombas","Negombo","nei gong bo","nigonbo","nirkolumpu","Негомбо","நீர்கொழும்பு","මීගමුව","ニゴンボ","內貢博"],"latitude":"7.2083","longitude":"79.8358","feature_class":"P","feature_code":"PPL","country_code":"LK","cc2":"","admin1_code":"36","admin2_code":"","admin3_code":"","admin4_code":"","population":"137223","elevation":"","dem":"8","timezone":"Asia/Colombo","modification_date":"2012-01-17"},{"geonameid":"1234378","name":"Mulleriyawa","asciiname":"Mulleriyawa","alternatenames":[""],"latitude":"6.933","longitude":"79.9297","feature_class":"P","feature_code":"PPL","country_code":"LK","cc2":"","admin1_code":"36","admin2_code":"","admin3_code":"","admin4_code":"","population":"33540","elevation":"","dem":"8","timezone":"Asia/Colombo","modification_date":"2006-01-17"},{"geonameid":"1234633","name":"Moratuwa","asciiname":"Moratuwa","alternatenames":["Moratuwa"],"latitude":"6.773","longitude":"79.8816","feature_class":"P","feature_code":"PPL","country_code":"LK","cc2":"","admin1_code":"36","admin2_code":"","admin3_code":"","admin4_code":"","population":"185031","elevation":"","dem":"10","timezone":"Asia/Colombo","modification_date":"2012-01-17"},{"geonameid":"1235000","name":"Minuwangoda","asciiname":"Minuwangoda","alternatenames":["Minuwangoda"],"latitude":"7.1663","longitude":"79.9533","feature_class":"P","feature_code":"PPL","country_code":"LK","cc2":"","admin1_code":"36","admin2_code":"","admin3_code":"","admin4_code":"","population":"7772","elevation":"","dem":"18","timezone":"Asia/Colombo","modification_date":"2012-01-17"},{"geonameid":"1236854","name":"Maharagama","asciiname":"Maharagama","alternatenames":["Maharagama"],"latitude":"6.848","longitude":"79.9265","feature_class":"P","feature_code":"PPL","country_code":"LK","cc2":"","admin1_code":"36","admin2_code":"","admin3_code":"","admin4_code":"","population":"66576","elevation":"","dem":"26","timezone":"Asia/Colombo","modification_date":"2012-01-17"},{"geonameid":"1238992","name":"Sri Jayewardenepura Kotte","asciiname":"Sri Jayewardenepura Kotte","alternatenames":["DWO","Kolompo","Kotte","New Capital Territory","Shri-Dzhajavardenepura-Kotte","Sri Dzajavardenepura","Sri Jayavardhanapura","Sri Jayawardenapura","Sri Jayawardenepura","Sri Jayawardenepura Kotte","Sri Jayewardanapura Kotte","Sri Jayewardanepura","Sri Jayewardanepura Kotte","Sri Jayewardenepura Kotte","kotte","seulijayawaleudanapula","surijayawarudanapurakotte","Šri Džajavardenepura","Κολόμπο","Шри-Джаяварденепура-Котте","கோட்டே","スリジャヤワルダナプラコッテ","스리자야와르다나푸라"],"latitude":"6.88297","longitude":"79.90708","feature_class":"P","feature_code":"PPL","country_code":"LK","cc2":"","admin1_code":"36","admin2_code":"","admin3_code":"","admin4_code":"","population":"115826","elevation":"","dem":"27","timezone":"Asia/Colombo","modification_date":"2015-04-24"},{"geonameid":"1239047","name":"Kotikawatta","asciiname":"Kotikawatta","alternatenames":["Kotikawatta"],"latitude":"6.9269","longitude":"79.9095","feature_class":"P","feature_code":"PPL","country_code":"LK","cc2":"","admin1_code":"36","admin2_code":"","admin3_code":"","admin4_code":"","population":"64565","elevation":"","dem":"16","timezone":"Asia/Colombo","modification_date":"2013-04-03"},{"geonameid":"1239593","name":"Kolonnawa","asciiname":"Kolonnawa","alternatenames":["Kolonnawa"],"latitude":"6.9329","longitude":"79.8848","feature_class":"P","feature_code":"PPL","country_code":"LK","cc2":"","admin1_code":"36","admin2_code":"","admin3_code":"","admin4_code":"","population":"58076","elevation":"","dem":"20","timezone":"Asia/Colombo","modification_date":"2012-01-17"},{"geonameid":"1240622","name":"Kelaniya","asciiname":"Kelaniya","alternatenames":["Kelanai","Kelaniya"],"latitude":"6.9553","longitude":"79.922","feature_class":"P","feature_code":"PPL","country_code":"LK","cc2":"","admin1_code":"36","admin2_code":"","admin3_code":"","admin4_code":"","population":"28846","elevation":"","dem":"10","timezone":"Asia/Colombo","modification_date":"2013-04-13"},{"geonameid":"1240935","name":"Katunayaka","asciiname":"Katunayaka","alternatenames":["Katunayaka","Katunayaka North","Katunayake"],"latitude":"7.16992","longitude":"79.88837","feature_class":"P","feature_code":"PPLA3","country_code":"LK","cc2":"","admin1_code":"36","admin2_code":"","admin3_code":"","admin4_code":"","population":"84643","elevation":"","dem":"13","timezone":"Asia/Colombo","modification_date":"2014-08-05"},{"geonameid":"1241750","name":"Kandana","asciiname":"Kandana","alternatenames":["Kandana"],"latitude":"7.048","longitude":"79.8937","feature_class":"P","feature_code":"PPL","country_code":"LK","cc2":"","admin1_code":"36","admin2_code":"","admin3_code":"","admin4_code":"","population":"33424","elevation":"","dem":"9","timezone":"Asia/Colombo","modification_date":"2012-01-17"},{"geonameid":"1241964","name":"Kalutara","asciiname":"Kalutara","alternatenames":["KTY","Kalutara","Kalutara South","Калутара"],"latitude":"6.5831","longitude":"79.9593","feature_class":"P","feature_code":"PPL","country_code":"LK","cc2":"","admin1_code":"36","admin2_code":"","admin3_code":"","admin4_code":"","population":"38000","elevation":"","dem":"7","timezone":"Asia/Colombo","modification_date":"2014-02-02"},{"geonameid":"1242835","name":"Ja Ela","asciiname":"Ja Ela","alternatenames":[""],"latitude":"7.0744","longitude":"79.8919","feature_class":"P","feature_code":"PPL","country_code":"LK","cc2":"","admin1_code":"36","admin2_code":"","admin3_code":"","admin4_code":"","population":"32175","elevation":"","dem":"13","timezone":"Asia/Colombo","modification_date":"2006-01-27"},{"geonameid":"1243867","name":"Horana South","asciiname":"Horana South","alternatenames":["Horana","Horana South"],"latitude":"6.7159","longitude":"80.0626","feature_class":"P","feature_code":"PPL","country_code":"LK","cc2":"","admin1_code":"36","admin2_code":"","admin3_code":"","admin4_code":"","population":"8982","elevation":"","dem":"23","timezone":"Asia/Colombo","modification_date":"2012-01-17"},{"geonameid":"1243936","name":"Homagama","asciiname":"Homagama","alternatenames":[""],"latitude":"6.844","longitude":"80.0024","feature_class":"P","feature_code":"PPL","country_code":"LK","cc2":"","admin1_code":"36","admin2_code":"","admin3_code":"","admin4_code":"","population":"34664","elevation":"","dem":"37","timezone":"Asia/Colombo","modification_date":"2006-01-17"},{"geonameid":"1244397","name":"Hendala","asciiname":"Hendala","alternatenames":[""],"latitude":"6.9909","longitude":"79.883","feature_class":"P","feature_code":"PPL","country_code":"LK","cc2":"","admin1_code":"36","admin2_code":"","admin3_code":"","admin4_code":"","population":"56978","elevation":"","dem":"18","timezone":"Asia/Colombo","modification_date":"2006-01-17"},{"geonameid":"1244773","name":"Hanwella Ihala","asciiname":"Hanwella Ihala","alternatenames":[""],"latitude":"6.9012","longitude":"80.0852","feature_class":"P","feature_code":"PPL","country_code":"LK","cc2":"","admin1_code":"36","admin2_code":"","admin3_code":"","admin4_code":"","population":"22918","elevation":"","dem":"14","timezone":"Asia/Colombo","modification_date":"2006-01-27"},{"geonameid":"1246007","name":"Gampaha","asciiname":"Gampaha","alternatenames":["Gampaha"],"latitude":"7.0897","longitude":"79.9925","feature_class":"P","feature_code":"PPL","country_code":"LK","cc2":"","admin1_code":"36","admin2_code":"","admin3_code":"","admin4_code":"","population":"9350","elevation":"","dem":"21","timezone":"Asia/Colombo","modification_date":"2012-01-17"},{"geonameid":"1246321","name":"Galkissa","asciiname":"Galkissa","alternatenames":[""],"latitude":"6.8293","longitude":"79.863","feature_class":"P","feature_code":"PPL","country_code":"LK","cc2":"","admin1_code":"36","admin2_code":"","admin3_code":"","admin4_code":"","population":"215941","elevation":"","dem":"8","timezone":"Asia/Colombo","modification_date":"2006-01-27"},{"geonameid":"1248991","name":"Colombo","asciiname":"Colombo","alternatenames":["CMB","Colombo","Columbo","Columbum","Gorad Kalomba","Kolombas","Kolombo","Kolompo","Kolonbo","ge lin bao","kalambo","kalombo","ke lun po","kealambea","kholambo","klmbw","kolabo","kolambo","kollombo","kolumpu","kolunbu","koronbo","kwlmbw","kwlwmbw","qwlwmbw","Κολόμπο","Горад Каломба","Коломбо","Կոլոմբո","קולומבו","كولمبو","كولومبو","کلمبو","کولمبو","ކޮޅުނބު","कोलंबो","कोलम्बो","কলম্বো","ਕੋਲੰਬੋ","કોલંબો","କଲୋମ୍ବୋ","கொழும்பு","కొలంబో","ಕೊಲಂಬೊ","കൊളംബോ","කොළඹ","ෙකාළඹ","โคลัมโบ","ཁོ་ལུམ་པོ།","ကိုလံဘိုမြို့","კოლომბო","ኮሎምቦ","コロンボ","可倫坡","哥林堡","콜롬보"],"latitude":"6.93194","longitude":"79.84778","feature_class":"P","feature_code":"PPLC","country_code":"LK","cc2":"","admin1_code":"36","admin2_code":"","admin3_code":"","admin4_code":"","population":"648034","elevation":"","dem":"9","timezone":"Asia/Colombo","modification_date":"2007-02-17"},{"geonameid":"1249931","name":"Beruwala","asciiname":"Beruwala","alternatenames":["Beruwala"],"latitude":"6.4788","longitude":"79.9828","feature_class":"P","feature_code":"PPL","country_code":"LK","cc2":"","admin1_code":"36","admin2_code":"","admin3_code":"","admin4_code":"","population":"34250","elevation":"","dem":"-9999","timezone":"Asia/Colombo","modification_date":"2012-02-01"},{"geonameid":"1250164","name":"Battaramulla South","asciiname":"Battaramulla South","alternatenames":["Battaramulla","Battaramulla South"],"latitude":"6.8964","longitude":"79.9181","feature_class":"P","feature_code":"PPL","country_code":"LK","cc2":"","admin1_code":"36","admin2_code":"","admin3_code":"","admin4_code":"","population":"75633","elevation":"","dem":"11","timezone":"Asia/Colombo","modification_date":"2012-01-17"},{"geonameid":"6285792","name":"Horawala Junction","asciiname":"Horawala Junction","alternatenames":[""],"latitude":"6.48088","longitude":"80.12708","feature_class":"P","feature_code":"PPL","country_code":"LK","cc2":"","admin1_code":"36","admin2_code":"","admin3_code":"","admin4_code":"","population":"7500","elevation":"100","dem":"15","timezone":"Asia/Colombo","modification_date":"2011-06-14"}]}