{"region_data":{"adminCode1":"02","lng":"30","geonameId":628281,"toponymName":"Gomel Oblast","countryId":"630336","fcl":"A","population":1426674,"numberOfChildren":29,"countryCode":"BY","name":"Gomel","fclName":"country, state, region,...","countryName":"Belarus","fcodeName":"first-order administrative division","adminName1":"Gomel","lat":"52","fcode":"ADM1"},"country_data":{"ISO":"BY","ISO3":"BLR","ISO_Numeric":"112","fips":"BO","country":"Belarus","capital":"Minsk","area":"207600","Population":"9685000","Continent":"EU","tld":".by","CurrencyCode":"BYR","CurrencyName":"Ruble","Phone":"375","Postal_Code_Format":"######","Postal_Code_Regex":"^(\\d{6})$","Languages":"be,ru","geonameid":"630336","neighbours":"PL,LT,UA,RU,LV","EquivalentFipsCode":""},"cities":[{"geonameid":"618806","name":"Zhlobin","asciiname":"Zhlobin","alternatenames":["Korpilovka","Zhlobin","Zlobin","Жлобин","Жлобін"],"latitude":"52.8926","longitude":"30.024","feature_class":"P","feature_code":"PPLA2","country_code":"BY","cc2":"","admin1_code":"02","admin2_code":"","admin3_code":"","admin4_code":"","population":"73089","elevation":"","dem":"139","timezone":"Europe/Minsk","modification_date":"2012-02-02"},{"geonameid":"618815","name":"Zhytkavichy","asciiname":"Zhytkavichy","alternatenames":["Jitkovichi","Zhitkovichi","Zhytkavichy","Zhytkavychy","Zytkowicze","Żytkowicze","Житковичи","Жыткавычы"],"latitude":"52.2168","longitude":"27.8561","feature_class":"P","feature_code":"PPLA2","country_code":"BY","cc2":"","admin1_code":"02","admin2_code":"","admin3_code":"","admin4_code":"","population":"13630","elevation":"","dem":"137","timezone":"Europe/Minsk","modification_date":"2014-06-27"},{"geonameid":"619598","name":"Yel’sk","asciiname":"Yel'sk","alternatenames":["El'sk","Elsk","Karolin","Yel'sk","Yel’sk","Ельск"],"latitude":"51.8141","longitude":"29.1522","feature_class":"P","feature_code":"PPLA2","country_code":"BY","cc2":"","admin1_code":"02","admin2_code":"","admin3_code":"","admin4_code":"","population":"0","elevation":"","dem":"142","timezone":"Europe/Minsk","modification_date":"2012-01-18"},{"geonameid":"620214","name":"Vyetka","asciiname":"Vyetka","alternatenames":["Vetka","Vyetka","Ветка"],"latitude":"52.5591","longitude":"31.1794","feature_class":"P","feature_code":"PPLA2","country_code":"BY","cc2":"","admin1_code":"02","admin2_code":"","admin3_code":"","admin4_code":"","population":"8969","elevation":"","dem":"125","timezone":"Europe/Minsk","modification_date":"2014-06-27"},{"geonameid":"620425","name":"Vasilyevichy","asciiname":"Vasilyevichy","alternatenames":["Vasilevichi","Vasilevichy","Vasilyevichy","Василевичи","Васілевічы"],"latitude":"52.2512","longitude":"29.8288","feature_class":"P","feature_code":"PPL","country_code":"BY","cc2":"","admin1_code":"02","admin2_code":"","admin3_code":"","admin4_code":"","population":"4749","elevation":"","dem":"137","timezone":"Europe/Minsk","modification_date":"2014-06-27"},{"geonameid":"620676","name":"Turaw","asciiname":"Turaw","alternatenames":["Turau","Turaw","Turov","Turow","Тураў","Туров"],"latitude":"52.0683","longitude":"27.735","feature_class":"P","feature_code":"PPL","country_code":"BY","cc2":"","admin1_code":"02","admin2_code":"","admin3_code":"","admin4_code":"","population":"3100","elevation":"","dem":"125","timezone":"Europe/Minsk","modification_date":"2012-01-18"},{"geonameid":"621074","name":"Svyetlahorsk","asciiname":"Svyetlahorsk","alternatenames":["Shatilki","Shatsilki","Svetlagorsk","Svetlogorsk","Svyetlahorsk","Светлагорск","Светлогорск"],"latitude":"52.6329","longitude":"29.7389","feature_class":"P","feature_code":"PPLA2","country_code":"BY","cc2":"","admin1_code":"02","admin2_code":"","admin3_code":"","admin4_code":"","population":"71250","elevation":"","dem":"142","timezone":"Europe/Minsk","modification_date":"2014-06-27"},{"geonameid":"621605","name":"Sasnovy Bor","asciiname":"Sasnovy Bor","alternatenames":["Sasnovy Bor","Sasnovyj Bor","Sosnovyj Bor","Sosnovyy Bor","Сасновый Бор","Сосновый Бор"],"latitude":"52.5194","longitude":"29.5988","feature_class":"P","feature_code":"PPL","country_code":"BY","cc2":"","admin1_code":"02","admin2_code":"","admin3_code":"","admin4_code":"","population":"2500","elevation":"","dem":"136","timezone":"Europe/Minsk","modification_date":"2014-06-26"},{"geonameid":"622739","name":"Rahachow","asciiname":"Rahachow","alternatenames":["Ragachou","Rahachow","Rogachev","Rogachëv","Rogatschew","Рагачоў","Рогачев"],"latitude":"53.0934","longitude":"30.0495","feature_class":"P","feature_code":"PPLA2","country_code":"BY","cc2":"","admin1_code":"02","admin2_code":"","admin3_code":"","admin4_code":"","population":"34700","elevation":"","dem":"143","timezone":"Europe/Minsk","modification_date":"2012-02-02"},{"geonameid":"622794","name":"Rechytsa","asciiname":"Rechytsa","alternatenames":["Rechica","Rechitsa","Rechysta","Rechytsa","Rehchyca","Ryechitsa","Речица","Рэчыца"],"latitude":"52.3617","longitude":"30.3916","feature_class":"P","feature_code":"PPLA2","country_code":"BY","cc2":"","admin1_code":"02","admin2_code":"","admin3_code":"","admin4_code":"","population":"65400","elevation":"","dem":"128","timezone":"Europe/Minsk","modification_date":"2012-02-02"},{"geonameid":"623581","name":"Pyetrykaw","asciiname":"Pyetrykaw","alternatenames":["Petrikov","Petrikovo","Petrykau","Pyetrykaw","Петриков","Петрыкаў"],"latitude":"52.1289","longitude":"28.4921","feature_class":"P","feature_code":"PPLA2","country_code":"BY","cc2":"","admin1_code":"02","admin2_code":"","admin3_code":"","admin4_code":"","population":"10552","elevation":"","dem":"137","timezone":"Europe/Minsk","modification_date":"2014-06-27"},{"geonameid":"623788","name":"Parychy","asciiname":"Parychy","alternatenames":["Parichi","Partchi","Parychy","Паричи","Парычы"],"latitude":"52.8042","longitude":"29.4176","feature_class":"P","feature_code":"PPL","country_code":"BY","cc2":"","admin1_code":"02","admin2_code":"","admin3_code":"","admin4_code":"","population":"2300","elevation":"","dem":"135","timezone":"Europe/Minsk","modification_date":"2012-03-26"},{"geonameid":"624199","name":"Aktsyabrski","asciiname":"Aktsyabrski","alternatenames":["Akcjabrski","Aktsyabrski","Karpilovka","Oktjabr'skij","Oktyabr'skiy","Oktyabr’skiy","Акцябрскі","Октябрьский"],"latitude":"52.644","longitude":"28.8801","feature_class":"P","feature_code":"PPLA2","country_code":"BY","cc2":"","admin1_code":"02","admin2_code":"","admin3_code":"","admin4_code":"","population":"0","elevation":"","dem":"132","timezone":"Europe/Minsk","modification_date":"2014-06-26"},{"geonameid":"624584","name":"Novaya Huta","asciiname":"Novaya Huta","alternatenames":["Nova Guta","Novaja Guta","Novaya Guta","Novaya Huta","Нова Гута","Новая Гута"],"latitude":"52.1032","longitude":"30.9837","feature_class":"P","feature_code":"PPL","country_code":"BY","cc2":"","admin1_code":"02","admin2_code":"","admin3_code":"","admin4_code":"","population":"2159","elevation":"","dem":"133","timezone":"Europe/Minsk","modification_date":"2014-12-10"},{"geonameid":"624799","name":"Narowlya","asciiname":"Narowlya","alternatenames":["Naroulja","Narovlya","Narowlya","Нароўля"],"latitude":"51.7961","longitude":"29.5004","feature_class":"P","feature_code":"PPLA2","country_code":"BY","cc2":"","admin1_code":"02","admin2_code":"","admin3_code":"","admin4_code":"","population":"0","elevation":"","dem":"114","timezone":"Europe/Minsk","modification_date":"2012-01-18"},{"geonameid":"625324","name":"Mazyr","asciiname":"Mazyr","alternatenames":["Masyr","Mazir","Mazira","Mazyr","Mozir","Mozyr","Mozyr'","Mozyrius","Mozyrz","Mozyr’","majileu","mazu~iru","mo ji li","moziri","Мазыр","Мозир","Мозырь","מאזיר","მოზირი","マズィル","莫济里","마지르"],"latitude":"52.0495","longitude":"29.2456","feature_class":"P","feature_code":"PPLA2","country_code":"BY","cc2":"","admin1_code":"02","admin2_code":"","admin3_code":"","admin4_code":"","population":"112137","elevation":"","dem":"152","timezone":"Europe/Minsk","modification_date":"2014-03-16"},{"geonameid":"625907","name":"Loyew","asciiname":"Loyew","alternatenames":["Loeu","Loev","Lojew","Loyev","Loyew","Лоев","Лоеў"],"latitude":"51.9458","longitude":"30.7953","feature_class":"P","feature_code":"PPLA2","country_code":"BY","cc2":"","admin1_code":"02","admin2_code":"","admin3_code":"","admin4_code":"","population":"7000","elevation":"","dem":"132","timezone":"Europe/Minsk","modification_date":"2014-06-27"},{"geonameid":"626188","name":"Lyel’chytsy","asciiname":"Lyel'chytsy","alternatenames":["Lel'chitsy","Lel'chycy","Lel’chitsy","Lyel'chytsy","Lyel’chytsy","Лельчыцы"],"latitude":"51.7862","longitude":"28.3288","feature_class":"P","feature_code":"PPLA2","country_code":"BY","cc2":"","admin1_code":"02","admin2_code":"","admin3_code":"","admin4_code":"","population":"0","elevation":"","dem":"139","timezone":"Europe/Minsk","modification_date":"2012-01-18"},{"geonameid":"626806","name":"Kastsyukowka","asciiname":"Kastsyukowka","alternatenames":["Kascjukouka","Kastsyukowka","Kostjubowka","Kostjukovka","Kostyukovka","Касцюкоўка","Костюковка"],"latitude":"52.5387","longitude":"30.9173","feature_class":"P","feature_code":"PPL","country_code":"BY","cc2":"","admin1_code":"02","admin2_code":"","admin3_code":"","admin4_code":"","population":"10552","elevation":"","dem":"138","timezone":"Europe/Minsk","modification_date":"2014-06-26"},{"geonameid":"626917","name":"Karma","asciiname":"Karma","alternatenames":["Karma","Korma","Карма","Корма"],"latitude":"53.1301","longitude":"30.8016","feature_class":"P","feature_code":"PPLA2","country_code":"BY","cc2":"","admin1_code":"02","admin2_code":"","admin3_code":"","admin4_code":"","population":"0","elevation":"","dem":"155","timezone":"Europe/Minsk","modification_date":"2014-06-26"},{"geonameid":"626933","name":"Karanyowka","asciiname":"Karanyowka","alternatenames":["Karanjouka","Karanyowka","Korenevka","Korenëvka","Korinevka","Каранёўка"],"latitude":"52.3506","longitude":"31.1121","feature_class":"P","feature_code":"PPL","country_code":"BY","cc2":"","admin1_code":"02","admin2_code":"","admin3_code":"","admin4_code":"","population":"1141","elevation":"","dem":"137","timezone":"Europe/Minsk","modification_date":"2014-09-05"},{"geonameid":"627362","name":"Khoyniki","asciiname":"Khoyniki","alternatenames":["Choiniki","Khojniki","Khoyniki","Khoynki","Хойники","Хойнікі"],"latitude":"51.8911","longitude":"29.9552","feature_class":"P","feature_code":"PPLA2","country_code":"BY","cc2":"","admin1_code":"02","admin2_code":"","admin3_code":"","admin4_code":"","population":"13200","elevation":"","dem":"128","timezone":"Europe/Minsk","modification_date":"2012-01-18"},{"geonameid":"627524","name":"Khal’ch","asciiname":"Khal'ch","alternatenames":["Khal'ch","Khal’ch","Хальч"],"latitude":"52.5643","longitude":"31.1364","feature_class":"P","feature_code":"PPL","country_code":"BY","cc2":"","admin1_code":"02","admin2_code":"","admin3_code":"","admin4_code":"","population":"1249","elevation":"","dem":"135","timezone":"Europe/Minsk","modification_date":"2014-08-27"},{"geonameid":"627751","name":"Kalinkavichy","asciiname":"Kalinkavichy","alternatenames":["Kalinkavichy","Kalinkovichi","Kalinkowitschi","Калинкавичы","Калинковичи"],"latitude":"52.1323","longitude":"29.3257","feature_class":"P","feature_code":"PPLA2","country_code":"BY","cc2":"","admin1_code":"02","admin2_code":"","admin3_code":"","admin4_code":"","population":"37190","elevation":"","dem":"122","timezone":"Europe/Minsk","modification_date":"2014-06-26"},{"geonameid":"627907","name":"Gomel","asciiname":"Gomel","alternatenames":["GME","Gomel","Gomel'","Gomela","Gomelis","Gomel’","Gomeļa","Gorad Gomel'","Gómel","Homel","Homel'","Homeľ","Homiel","Homyel","Homyel'","Homyel’","Hómiel","ge mei li","ghwmyl","gwml","homeri","homyel","hwml","komel","kx mel","Γόμελ","Гомел","Гомель","Гомељ","Горад Гомель","הומל","غوميل","گومل","கோமெல்","กอเมล","ホメリ","戈梅利","호몔"],"latitude":"52.4345","longitude":"30.9754","feature_class":"P","feature_code":"PPLA","country_code":"BY","cc2":"","admin1_code":"02","admin2_code":"","admin3_code":"","admin4_code":"","population":"480951","elevation":"","dem":"138","timezone":"Europe/Minsk","modification_date":"2014-03-16"},{"geonameid":"628923","name":"Dowsk","asciiname":"Dowsk","alternatenames":["Dousk","Dovsk","Dowsk","Довск","Доўск"],"latitude":"53.1571","longitude":"30.4601","feature_class":"P","feature_code":"PPL","country_code":"BY","cc2":"","admin1_code":"02","admin2_code":"","admin3_code":"","admin4_code":"","population":"1840","elevation":"","dem":"167","timezone":"Europe/Minsk","modification_date":"2012-03-26"},{"geonameid":"629018","name":"Dobrush","asciiname":"Dobrush","alternatenames":["Dobrush","Добруш"],"latitude":"52.4089","longitude":"31.3237","feature_class":"P","feature_code":"PPLA2","country_code":"BY","cc2":"","admin1_code":"02","admin2_code":"","admin3_code":"","admin4_code":"","population":"19083","elevation":"","dem":"125","timezone":"Europe/Minsk","modification_date":"2014-06-27"},{"geonameid":"629390","name":"Chachersk","asciiname":"Chachersk","alternatenames":["Chachehrsk","Chachersk","Chechersk","Чачэрск","Чечерск"],"latitude":"52.9164","longitude":"30.9179","feature_class":"P","feature_code":"PPL","country_code":"BY","cc2":"","admin1_code":"02","admin2_code":"","admin3_code":"","admin4_code":"","population":"7600","elevation":"","dem":"146","timezone":"Europe/Minsk","modification_date":"2014-06-27"},{"geonameid":"629564","name":"Buda-Kashalyova","asciiname":"Buda-Kashalyova","alternatenames":["Buda-Kashaljova","Buda-Kashalyova","Buda-Koshelevo","Buda-Koshelevskaya","Buda-Koshelëvo","Буда-Кашалёва","Буда-Кошелево"],"latitude":"52.7179","longitude":"30.5701","feature_class":"P","feature_code":"PPLA2","country_code":"BY","cc2":"","admin1_code":"02","admin2_code":"","admin3_code":"","admin4_code":"","population":"0","elevation":"","dem":"147","timezone":"Europe/Minsk","modification_date":"2012-02-02"},{"geonameid":"629646","name":"Brahin","asciiname":"Brahin","alternatenames":["Bragin","Brahin","Брагин","Брагін"],"latitude":"51.787","longitude":"30.2677","feature_class":"P","feature_code":"PPLA2","country_code":"BY","cc2":"","admin1_code":"02","admin2_code":"","admin3_code":"","admin4_code":"","population":"3900","elevation":"","dem":"113","timezone":"Europe/Minsk","modification_date":"2012-01-18"},{"geonameid":"828899","name":"Horad Rechytsa","asciiname":"Horad Rechytsa","alternatenames":["Gorad Rehchyca","Gorod Rechitsa","Horad Rechytsa","Горад Рэчыца"],"latitude":"52.36389","longitude":"30.39472","feature_class":"P","feature_code":"PPLA2","country_code":"BY","cc2":"","admin1_code":"02","admin2_code":"","admin3_code":"","admin4_code":"","population":"0","elevation":"","dem":"129","timezone":"Europe/Minsk","modification_date":"2012-02-02"}]}