{"region_data":{"countryId":"4566966","adminCode1":"029","countryName":"Puerto Rico","fclName":"country, state, region,...","countryCode":"PR","lng":"-65.88711","fcodeName":"first-order administrative division","toponymName":"Canóvanas Municipio","fcl":"A","numberOfChildren":6,"name":"Canóvanas Municipio","fcode":"ADM1","geonameId":4563169,"lat":"18.33828","adminName1":"Canovanas","population":0},"country_data":{"ISO":"PR","ISO3":"PRI","ISO_Numeric":"630","fips":"RQ","country":"Puerto Rico","capital":"San Juan","area":"9104","Population":"3916632","Continent":"NA","tld":".pr","CurrencyCode":"USD","CurrencyName":"Dollar","Phone":"+1-787 and 1-939","Postal_Code_Format":"#####-####","Postal_Code_Regex":"^(\\d{9})$","Languages":"en-PR,es-PR","geonameid":"4566966","neighbours":"","EquivalentFipsCode":""},"cities":[{"geonameid":"4562860","name":"Benitez","asciiname":"Benitez","alternatenames":[""],"latitude":"18.27357","longitude":"-65.87905","feature_class":"P","feature_code":"PPL","country_code":"PR","cc2":"","admin1_code":"029","admin2_code":"","admin3_code":"","admin4_code":"","population":"1334","elevation":"399","dem":"400","timezone":"America/Puerto_Rico","modification_date":"2007-02-16"},{"geonameid":"4563059","name":"Campo Rico","asciiname":"Campo Rico","alternatenames":[""],"latitude":"18.33717","longitude":"-65.89794","feature_class":"P","feature_code":"PPL","country_code":"PR","cc2":"","admin1_code":"029","admin2_code":"","admin3_code":"","admin4_code":"","population":"3218","elevation":"155","dem":"161","timezone":"America/Puerto_Rico","modification_date":"2007-02-16"},{"geonameid":"4563168","name":"Canovanas","asciiname":"Canovanas","alternatenames":[""],"latitude":"18.3751","longitude":"-65.89934","feature_class":"P","feature_code":"PPLA","country_code":"PR","cc2":"","admin1_code":"029","admin2_code":"","admin3_code":"","admin4_code":"","population":"8437","elevation":"7","dem":"15","timezone":"America/Puerto_Rico","modification_date":"2013-06-29"},{"geonameid":"4568109","name":"San Isidro","asciiname":"San Isidro","alternatenames":[""],"latitude":"18.39217","longitude":"-65.88544","feature_class":"P","feature_code":"PPL","country_code":"PR","cc2":"","admin1_code":"029","admin2_code":"","admin3_code":"","admin4_code":"","population":"8071","elevation":"13","dem":"12","timezone":"America/Puerto_Rico","modification_date":"2007-02-16"},{"geonameid":"4568194","name":"Santa Barbara","asciiname":"Santa Barbara","alternatenames":[""],"latitude":"18.39356","longitude":"-65.91878","feature_class":"P","feature_code":"PPL","country_code":"PR","cc2":"","admin1_code":"029","admin2_code":"","admin3_code":"","admin4_code":"","population":"5168","elevation":"14","dem":"18","timezone":"America/Puerto_Rico","modification_date":"2007-02-16"}]}