{"region_data":{"adminCode1":"78","lng":"16.61339","geonameId":3339536,"toponymName":"Jihomoravský kraj","countryId":"3077311","fcl":"A","population":1196113,"numberOfChildren":7,"countryCode":"CZ","name":"South Moravian","fclName":"country, state, region,...","countryName":"Czech Republic","fcodeName":"first-order administrative division","adminName1":"South Moravian","lat":"49.20122","fcode":"ADM1"},"country_data":{"ISO":"CZ","ISO3":"CZE","ISO_Numeric":"203","fips":"EZ","country":"Czech Republic","capital":"Prague","area":"78866","Population":"10476000","Continent":"EU","tld":".cz","CurrencyCode":"CZK","CurrencyName":"Koruna","Phone":"420","Postal_Code_Format":"### ##","Postal_Code_Regex":"^(\\d{5})$","Languages":"cs,sk","geonameid":"3077311","neighbours":"PL,DE,SK,AT","EquivalentFipsCode":""},"cities":[{"geonameid":"3061344","name":"Znojmo","asciiname":"Znojmo","alternatenames":["Gorad Znojma","Znaim","Znain","Znaym","Znojmo","Znoyma","jeunoimo","zi nuo yi mo","znymw","zunoimo","Горад Знойма","Зноймо","Знојмо","زنیمو","ズノイモ","茲諾伊莫","즈노이모"],"latitude":"48.8555","longitude":"16.0488","feature_class":"P","feature_code":"PPL","country_code":"CZ","cc2":"","admin1_code":"78","admin2_code":"0627","admin3_code":"","admin4_code":"","population":"35280","elevation":"","dem":"294","timezone":"Europe/Prague","modification_date":"2012-11-23"},{"geonameid":"3061472","name":"Židlochovice","asciiname":"Zidlochovice","alternatenames":["Gross Seelowitz","Groß Seelowitz","Ziolochovice","ri de luo huo wei cai","日德洛霍維采"],"latitude":"49.03952","longitude":"16.61881","feature_class":"P","feature_code":"PPL","country_code":"CZ","cc2":"","admin1_code":"78","admin2_code":"","admin3_code":"","admin4_code":"","population":"3075","elevation":"","dem":"194","timezone":"Europe/Prague","modification_date":"2009-03-28"},{"geonameid":"3061534","name":"Žeravice","asciiname":"Zeravice","alternatenames":["Zerawitz"],"latitude":"49.02288","longitude":"17.23726","feature_class":"P","feature_code":"PPL","country_code":"CZ","cc2":"","admin1_code":"78","admin2_code":"","admin3_code":"","admin4_code":"","population":"1043","elevation":"","dem":"268","timezone":"Europe/Prague","modification_date":"2006-11-25"},{"geonameid":"3061578","name":"Želešice","asciiname":"Zelesice","alternatenames":["Schollschitz","Schöllschitz"],"latitude":"49.11689","longitude":"16.58137","feature_class":"P","feature_code":"PPL","country_code":"CZ","cc2":"","admin1_code":"78","admin2_code":"","admin3_code":"","admin4_code":"","population":"1284","elevation":"","dem":"206","timezone":"Europe/Prague","modification_date":"2006-11-25"},{"geonameid":"3061729","name":"Ždánice","asciiname":"Zdanice","alternatenames":["Steinitz","ri da ni cai","日達尼采"],"latitude":"49.06729","longitude":"17.02751","feature_class":"P","feature_code":"PPL","country_code":"CZ","cc2":"","admin1_code":"78","admin2_code":"","admin3_code":"","admin4_code":"","population":"2721","elevation":"","dem":"223","timezone":"Europe/Prague","modification_date":"2006-11-25"},{"geonameid":"3061734","name":"Zbýšov","asciiname":"Zbysov","alternatenames":["Zbeschau"],"latitude":"49.15524","longitude":"16.34951","feature_class":"P","feature_code":"PPL","country_code":"CZ","cc2":"CZ","admin1_code":"78","admin2_code":"","admin3_code":"","admin4_code":"","population":"3890","elevation":"","dem":"351","timezone":"Europe/Prague","modification_date":"2006-11-25"},{"geonameid":"3061754","name":"Zbraslav","asciiname":"Zbraslav","alternatenames":["Zbraslau","Zbraslav u Brna"],"latitude":"49.22155","longitude":"16.29415","feature_class":"P","feature_code":"PPL","country_code":"CZ","cc2":"","admin1_code":"78","admin2_code":"","admin3_code":"","admin4_code":"","population":"1211","elevation":"","dem":"464","timezone":"Europe/Prague","modification_date":"2013-06-08"},{"geonameid":"3061830","name":"Zastávka","asciiname":"Zastavka","alternatenames":["Bozi Pozehnani","Boži Požehnání","Segen Gottes","Zastavka u Brna","Zastávka u Brna"],"latitude":"49.188","longitude":"16.3631","feature_class":"P","feature_code":"PPL","country_code":"CZ","cc2":"","admin1_code":"78","admin2_code":"","admin3_code":"","admin4_code":"","population":"2405","elevation":"","dem":"319","timezone":"Europe/Prague","modification_date":"2006-11-25"},{"geonameid":"3061979","name":"Zaječí","asciiname":"Zajeci","alternatenames":["Saitz"],"latitude":"48.87295","longitude":"16.76646","feature_class":"P","feature_code":"PPL","country_code":"CZ","cc2":"","admin1_code":"78","admin2_code":"","admin3_code":"","admin4_code":"","population":"1435","elevation":"","dem":"241","timezone":"Europe/Prague","modification_date":"2006-11-25"},{"geonameid":"3062156","name":"Žabčice","asciiname":"Zabcice","alternatenames":["Zabcic","Žabčic"],"latitude":"49.0116","longitude":"16.60257","feature_class":"P","feature_code":"PPL","country_code":"CZ","cc2":"","admin1_code":"78","admin2_code":"","admin3_code":"","admin4_code":"","population":"1492","elevation":"","dem":"181","timezone":"Europe/Prague","modification_date":"2006-11-25"},{"geonameid":"3062283","name":"Vyškov","asciiname":"Vyskov","alternatenames":["Vyshkov","Vyskov","Vyškov","Wischau","Вышков"],"latitude":"49.27747","longitude":"16.99897","feature_class":"P","feature_code":"PPL","country_code":"CZ","cc2":"","admin1_code":"78","admin2_code":"0626","admin3_code":"","admin4_code":"","population":"22265","elevation":"","dem":"254","timezone":"Europe/Prague","modification_date":"2013-01-04"},{"geonameid":"3062444","name":"Vrbovec","asciiname":"Vrbovec","alternatenames":["Urbau"],"latitude":"48.79978","longitude":"16.10061","feature_class":"P","feature_code":"PPL","country_code":"CZ","cc2":"","admin1_code":"78","admin2_code":"","admin3_code":"","admin4_code":"","population":"1103","elevation":"","dem":"214","timezone":"Europe/Prague","modification_date":"2006-11-25"},{"geonameid":"3062470","name":"Vrbice","asciiname":"Vrbice","alternatenames":[""],"latitude":"48.91508","longitude":"16.89779","feature_class":"P","feature_code":"PPL","country_code":"CZ","cc2":"","admin1_code":"78","admin2_code":"","admin3_code":"","admin4_code":"","population":"1121","elevation":"","dem":"294","timezone":"Europe/Prague","modification_date":"2006-11-25"},{"geonameid":"3062511","name":"Vranovice","asciiname":"Vranovice","alternatenames":[""],"latitude":"48.966","longitude":"16.6066","feature_class":"P","feature_code":"PPL","country_code":"CZ","cc2":"","admin1_code":"78","admin2_code":"","admin3_code":"","admin4_code":"","population":"1934","elevation":"","dem":"176","timezone":"Europe/Prague","modification_date":"2006-11-25"},{"geonameid":"3062545","name":"Vracov","asciiname":"Vracov","alternatenames":[""],"latitude":"48.97523","longitude":"17.211","feature_class":"P","feature_code":"PPL","country_code":"CZ","cc2":"","admin1_code":"78","admin2_code":"","admin3_code":"","admin4_code":"","population":"4491","elevation":"","dem":"195","timezone":"Europe/Prague","modification_date":"2006-11-25"},{"geonameid":"3062628","name":"Vojkovice","asciiname":"Vojkovice","alternatenames":[""],"latitude":"49.05138","longitude":"16.6082","feature_class":"P","feature_code":"PPL","country_code":"CZ","cc2":"","admin1_code":"78","admin2_code":"","admin3_code":"","admin4_code":"","population":"1032","elevation":"","dem":"184","timezone":"Europe/Prague","modification_date":"2006-11-25"},{"geonameid":"3062658","name":"Vnorovy","asciiname":"Vnorovy","alternatenames":[""],"latitude":"48.93096","longitude":"17.3505","feature_class":"P","feature_code":"PPL","country_code":"CZ","cc2":"","admin1_code":"78","admin2_code":"","admin3_code":"","admin4_code":"","population":"3062","elevation":"","dem":"186","timezone":"Europe/Prague","modification_date":"2006-11-25"},{"geonameid":"3062685","name":"Vlkoš","asciiname":"Vlkos","alternatenames":[""],"latitude":"48.9896","longitude":"17.16356","feature_class":"P","feature_code":"PPL","country_code":"CZ","cc2":"","admin1_code":"78","admin2_code":"","admin3_code":"","admin4_code":"","population":"1052","elevation":"","dem":"193","timezone":"Europe/Prague","modification_date":"2006-11-25"},{"geonameid":"3062835","name":"Višňové","asciiname":"Visnove","alternatenames":["Visnova","Višňová"],"latitude":"48.98241","longitude":"16.15025","feature_class":"P","feature_code":"PPL","country_code":"CZ","cc2":"","admin1_code":"78","admin2_code":"","admin3_code":"","admin4_code":"","population":"1138","elevation":"","dem":"338","timezone":"Europe/Prague","modification_date":"2006-11-25"},{"geonameid":"3062866","name":"Viničné Šumice","asciiname":"Vinicne Sumice","alternatenames":[""],"latitude":"49.21358","longitude":"16.82541","feature_class":"P","feature_code":"PPL","country_code":"CZ","cc2":"","admin1_code":"78","admin2_code":"","admin3_code":"","admin4_code":"","population":"1065","elevation":"","dem":"293","timezone":"Europe/Prague","modification_date":"2006-11-25"},{"geonameid":"3062965","name":"Veverská Bítýška","asciiname":"Veverska Bityska","alternatenames":["Bittischka"],"latitude":"49.27591","longitude":"16.43686","feature_class":"P","feature_code":"PPL","country_code":"CZ","cc2":"","admin1_code":"78","admin2_code":"","admin3_code":"","admin4_code":"","population":"2842","elevation":"","dem":"235","timezone":"Europe/Prague","modification_date":"2006-11-25"},{"geonameid":"3063032","name":"Veselí nad Moravou","asciiname":"Veseli nad Moravou","alternatenames":["Veseli na Moravi","Veseli-nad-Moravoju","mo la wa he pan wei sai li","Весели на Морави","Веселі-над-Моравою","摩拉瓦河畔韋塞利"],"latitude":"48.95363","longitude":"17.37648","feature_class":"P","feature_code":"PPL","country_code":"CZ","cc2":"","admin1_code":"78","admin2_code":"","admin3_code":"","admin4_code":"","population":"12081","elevation":"","dem":"170","timezone":"Europe/Prague","modification_date":"2006-11-25"},{"geonameid":"3063192","name":"Velké Pavlovice","asciiname":"Velke Pavlovice","alternatenames":[""],"latitude":"48.90469","longitude":"16.81605","feature_class":"P","feature_code":"PPL","country_code":"CZ","cc2":"","admin1_code":"78","admin2_code":"","admin3_code":"","admin4_code":"","population":"3078","elevation":"","dem":"182","timezone":"Europe/Prague","modification_date":"2006-11-25"},{"geonameid":"3063193","name":"Velké Opatovice","asciiname":"Velke Opatovice","alternatenames":["Gross Opatowitz"],"latitude":"49.61237","longitude":"16.67947","feature_class":"P","feature_code":"PPL","country_code":"CZ","cc2":"","admin1_code":"78","admin2_code":"","admin3_code":"","admin4_code":"","population":"4169","elevation":"","dem":"379","timezone":"Europe/Prague","modification_date":"2006-11-25"},{"geonameid":"3063195","name":"Velké Němčice","asciiname":"Velke Nemcice","alternatenames":["Nemcice","Němčice"],"latitude":"48.99168","longitude":"16.67208","feature_class":"P","feature_code":"PPL","country_code":"CZ","cc2":"","admin1_code":"78","admin2_code":"","admin3_code":"","admin4_code":"","population":"1654","elevation":"","dem":"183","timezone":"Europe/Prague","modification_date":"2006-11-25"},{"geonameid":"3063217","name":"Velké Bílovice","asciiname":"Velke Bilovice","alternatenames":[""],"latitude":"48.84929","longitude":"16.89227","feature_class":"P","feature_code":"PPL","country_code":"CZ","cc2":"","admin1_code":"78","admin2_code":"0624","admin3_code":"","admin4_code":"","population":"3727","elevation":"","dem":"178","timezone":"Europe/Prague","modification_date":"2012-12-10"},{"geonameid":"3063240","name":"Velká nad Veličkou","asciiname":"Velka nad Velickou","alternatenames":["Velka","Velká"],"latitude":"48.88257","longitude":"17.5206","feature_class":"P","feature_code":"PPL","country_code":"CZ","cc2":"","admin1_code":"78","admin2_code":"","admin3_code":"","admin4_code":"","population":"3149","elevation":"","dem":"286","timezone":"Europe/Prague","modification_date":"2006-11-25"},{"geonameid":"3063409","name":"Valtice","asciiname":"Valtice","alternatenames":["Feldsberg","Gorad Val'cicy","Val'tice","Valtece","Valtice","Valticė","Valtėcē","valtice","vu~aruchitsu~e","wa er ji cai","Вальтице","Горад Вальціцы","ヴァルチツェ","瓦爾季采"],"latitude":"48.74069","longitude":"16.75499","feature_class":"P","feature_code":"PPL","country_code":"CZ","cc2":"","admin1_code":"78","admin2_code":"0624","admin3_code":"","admin4_code":"","population":"3656","elevation":"","dem":"193","timezone":"Europe/Prague","modification_date":"2012-12-13"},{"geonameid":"3063491","name":"Vacenovice","asciiname":"Vacenovice","alternatenames":[""],"latitude":"48.9451","longitude":"17.17404","feature_class":"P","feature_code":"PPL","country_code":"CZ","cc2":"","admin1_code":"78","admin2_code":"","admin3_code":"","admin4_code":"","population":"2157","elevation":"","dem":"202","timezone":"Europe/Prague","modification_date":"2006-11-25"},{"geonameid":"3063611","name":"Únanov","asciiname":"Unanov","alternatenames":[""],"latitude":"48.90082","longitude":"16.06351","feature_class":"P","feature_code":"PPL","country_code":"CZ","cc2":"","admin1_code":"78","admin2_code":"","admin3_code":"","admin4_code":"","population":"1093","elevation":"","dem":"290","timezone":"Europe/Prague","modification_date":"2006-11-25"},{"geonameid":"3063814","name":"Týnec","asciiname":"Tynec","alternatenames":[""],"latitude":"48.77943","longitude":"17.01322","feature_class":"P","feature_code":"PPL","country_code":"CZ","cc2":"","admin1_code":"78","admin2_code":"","admin3_code":"","admin4_code":"","population":"1021","elevation":"","dem":"167","timezone":"Europe/Prague","modification_date":"2006-11-25"},{"geonameid":"3063828","name":"Tvrdonice","asciiname":"Tvrdonice","alternatenames":[""],"latitude":"48.76048","longitude":"16.99446","feature_class":"P","feature_code":"PPL","country_code":"CZ","cc2":"","admin1_code":"78","admin2_code":"","admin3_code":"","admin4_code":"","population":"2042","elevation":"","dem":"181","timezone":"Europe/Prague","modification_date":"2006-11-25"},{"geonameid":"3063835","name":"Tvarožná","asciiname":"Tvarozna","alternatenames":["Bosenitz"],"latitude":"49.19177","longitude":"16.77146","feature_class":"P","feature_code":"PPL","country_code":"CZ","cc2":"","admin1_code":"78","admin2_code":"","admin3_code":"","admin4_code":"","population":"1159","elevation":"","dem":"255","timezone":"Europe/Prague","modification_date":"2006-11-25"},{"geonameid":"3063938","name":"Troubsko","asciiname":"Troubsko","alternatenames":["Strutz"],"latitude":"49.16951","longitude":"16.51078","feature_class":"P","feature_code":"PPL","country_code":"CZ","cc2":"","admin1_code":"78","admin2_code":"","admin3_code":"","admin4_code":"","population":"1822","elevation":"","dem":"267","timezone":"Europe/Prague","modification_date":"2006-11-25"},{"geonameid":"3064211","name":"Tišnov","asciiname":"Tisnov","alternatenames":["Tischnowitz","ji shen nuo fu","季什諾夫"],"latitude":"49.34872","longitude":"16.42438","feature_class":"P","feature_code":"PPL","country_code":"CZ","cc2":"","admin1_code":"78","admin2_code":"","admin3_code":"","admin4_code":"","population":"8227","elevation":"","dem":"272","timezone":"Europe/Prague","modification_date":"2008-11-28"},{"geonameid":"3064260","name":"Těšany","asciiname":"Tesany","alternatenames":["Tieschan"],"latitude":"49.03956","longitude":"16.77003","feature_class":"P","feature_code":"PPL","country_code":"CZ","cc2":"","admin1_code":"78","admin2_code":"","admin3_code":"","admin4_code":"","population":"1155","elevation":"","dem":"214","timezone":"Europe/Prague","modification_date":"2006-11-25"},{"geonameid":"3064307","name":"Telnice","asciiname":"Telnice","alternatenames":[""],"latitude":"49.10187","longitude":"16.71774","feature_class":"P","feature_code":"PPL","country_code":"CZ","cc2":"","admin1_code":"78","admin2_code":"","admin3_code":"","admin4_code":"","population":"1296","elevation":"","dem":"196","timezone":"Europe/Prague","modification_date":"2006-11-25"},{"geonameid":"3064352","name":"Tasovice","asciiname":"Tasovice","alternatenames":["Tasswitz"],"latitude":"48.8361","longitude":"16.15558","feature_class":"P","feature_code":"PPL","country_code":"CZ","cc2":"CZ","admin1_code":"78","admin2_code":"0627","admin3_code":"","admin4_code":"","population":"1221","elevation":"","dem":"210","timezone":"Europe/Prague","modification_date":"2012-12-19"},{"geonameid":"3064456","name":"Svitávka","asciiname":"Svitavka","alternatenames":["Swittawka"],"latitude":"49.50178","longitude":"16.59793","feature_class":"P","feature_code":"PPL","country_code":"CZ","cc2":"","admin1_code":"78","admin2_code":"","admin3_code":"","admin4_code":"","population":"1700","elevation":"","dem":"315","timezone":"Europe/Prague","modification_date":"2006-11-25"},{"geonameid":"3064708","name":"Sudoměřice","asciiname":"Sudomerice","alternatenames":[""],"latitude":"48.86723","longitude":"17.25676","feature_class":"P","feature_code":"PPL","country_code":"CZ","cc2":"","admin1_code":"78","admin2_code":"","admin3_code":"","admin4_code":"","population":"1206","elevation":"","dem":"182","timezone":"Europe/Prague","modification_date":"2006-11-25"},{"geonameid":"3064736","name":"Suchohrdly","asciiname":"Suchohrdly","alternatenames":["Zuckerhandl"],"latitude":"48.86822","longitude":"16.09471","feature_class":"P","feature_code":"PPL","country_code":"CZ","cc2":"CZ","admin1_code":"78","admin2_code":"","admin3_code":"","admin4_code":"","population":"1010","elevation":"","dem":"308","timezone":"Europe/Prague","modification_date":"2008-07-08"},{"geonameid":"3064962","name":"Střelice","asciiname":"Strelice","alternatenames":["Strelitz","Střelitz"],"latitude":"49.15221","longitude":"16.50399","feature_class":"P","feature_code":"PPL","country_code":"CZ","cc2":"","admin1_code":"78","admin2_code":"","admin3_code":"","admin4_code":"","population":"2578","elevation":"","dem":"273","timezone":"Europe/Prague","modification_date":"2006-11-25"},{"geonameid":"3064995","name":"Strážnice","asciiname":"Straznice","alternatenames":["si te la ri ni cai","斯特拉日尼采"],"latitude":"48.90102","longitude":"17.3168","feature_class":"P","feature_code":"PPL","country_code":"CZ","cc2":"","admin1_code":"78","admin2_code":"","admin3_code":"","admin4_code":"","population":"5900","elevation":"","dem":"180","timezone":"Europe/Prague","modification_date":"2006-11-25"},{"geonameid":"3065618","name":"Sokolnice","asciiname":"Sokolnice","alternatenames":["Sokolnitz"],"latitude":"49.11392","longitude":"16.72156","feature_class":"P","feature_code":"PPL","country_code":"CZ","cc2":"","admin1_code":"78","admin2_code":"","admin3_code":"","admin4_code":"","population":"1761","elevation":"","dem":"203","timezone":"Europe/Prague","modification_date":"2006-11-25"},{"geonameid":"3065824","name":"Slavkov u Brna","asciiname":"Slavkov u Brna","alternatenames":["Austerlitz","Slaukovia","Slavkov kraj Burno","Slavkov u Brna","Slavkov-u-Brna","Slavkovas prie Brno","Slawkow","Sławków","bu er nuo fu jin si la fu ke fu","seullabeukopeuubeuleuna","slʼwqwb","Славков край Бърно","Славков у Брна","Славков-у-Брна","סלאוקוב","スラフコフ・ウ・ブルナ","布尔诺附近斯拉夫科夫","슬라브코프우브르나"],"latitude":"49.15325","longitude":"16.87649","feature_class":"P","feature_code":"PPL","country_code":"CZ","cc2":"","admin1_code":"78","admin2_code":"","admin3_code":"","admin4_code":"","population":"5936","elevation":"","dem":"211","timezone":"Europe/Prague","modification_date":"2008-11-28"},{"geonameid":"3065901","name":"Šlapanice","asciiname":"Slapanice","alternatenames":["Schlapanitz"],"latitude":"49.16863","longitude":"16.72731","feature_class":"P","feature_code":"PPL","country_code":"CZ","cc2":"","admin1_code":"78","admin2_code":"","admin3_code":"","admin4_code":"","population":"6339","elevation":"","dem":"221","timezone":"Europe/Prague","modification_date":"2006-11-25"},{"geonameid":"3066095","name":"Šitbořice","asciiname":"Sitborice","alternatenames":["Schuttborzitz","Schüttborzitz"],"latitude":"49.01433","longitude":"16.77975","feature_class":"P","feature_code":"PPL","country_code":"CZ","cc2":"","admin1_code":"78","admin2_code":"","admin3_code":"","admin4_code":"","population":"1958","elevation":"","dem":"259","timezone":"Europe/Prague","modification_date":"2006-11-25"},{"geonameid":"3066390","name":"Šatov","asciiname":"Satov","alternatenames":["Schattau"],"latitude":"48.79317","longitude":"16.00992","feature_class":"P","feature_code":"PPL","country_code":"CZ","cc2":"","admin1_code":"78","admin2_code":"","admin3_code":"","admin4_code":"","population":"1200","elevation":"","dem":"250","timezone":"Europe/Prague","modification_date":"2006-11-25"},{"geonameid":"3066399","name":"Šardice","asciiname":"Sardice","alternatenames":[""],"latitude":"48.96403","longitude":"17.02812","feature_class":"P","feature_code":"PPL","country_code":"CZ","cc2":"","admin1_code":"78","admin2_code":"","admin3_code":"","admin4_code":"","population":"2205","elevation":"","dem":"183","timezone":"Europe/Prague","modification_date":"2006-11-25"},{"geonameid":"3066410","name":"Šanov","asciiname":"Sanov","alternatenames":["Schonau","Schönau"],"latitude":"48.80089","longitude":"16.37858","feature_class":"P","feature_code":"PPL","country_code":"CZ","cc2":"","admin1_code":"78","admin2_code":"","admin3_code":"","admin4_code":"","population":"1253","elevation":"","dem":"197","timezone":"Europe/Prague","modification_date":"2006-11-25"},{"geonameid":"3066439","name":"Šakvice","asciiname":"Sakvice","alternatenames":[""],"latitude":"48.89746","longitude":"16.71424","feature_class":"P","feature_code":"PPL","country_code":"CZ","cc2":"","admin1_code":"78","admin2_code":"","admin3_code":"","admin4_code":"","population":"1369","elevation":"","dem":"193","timezone":"Europe/Prague","modification_date":"2006-11-25"},{"geonameid":"3066719","name":"Rousínov","asciiname":"Rousinov","alternatenames":["luo wu xi nuo fu","羅烏西諾夫"],"latitude":"49.20128","longitude":"16.88215","feature_class":"P","feature_code":"PPL","country_code":"CZ","cc2":"","admin1_code":"78","admin2_code":"","admin3_code":"","admin4_code":"","population":"5016","elevation":"","dem":"235","timezone":"Europe/Prague","modification_date":"2006-11-25"},{"geonameid":"3066759","name":"Rosice","asciiname":"Rosice","alternatenames":["Rosice","Rosice u Brna","Rossitz","luo xi cai","Росице","Росіце","羅西采"],"latitude":"49.18232","longitude":"16.38787","feature_class":"P","feature_code":"PPL","country_code":"CZ","cc2":"","admin1_code":"78","admin2_code":"0623","admin3_code":"","admin4_code":"","population":"5287","elevation":"","dem":"339","timezone":"Europe/Prague","modification_date":"2013-01-03"},{"geonameid":"3066825","name":"Rohatec","asciiname":"Rohatec","alternatenames":[""],"latitude":"48.8804","longitude":"17.1833","feature_class":"P","feature_code":"PPL","country_code":"CZ","cc2":"","admin1_code":"78","admin2_code":"","admin3_code":"","admin4_code":"","population":"3343","elevation":"","dem":"179","timezone":"Europe/Prague","modification_date":"2006-11-25"},{"geonameid":"3066879","name":"Říčany","asciiname":"Ricany","alternatenames":["Rican","Ricany u Brna","Ričan","Říčany u Brna"],"latitude":"49.21497","longitude":"16.39362","feature_class":"P","feature_code":"PPL","country_code":"CZ","cc2":"","admin1_code":"78","admin2_code":"","admin3_code":"","admin4_code":"","population":"1702","elevation":"","dem":"349","timezone":"Europe/Prague","modification_date":"2013-06-08"},{"geonameid":"3066987","name":"Ratíškovice","asciiname":"Ratiskovice","alternatenames":[""],"latitude":"48.92002","longitude":"17.16561","feature_class":"P","feature_code":"PPL","country_code":"CZ","cc2":"","admin1_code":"78","admin2_code":"","admin3_code":"","admin4_code":"","population":"3994","elevation":"","dem":"202","timezone":"Europe/Prague","modification_date":"2006-11-25"},{"geonameid":"3067047","name":"Rakvice","asciiname":"Rakvice","alternatenames":[""],"latitude":"48.85811","longitude":"16.8133","feature_class":"P","feature_code":"PPL","country_code":"CZ","cc2":"","admin1_code":"78","admin2_code":"","admin3_code":"","admin4_code":"","population":"2134","elevation":"","dem":"166","timezone":"Europe/Prague","modification_date":"2006-11-25"},{"geonameid":"3067077","name":"Rajhradice","asciiname":"Rajhradice","alternatenames":[""],"latitude":"49.09203","longitude":"16.62933","feature_class":"P","feature_code":"PPL","country_code":"CZ","cc2":"","admin1_code":"78","admin2_code":"","admin3_code":"","admin4_code":"","population":"1204","elevation":"","dem":"185","timezone":"Europe/Prague","modification_date":"2006-11-25"},{"geonameid":"3067078","name":"Rajhrad","asciiname":"Rajhrad","alternatenames":[""],"latitude":"49.09021","longitude":"16.60388","feature_class":"P","feature_code":"PPL","country_code":"CZ","cc2":"","admin1_code":"78","admin2_code":"","admin3_code":"","admin4_code":"","population":"2697","elevation":"","dem":"196","timezone":"Europe/Prague","modification_date":"2006-11-25"},{"geonameid":"3067079","name":"Ráječko","asciiname":"Rajecko","alternatenames":[""],"latitude":"49.39393","longitude":"16.64497","feature_class":"P","feature_code":"PPL","country_code":"CZ","cc2":"","admin1_code":"78","admin2_code":"","admin3_code":"","admin4_code":"","population":"1222","elevation":"","dem":"293","timezone":"Europe/Prague","modification_date":"2006-11-25"},{"geonameid":"3067080","name":"Rájec-Jestřebí","asciiname":"Rajec-Jestrebi","alternatenames":[""],"latitude":"49.41094","longitude":"16.63902","feature_class":"P","feature_code":"PPL","country_code":"CZ","cc2":"","admin1_code":"78","admin2_code":"0621","admin3_code":"","admin4_code":"","population":"3619","elevation":"","dem":"295","timezone":"Europe/Prague","modification_date":"2012-12-24"},{"geonameid":"3067314","name":"Pustiměř","asciiname":"Pustimer","alternatenames":["Nemecke Prusy","Německé Prusy","Pustomer","Pustoměř"],"latitude":"49.32251","longitude":"17.02792","feature_class":"P","feature_code":"PPL","country_code":"CZ","cc2":"","admin1_code":"78","admin2_code":"","admin3_code":"","admin4_code":"","population":"1580","elevation":"","dem":"286","timezone":"Europe/Prague","modification_date":"2006-11-25"},{"geonameid":"3067379","name":"Prušánky","asciiname":"Prusanky","alternatenames":[""],"latitude":"48.8284","longitude":"16.98068","feature_class":"P","feature_code":"PPL","country_code":"CZ","cc2":"","admin1_code":"78","admin2_code":"0625","admin3_code":"","admin4_code":"","population":"2145","elevation":"","dem":"183","timezone":"Europe/Prague","modification_date":"2013-01-16"},{"geonameid":"3067631","name":"Předklášteří","asciiname":"Predklasteri","alternatenames":["Vorkloster"],"latitude":"49.35253","longitude":"16.40241","feature_class":"P","feature_code":"PPL","country_code":"CZ","cc2":"","admin1_code":"78","admin2_code":"","admin3_code":"","admin4_code":"","population":"1446","elevation":"","dem":"261","timezone":"Europe/Prague","modification_date":"2006-11-25"},{"geonameid":"3067723","name":"Pozořice","asciiname":"Pozorice","alternatenames":["Posoritz","Posořitz"],"latitude":"49.20976","longitude":"16.79074","feature_class":"P","feature_code":"PPL","country_code":"CZ","cc2":"","admin1_code":"78","admin2_code":"","admin3_code":"","admin4_code":"","population":"2016","elevation":"","dem":"316","timezone":"Europe/Prague","modification_date":"2006-11-25"},{"geonameid":"3067953","name":"Pohořelice","asciiname":"Pohorelice","alternatenames":["Pohrlitz","bo huo re li cai","波霍熱利采"],"latitude":"48.98119","longitude":"16.52445","feature_class":"P","feature_code":"PPL","country_code":"CZ","cc2":"","admin1_code":"78","admin2_code":"","admin3_code":"","admin4_code":"","population":"4409","elevation":"","dem":"183","timezone":"Europe/Prague","modification_date":"2006-11-25"},{"geonameid":"3068020","name":"Podolí","asciiname":"Podoli","alternatenames":["Kricen","Kritschen","Kříčeň"],"latitude":"49.19042","longitude":"16.72084","feature_class":"P","feature_code":"PPL","country_code":"CZ","cc2":"CZ","admin1_code":"78","admin2_code":"","admin3_code":"","admin4_code":"","population":"1074","elevation":"","dem":"243","timezone":"Europe/Prague","modification_date":"2006-11-25"},{"geonameid":"3068066","name":"Podivín","asciiname":"Podivin","alternatenames":[""],"latitude":"48.82554","longitude":"16.84822","feature_class":"P","feature_code":"PPL","country_code":"CZ","cc2":"","admin1_code":"78","admin2_code":"","admin3_code":"","admin4_code":"","population":"2872","elevation":"","dem":"169","timezone":"Europe/Prague","modification_date":"2006-11-25"},{"geonameid":"3068383","name":"Petrov","asciiname":"Petrov","alternatenames":[""],"latitude":"48.88196","longitude":"17.2781","feature_class":"P","feature_code":"PPL","country_code":"CZ","cc2":"","admin1_code":"78","admin2_code":"","admin3_code":"","admin4_code":"","population":"1354","elevation":"","dem":"169","timezone":"Europe/Prague","modification_date":"2006-11-25"},{"geonameid":"3068706","name":"Otnice","asciiname":"Otnice","alternatenames":["Ottnitz"],"latitude":"49.08642","longitude":"16.81443","feature_class":"P","feature_code":"PPL","country_code":"CZ","cc2":"","admin1_code":"78","admin2_code":"","admin3_code":"","admin4_code":"","population":"1411","elevation":"","dem":"212","timezone":"Europe/Prague","modification_date":"2006-11-25"},{"geonameid":"3068753","name":"Ostrov u Macochy","asciiname":"Ostrov u Macochy","alternatenames":["Ostrow"],"latitude":"49.38236","longitude":"16.76268","feature_class":"P","feature_code":"PPL","country_code":"CZ","cc2":"","admin1_code":"78","admin2_code":"","admin3_code":"","admin4_code":"","population":"1078","elevation":"","dem":"503","timezone":"Europe/Prague","modification_date":"2006-11-25"},{"geonameid":"3068805","name":"Ostopovice","asciiname":"Ostopovice","alternatenames":[""],"latitude":"49.161","longitude":"16.54548","feature_class":"P","feature_code":"PPL","country_code":"CZ","cc2":"","admin1_code":"78","admin2_code":"","admin3_code":"","admin4_code":"","population":"1367","elevation":"","dem":"238","timezone":"Europe/Prague","modification_date":"2006-11-25"},{"geonameid":"3068830","name":"Oslavany","asciiname":"Oslavany","alternatenames":["Oslawan"],"latitude":"49.12335","longitude":"16.33653","feature_class":"P","feature_code":"PPL","country_code":"CZ","cc2":"","admin1_code":"78","admin2_code":"","admin3_code":"","admin4_code":"","population":"4561","elevation":"","dem":"218","timezone":"Europe/Prague","modification_date":"2006-11-25"},{"geonameid":"3068897","name":"Ořechov","asciiname":"Orechov","alternatenames":["Gross Urhau"],"latitude":"49.11118","longitude":"16.52329","feature_class":"P","feature_code":"PPL","country_code":"CZ","cc2":"","admin1_code":"78","admin2_code":"","admin3_code":"","admin4_code":"","population":"2368","elevation":"","dem":"296","timezone":"Europe/Prague","modification_date":"2006-11-25"},{"geonameid":"3069029","name":"Olešnice","asciiname":"Olesnice","alternatenames":["Oels","Oleshnice","Olesnice na Morave","Olešnice na Moravě","ao lai shen ni cai","Олешнице","奧萊什尼采"],"latitude":"49.55755","longitude":"16.42169","feature_class":"P","feature_code":"PPL","country_code":"CZ","cc2":"","admin1_code":"78","admin2_code":"","admin3_code":"","admin4_code":"","population":"1757","elevation":"","dem":"550","timezone":"Europe/Prague","modification_date":"2006-11-25"},{"geonameid":"3069082","name":"Olbramovice","asciiname":"Olbramovice","alternatenames":["Wolframitz"],"latitude":"48.9848","longitude":"16.40239","feature_class":"P","feature_code":"PPL","country_code":"CZ","cc2":"","admin1_code":"78","admin2_code":"","admin3_code":"","admin4_code":"","population":"1048","elevation":"","dem":"197","timezone":"Europe/Prague","modification_date":"2006-11-25"},{"geonameid":"3069395","name":"Novosedly","asciiname":"Novosedly","alternatenames":["Neusiedl"],"latitude":"48.83704","longitude":"16.49273","feature_class":"P","feature_code":"PPL","country_code":"CZ","cc2":"","admin1_code":"78","admin2_code":"","admin3_code":"","admin4_code":"","population":"1162","elevation":"","dem":"176","timezone":"Europe/Prague","modification_date":"2006-11-25"},{"geonameid":"3069720","name":"Nosislav","asciiname":"Nosislav","alternatenames":["Noslau"],"latitude":"49.0138","longitude":"16.65431","feature_class":"P","feature_code":"PPL","country_code":"CZ","cc2":"","admin1_code":"78","admin2_code":"","admin3_code":"","admin4_code":"","population":"1230","elevation":"","dem":"184","timezone":"Europe/Prague","modification_date":"2006-11-25"},{"geonameid":"3069832","name":"Nesovice","asciiname":"Nesovice","alternatenames":["Nessowitz"],"latitude":"49.15111","longitude":"17.08095","feature_class":"P","feature_code":"PPL","country_code":"CZ","cc2":"","admin1_code":"78","admin2_code":"","admin3_code":"","admin4_code":"","population":"1152","elevation":"","dem":"239","timezone":"Europe/Prague","modification_date":"2006-11-25"},{"geonameid":"3069952","name":"Nedvědice","asciiname":"Nedvedice","alternatenames":["Nedweditz","Nedwěditz"],"latitude":"49.45702","longitude":"16.33406","feature_class":"P","feature_code":"PPL","country_code":"CZ","cc2":"","admin1_code":"78","admin2_code":"0623","admin3_code":"","admin4_code":"","population":"1330","elevation":"","dem":"328","timezone":"Europe/Prague","modification_date":"2014-05-13"},{"geonameid":"3070190","name":"Mutěnice","asciiname":"Mutenice","alternatenames":["Mutienitz"],"latitude":"48.90413","longitude":"17.02917","feature_class":"P","feature_code":"PPL","country_code":"CZ","cc2":"","admin1_code":"78","admin2_code":"","admin3_code":"","admin4_code":"","population":"3647","elevation":"","dem":"182","timezone":"Europe/Prague","modification_date":"2006-11-25"},{"geonameid":"3070264","name":"Moutnice","asciiname":"Moutnice","alternatenames":[""],"latitude":"49.04924","longitude":"16.73741","feature_class":"P","feature_code":"PPL","country_code":"CZ","cc2":"","admin1_code":"78","admin2_code":"","admin3_code":"","admin4_code":"","population":"1139","elevation":"","dem":"193","timezone":"Europe/Prague","modification_date":"2006-11-25"},{"geonameid":"3070306","name":"Moravský Žižkov","asciiname":"Moravsky Zizkov","alternatenames":[""],"latitude":"48.83285","longitude":"16.9314","feature_class":"P","feature_code":"PPL","country_code":"CZ","cc2":"","admin1_code":"78","admin2_code":"0624","admin3_code":"","admin4_code":"","population":"1396","elevation":"","dem":"195","timezone":"Europe/Prague","modification_date":"2013-01-16"},{"geonameid":"3070308","name":"Moravský Písek","asciiname":"Moravsky Pisek","alternatenames":[""],"latitude":"48.99016","longitude":"17.33269","feature_class":"P","feature_code":"PPL","country_code":"CZ","cc2":"","admin1_code":"78","admin2_code":"","admin3_code":"","admin4_code":"","population":"2201","elevation":"","dem":"178","timezone":"Europe/Prague","modification_date":"2006-11-25"},{"geonameid":"3070310","name":"Moravský Krumlov","asciiname":"Moravsky Krumlov","alternatenames":["Mahrisch Kromau","Mährisch Kromau"],"latitude":"49.04893","longitude":"16.31169","feature_class":"P","feature_code":"PPL","country_code":"CZ","cc2":"","admin1_code":"78","admin2_code":"","admin3_code":"","admin4_code":"","population":"6050","elevation":"","dem":"258","timezone":"Europe/Prague","modification_date":"2006-11-25"},{"geonameid":"3070329","name":"Moravská Nová Ves","asciiname":"Moravska Nova Ves","alternatenames":[""],"latitude":"48.80304","longitude":"17.01371","feature_class":"P","feature_code":"PPL","country_code":"CZ","cc2":"","admin1_code":"78","admin2_code":"0624","admin3_code":"","admin4_code":"","population":"2517","elevation":"","dem":"190","timezone":"Europe/Prague","modification_date":"2012-12-24"},{"geonameid":"3070356","name":"Moravany","asciiname":"Moravany","alternatenames":["Morbes"],"latitude":"49.1478","longitude":"16.58026","feature_class":"P","feature_code":"PPL","country_code":"CZ","cc2":"","admin1_code":"78","admin2_code":"","admin3_code":"","admin4_code":"","population":"1286","elevation":"","dem":"248","timezone":"Europe/Prague","modification_date":"2008-07-08"},{"geonameid":"3070390","name":"Mokrá Hora","asciiname":"Mokra Hora","alternatenames":[""],"latitude":"49.26176","longitude":"16.59107","feature_class":"P","feature_code":"PPL","country_code":"CZ","cc2":"","admin1_code":"78","admin2_code":"0622","admin3_code":"","admin4_code":"","population":"2612","elevation":"","dem":"286","timezone":"Europe/Prague","modification_date":"2014-05-13"},{"geonameid":"3070416","name":"Modřice","asciiname":"Modrice","alternatenames":["Modritz","Mödritz"],"latitude":"49.11928","longitude":"16.60446","feature_class":"P","feature_code":"PPL","country_code":"CZ","cc2":"","admin1_code":"78","admin2_code":"","admin3_code":"","admin4_code":"","population":"3866","elevation":"","dem":"204","timezone":"Europe/Prague","modification_date":"2008-07-08"},{"geonameid":"3070593","name":"Miroslav","asciiname":"Miroslav","alternatenames":["Misslitz"],"latitude":"48.94767","longitude":"16.31252","feature_class":"P","feature_code":"PPL","country_code":"CZ","cc2":"","admin1_code":"78","admin2_code":"","admin3_code":"","admin4_code":"","population":"3017","elevation":"","dem":"253","timezone":"Europe/Prague","modification_date":"2006-11-25"},{"geonameid":"3070640","name":"Milotice","asciiname":"Milotice","alternatenames":[""],"latitude":"48.95528","longitude":"17.14241","feature_class":"P","feature_code":"PPL","country_code":"CZ","cc2":"","admin1_code":"78","admin2_code":"","admin3_code":"","admin4_code":"","population":"1941","elevation":"","dem":"183","timezone":"Europe/Prague","modification_date":"2006-11-25"},{"geonameid":"3070720","name":"Mikulov","asciiname":"Mikulov","alternatenames":["Mekoluovs","Mikulov","Míkulov","Mėkoluovs","Nickolsburg","Nikolov","Nikolsburg","mi ku luo fu","mikurofu","myqwlwb","Микулов","Мікулов","מיקולוב","ניקאלשבורג","ミクロフ","米庫洛夫"],"latitude":"48.80556","longitude":"16.6378","feature_class":"P","feature_code":"PPL","country_code":"CZ","cc2":"","admin1_code":"78","admin2_code":"0624","admin3_code":"","admin4_code":"","population":"7608","elevation":"","dem":"243","timezone":"Europe/Prague","modification_date":"2012-12-13"},{"geonameid":"3070724","name":"Mikulčice","asciiname":"Mikulcice","alternatenames":[""],"latitude":"48.81643","longitude":"17.05107","feature_class":"P","feature_code":"PPL","country_code":"CZ","cc2":"","admin1_code":"78","admin2_code":"0625","admin3_code":"","admin4_code":"","population":"1881","elevation":"","dem":"163","timezone":"Europe/Prague","modification_date":"2013-01-25"},{"geonameid":"3070853","name":"Měnín","asciiname":"Menin","alternatenames":["Monitz","Mönitz"],"latitude":"49.0824","longitude":"16.69424","feature_class":"P","feature_code":"PPL","country_code":"CZ","cc2":"","admin1_code":"78","admin2_code":"","admin3_code":"","admin4_code":"","population":"1657","elevation":"","dem":"191","timezone":"Europe/Prague","modification_date":"2006-11-25"},{"geonameid":"3071302","name":"Lysice","asciiname":"Lysice","alternatenames":["Lissitz"],"latitude":"49.4516","longitude":"16.53716","feature_class":"P","feature_code":"PPL","country_code":"CZ","cc2":"","admin1_code":"78","admin2_code":"","admin3_code":"","admin4_code":"","population":"1831","elevation":"","dem":"362","timezone":"Europe/Prague","modification_date":"2006-11-25"},{"geonameid":"3071330","name":"Lužice","asciiname":"Luzice","alternatenames":[""],"latitude":"48.84098","longitude":"17.07104","feature_class":"P","feature_code":"PPL","country_code":"CZ","cc2":"","admin1_code":"78","admin2_code":"","admin3_code":"","admin4_code":"","population":"2750","elevation":"","dem":"174","timezone":"Europe/Prague","modification_date":"2006-11-25"},{"geonameid":"3071529","name":"Louka","asciiname":"Louka","alternatenames":[""],"latitude":"48.91517","longitude":"17.48927","feature_class":"P","feature_code":"PPL","country_code":"CZ","cc2":"","admin1_code":"78","admin2_code":"","admin3_code":"","admin4_code":"","population":"1045","elevation":"","dem":"246","timezone":"Europe/Prague","modification_date":"2006-11-25"},{"geonameid":"3071611","name":"Lomnice","asciiname":"Lomnice","alternatenames":["Lomnice u Tisnova","Lomnice u Tišnova","Lomnitz"],"latitude":"49.40462","longitude":"16.41359","feature_class":"P","feature_code":"PPL","country_code":"CZ","cc2":"","admin1_code":"78","admin2_code":"0623","admin3_code":"","admin4_code":"","population":"1300","elevation":"","dem":"373","timezone":"Europe/Prague","modification_date":"2013-01-25"},{"geonameid":"3071759","name":"Lipůvka","asciiname":"Lipuvka","alternatenames":["Lipuwka"],"latitude":"49.33933","longitude":"16.55313","feature_class":"P","feature_code":"PPL","country_code":"CZ","cc2":"CZ","admin1_code":"78","admin2_code":"","admin3_code":"","admin4_code":"","population":"1135","elevation":"","dem":"367","timezone":"Europe/Prague","modification_date":"2008-07-09"},{"geonameid":"3071771","name":"Lipovec","asciiname":"Lipovec","alternatenames":["Lipowetz"],"latitude":"49.38394","longitude":"16.80583","feature_class":"P","feature_code":"PPL","country_code":"CZ","cc2":"","admin1_code":"78","admin2_code":"","admin3_code":"","admin4_code":"","population":"1045","elevation":"","dem":"552","timezone":"Europe/Prague","modification_date":"2006-11-25"},{"geonameid":"3071782","name":"Lipov","asciiname":"Lipov","alternatenames":[""],"latitude":"48.90495","longitude":"17.46171","feature_class":"P","feature_code":"PPL","country_code":"CZ","cc2":"","admin1_code":"78","admin2_code":"","admin3_code":"","admin4_code":"","population":"1560","elevation":"","dem":"228","timezone":"Europe/Prague","modification_date":"2006-11-25"},{"geonameid":"3072130","name":"Letovice","asciiname":"Letovice","alternatenames":["Letovice","Lettowitz","lai tuo wei cai","Летовице","萊托維采"],"latitude":"49.54709","longitude":"16.57357","feature_class":"P","feature_code":"PPL","country_code":"CZ","cc2":"","admin1_code":"78","admin2_code":"0621","admin3_code":"","admin4_code":"","population":"6799","elevation":"","dem":"330","timezone":"Europe/Prague","modification_date":"2013-01-25"},{"geonameid":"3072133","name":"Letonice","asciiname":"Letonice","alternatenames":["Letonitz"],"latitude":"49.17726","longitude":"16.95913","feature_class":"P","feature_code":"PPL","country_code":"CZ","cc2":"","admin1_code":"78","admin2_code":"","admin3_code":"","admin4_code":"","population":"1419","elevation":"","dem":"260","timezone":"Europe/Prague","modification_date":"2006-11-25"},{"geonameid":"3072224","name":"Lelekovice","asciiname":"Lelekovice","alternatenames":["Lelekowitz"],"latitude":"49.29144","longitude":"16.57874","feature_class":"P","feature_code":"PPL","country_code":"CZ","cc2":"","admin1_code":"78","admin2_code":"0623","admin3_code":"","admin4_code":"","population":"1476","elevation":"","dem":"308","timezone":"Europe/Prague","modification_date":"2012-12-24"},{"geonameid":"3072232","name":"Lednice","asciiname":"Lednice","alternatenames":["Eisgrub","Lednece","Lednice","Lednicy","Lednicė","Lednėcē","Леднице","Ледніцы"],"latitude":"48.79992","longitude":"16.80339","feature_class":"P","feature_code":"PPL","country_code":"CZ","cc2":"","admin1_code":"78","admin2_code":"0624","admin3_code":"","admin4_code":"","population":"2355","elevation":"","dem":"172","timezone":"Europe/Prague","modification_date":"2013-01-03"},{"geonameid":"3072319","name":"Lanžhot","asciiname":"Lanzhot","alternatenames":["Landshut"],"latitude":"48.72443","longitude":"16.96695","feature_class":"P","feature_code":"PPL","country_code":"CZ","cc2":"","admin1_code":"78","admin2_code":"0624","admin3_code":"","admin4_code":"","population":"3713","elevation":"","dem":"168","timezone":"Europe/Prague","modification_date":"2013-01-16"},{"geonameid":"3072407","name":"Kyjov","asciiname":"Kyjov","alternatenames":["Gaya","Kijov","ji yue fu","Кийов","Кијов","基約夫"],"latitude":"49.01018","longitude":"17.12253","feature_class":"P","feature_code":"PPL","country_code":"CZ","cc2":"CZ","admin1_code":"78","admin2_code":"0625","admin3_code":"","admin4_code":"","population":"12191","elevation":"","dem":"191","timezone":"Europe/Prague","modification_date":"2012-12-13"},{"geonameid":"3072476","name":"Kuřim","asciiname":"Kurim","alternatenames":["Gurein","Kurim","ku ri mu","Курим","庫日姆"],"latitude":"49.29852","longitude":"16.53144","feature_class":"P","feature_code":"PPL","country_code":"CZ","cc2":"","admin1_code":"78","admin2_code":"","admin3_code":"","admin4_code":"","population":"9283","elevation":"","dem":"283","timezone":"Europe/Prague","modification_date":"2006-11-25"},{"geonameid":"3072486","name":"Kunštát","asciiname":"Kunstat","alternatenames":["Kunshhat","Kunstadt","kun shen ta te","Кунщат","昆什塔特"],"latitude":"49.50645","longitude":"16.51722","feature_class":"P","feature_code":"PPL","country_code":"CZ","cc2":"","admin1_code":"78","admin2_code":"0621","admin3_code":"","admin4_code":"","population":"2637","elevation":"","dem":"443","timezone":"Europe/Prague","modification_date":"2013-01-04"},{"geonameid":"3072605","name":"Krumvíř","asciiname":"Krumvir","alternatenames":[""],"latitude":"48.98901","longitude":"16.91027","feature_class":"P","feature_code":"PPL","country_code":"CZ","cc2":"","admin1_code":"78","admin2_code":"","admin3_code":"","admin4_code":"","population":"1112","elevation":"","dem":"182","timezone":"Europe/Prague","modification_date":"2006-11-25"},{"geonameid":"3072760","name":"Křepice","asciiname":"Krepice","alternatenames":[""],"latitude":"48.99986","longitude":"16.71989","feature_class":"P","feature_code":"PPL","country_code":"CZ","cc2":"","admin1_code":"78","admin2_code":"","admin3_code":"","admin4_code":"","population":"1254","elevation":"","dem":"235","timezone":"Europe/Prague","modification_date":"2006-11-25"},{"geonameid":"3072771","name":"Křenovice","asciiname":"Krenovice","alternatenames":["Krenowitz"],"latitude":"49.14216","longitude":"16.82932","feature_class":"P","feature_code":"PPL","country_code":"CZ","cc2":"CZ","admin1_code":"78","admin2_code":"","admin3_code":"","admin4_code":"","population":"1738","elevation":"","dem":"204","timezone":"Europe/Prague","modification_date":"2006-11-25"},{"geonameid":"3073130","name":"Kostice","asciiname":"Kostice","alternatenames":[""],"latitude":"48.74685","longitude":"16.97869","feature_class":"P","feature_code":"PPL","country_code":"CZ","cc2":"","admin1_code":"78","admin2_code":"","admin3_code":"","admin4_code":"","population":"1864","elevation":"","dem":"167","timezone":"Europe/Prague","modification_date":"2006-11-25"},{"geonameid":"3073483","name":"Kobylí","asciiname":"Kobyli","alternatenames":[""],"latitude":"48.93286","longitude":"16.89159","feature_class":"P","feature_code":"PPL","country_code":"CZ","cc2":"","admin1_code":"78","admin2_code":"","admin3_code":"","admin4_code":"","population":"2058","elevation":"","dem":"219","timezone":"Europe/Prague","modification_date":"2006-11-25"},{"geonameid":"3073541","name":"Kněždub","asciiname":"Knezdub","alternatenames":[""],"latitude":"48.88666","longitude":"17.39546","feature_class":"P","feature_code":"PPL","country_code":"CZ","cc2":"","admin1_code":"78","admin2_code":"","admin3_code":"","admin4_code":"","population":"1084","elevation":"","dem":"185","timezone":"Europe/Prague","modification_date":"2006-11-25"},{"geonameid":"3073583","name":"Klobouky","asciiname":"Klobouky","alternatenames":["Klobouk","Klobouky"],"latitude":"48.99609","longitude":"16.86298","feature_class":"P","feature_code":"PPL","country_code":"CZ","cc2":"","admin1_code":"78","admin2_code":"","admin3_code":"","admin4_code":"","population":"2227","elevation":"","dem":"220","timezone":"Europe/Prague","modification_date":"2012-01-19"},{"geonameid":"3074239","name":"Jevišovice","asciiname":"Jevisovice","alternatenames":[""],"latitude":"48.98736","longitude":"15.98992","feature_class":"P","feature_code":"PPL","country_code":"CZ","cc2":"","admin1_code":"78","admin2_code":"0627","admin3_code":"","admin4_code":"","population":"1162","elevation":"","dem":"365","timezone":"Europe/Prague","modification_date":"2012-12-24"},{"geonameid":"3074360","name":"Jedovnice","asciiname":"Jedovnice","alternatenames":["Jedownitz"],"latitude":"49.34453","longitude":"16.75595","feature_class":"P","feature_code":"PPL","country_code":"CZ","cc2":"","admin1_code":"78","admin2_code":"0621","admin3_code":"","admin4_code":"","population":"2578","elevation":"","dem":"472","timezone":"Europe/Prague","modification_date":"2013-01-11"},{"geonameid":"3074452","name":"Jaroslavice","asciiname":"Jaroslavice","alternatenames":["Joslowitz"],"latitude":"48.75657","longitude":"16.23351","feature_class":"P","feature_code":"PPL","country_code":"CZ","cc2":"","admin1_code":"78","admin2_code":"","admin3_code":"","admin4_code":"","population":"1250","elevation":"","dem":"191","timezone":"Europe/Prague","modification_date":"2006-11-25"},{"geonameid":"3074614","name":"Ivanovice na Hané","asciiname":"Ivanovice na Hane","alternatenames":["Eiwanowitz"],"latitude":"49.30542","longitude":"17.09343","feature_class":"P","feature_code":"PPL","country_code":"CZ","cc2":"","admin1_code":"78","admin2_code":"","admin3_code":"","admin4_code":"","population":"2884","elevation":"","dem":"224","timezone":"Europe/Prague","modification_date":"2006-11-25"},{"geonameid":"3074615","name":"Ivančice","asciiname":"Ivancice","alternatenames":["Eibenschitz","Ivanchice","yi wan qi cai","Иванчице","伊萬契采"],"latitude":"49.10144","longitude":"16.37752","feature_class":"P","feature_code":"PPL","country_code":"CZ","cc2":"","admin1_code":"78","admin2_code":"","admin3_code":"","admin4_code":"","population":"9354","elevation":"","dem":"212","timezone":"Europe/Prague","modification_date":"2006-11-25"},{"geonameid":"3074677","name":"Hustopeče","asciiname":"Hustopece","alternatenames":["Auspitz","Hostuopece","Hostuopečē","hu si tuo pei qie","胡斯托佩切"],"latitude":"48.94085","longitude":"16.73762","feature_class":"P","feature_code":"PPL","country_code":"CZ","cc2":"","admin1_code":"78","admin2_code":"0624","admin3_code":"","admin4_code":"","population":"5913","elevation":"","dem":"197","timezone":"Europe/Prague","modification_date":"2013-01-17"},{"geonameid":"3074763","name":"Hrušovany u Brna","asciiname":"Hrusovany u Brna","alternatenames":["Rohrbach"],"latitude":"49.03863","longitude":"16.59429","feature_class":"P","feature_code":"PPL","country_code":"CZ","cc2":"","admin1_code":"78","admin2_code":"","admin3_code":"","admin4_code":"","population":"2941","elevation":"","dem":"185","timezone":"Europe/Prague","modification_date":"2006-11-25"},{"geonameid":"3074764","name":"Hrušovany nad Jevišovkou","asciiname":"Hrusovany nad Jevisovkou","alternatenames":["Grusbach"],"latitude":"48.82991","longitude":"16.40271","feature_class":"P","feature_code":"PPL","country_code":"CZ","cc2":"","admin1_code":"78","admin2_code":"","admin3_code":"","admin4_code":"","population":"3209","elevation":"","dem":"179","timezone":"Europe/Prague","modification_date":"2006-11-25"},{"geonameid":"3074773","name":"Hrušky","asciiname":"Hrusky","alternatenames":[""],"latitude":"48.79272","longitude":"16.97404","feature_class":"P","feature_code":"PPL","country_code":"CZ","cc2":"","admin1_code":"78","admin2_code":"","admin3_code":"","admin4_code":"","population":"1409","elevation":"","dem":"172","timezone":"Europe/Prague","modification_date":"2006-11-25"},{"geonameid":"3074795","name":"Hroznová Lhota","asciiname":"Hroznova Lhota","alternatenames":[""],"latitude":"48.90784","longitude":"17.41697","feature_class":"P","feature_code":"PPL","country_code":"CZ","cc2":"","admin1_code":"78","admin2_code":"","admin3_code":"","admin4_code":"","population":"1253","elevation":"","dem":"200","timezone":"Europe/Prague","modification_date":"2006-11-25"},{"geonameid":"3075023","name":"Hovorany","asciiname":"Hovorany","alternatenames":[""],"latitude":"48.95493","longitude":"16.99346","feature_class":"P","feature_code":"PPL","country_code":"CZ","cc2":"","admin1_code":"78","admin2_code":"","admin3_code":"","admin4_code":"","population":"2232","elevation":"","dem":"193","timezone":"Europe/Prague","modification_date":"2006-11-25"},{"geonameid":"3075079","name":"Hostěradice","asciiname":"Hosteradice","alternatenames":["Hosterlitz"],"latitude":"48.95006","longitude":"16.25931","feature_class":"P","feature_code":"PPL","country_code":"CZ","cc2":"","admin1_code":"78","admin2_code":"","admin3_code":"","admin4_code":"","population":"1488","elevation":"","dem":"215","timezone":"Europe/Prague","modification_date":"2006-11-25"},{"geonameid":"3075654","name":"Hodonín","asciiname":"Hodonin","alternatenames":["Goding","Godonin","Göding","Hodonin","Hodonín","Годонин"],"latitude":"48.84893","longitude":"17.13244","feature_class":"P","feature_code":"PPL","country_code":"CZ","cc2":"","admin1_code":"78","admin2_code":"","admin3_code":"","admin4_code":"","population":"26345","elevation":"","dem":"163","timezone":"Europe/Prague","modification_date":"2007-02-18"},{"geonameid":"3075656","name":"Hodonice","asciiname":"Hodonice","alternatenames":["Hodnitz","Hödnitz"],"latitude":"48.8368","longitude":"16.16337","feature_class":"P","feature_code":"PPL","country_code":"CZ","cc2":"","admin1_code":"78","admin2_code":"","admin3_code":"","admin4_code":"","population":"1648","elevation":"","dem":"217","timezone":"Europe/Prague","modification_date":"2006-11-25"},{"geonameid":"3075756","name":"Hlohovec","asciiname":"Hlohovec","alternatenames":[""],"latitude":"48.77399","longitude":"16.7623","feature_class":"P","feature_code":"PPL","country_code":"CZ","cc2":"","admin1_code":"78","admin2_code":"0624","admin3_code":"","admin4_code":"","population":"1315","elevation":"","dem":"177","timezone":"Europe/Prague","modification_date":"2013-01-03"},{"geonameid":"3075827","name":"Hevlín","asciiname":"Hevlin","alternatenames":["Hoflein","Höflein"],"latitude":"48.75209","longitude":"16.38131","feature_class":"P","feature_code":"PPL","country_code":"CZ","cc2":"","admin1_code":"78","admin2_code":"","admin3_code":"","admin4_code":"","population":"1366","elevation":"","dem":"178","timezone":"Europe/Prague","modification_date":"2006-11-25"},{"geonameid":"3076329","name":"Dubňany","asciiname":"Dubnany","alternatenames":["Dubnain"],"latitude":"48.91694","longitude":"17.09004","feature_class":"P","feature_code":"PPL","country_code":"CZ","cc2":"","admin1_code":"78","admin2_code":"","admin3_code":"","admin4_code":"","population":"6649","elevation":"","dem":"191","timezone":"Europe/Prague","modification_date":"2006-11-25"},{"geonameid":"3078503","name":"Bučovice","asciiname":"Bucovice","alternatenames":["Butschowitz","bu qiao wei cai","布喬維采"],"latitude":"49.14896","longitude":"17.00191","feature_class":"P","feature_code":"PPL","country_code":"CZ","cc2":"","admin1_code":"78","admin2_code":"","admin3_code":"","admin4_code":"","population":"6386","elevation":"","dem":"219","timezone":"Europe/Prague","modification_date":"2006-11-25"},{"geonameid":"3078610","name":"Brno","asciiname":"Brno","alternatenames":["BRQ","Berno","Brno","Bruenn","Bruna","Brunn","Brünn","Burno","Gorad Brno","Mprno","beuleuno","bexr no","brano","brno","brnw","bryn","bu er nuo","buruno","Μπρνο","Брно","Бърно","Горад Брно","ברין","ברנו","برنو","ब्रनो","เบอร์โน","ბრნო","ブルノ","布爾諾","브르노"],"latitude":"49.19522","longitude":"16.60796","feature_class":"P","feature_code":"PPLA","country_code":"CZ","cc2":"","admin1_code":"78","admin2_code":"0622","admin3_code":"","admin4_code":"","population":"369559","elevation":"","dem":"226","timezone":"Europe/Prague","modification_date":"2012-11-22"},{"geonameid":"3078773","name":"Břeclav","asciiname":"Breclav","alternatenames":["Brecizlavia","Breclav","Brzeclavs","Brzeclaw","Brzecław","Brzheclav","Bržeclavs","Břeclav","Lundenburg","beuleujecheullapeu","brzhtslaw","bu re ci la fu","bujetsurafu","Брецлав","Бржецлав","برژتسلاو","ブジェツラフ","布熱茨拉夫","브르제츨라프"],"latitude":"48.75897","longitude":"16.88203","feature_class":"P","feature_code":"PPL","country_code":"CZ","cc2":"","admin1_code":"78","admin2_code":"0624","admin3_code":"","admin4_code":"","population":"25789","elevation":"","dem":"161","timezone":"Europe/Prague","modification_date":"2012-12-13"},{"geonameid":"3078910","name":"Boskovice","asciiname":"Boskovice","alternatenames":["Boskovice","Boskowitz","bo si ke wei cai","Босковице","博斯科維采"],"latitude":"49.48751","longitude":"16.65997","feature_class":"P","feature_code":"PPL","country_code":"CZ","cc2":"","admin1_code":"78","admin2_code":"0621","admin3_code":"","admin4_code":"","population":"11121","elevation":"","dem":"386","timezone":"Europe/Prague","modification_date":"2012-12-13"},{"geonameid":"3079273","name":"Blansko","asciiname":"Blansko","alternatenames":["Blansko","Бланско"],"latitude":"49.36304","longitude":"16.64446","feature_class":"P","feature_code":"PPL","country_code":"CZ","cc2":"","admin1_code":"78","admin2_code":"0621","admin3_code":"","admin4_code":"","population":"20384","elevation":"","dem":"278","timezone":"Europe/Prague","modification_date":"2012-11-16"}]}