{"region_data":{"adminCode1":"83","lng":"15","geonameId":3339541,"toponymName":"Liberecký kraj","countryId":"3077311","fcl":"A","population":427855,"numberOfChildren":4,"countryCode":"CZ","name":"Liberecký kraj","fclName":"country, state, region,...","countryName":"Czech Republic","fcodeName":"first-order administrative division","adminName1":"Liberecký","lat":"50.75","fcode":"ADM1"},"country_data":{"ISO":"CZ","ISO3":"CZE","ISO_Numeric":"203","fips":"EZ","country":"Czech Republic","capital":"Prague","area":"78866","Population":"10476000","Continent":"EU","tld":".cz","CurrencyCode":"CZK","CurrencyName":"Koruna","Phone":"420","Postal_Code_Format":"### ##","Postal_Code_Regex":"^(\\d{5})$","Languages":"cs,sk","geonameid":"3077311","neighbours":"PL,DE,SK,AT","EquivalentFipsCode":""},"cities":[{"geonameid":"3061562","name":"Železný Brod","asciiname":"Zelezny Brod","alternatenames":["Eisenbrod"],"latitude":"50.64274","longitude":"15.25408","feature_class":"P","feature_code":"PPL","country_code":"CZ","cc2":"","admin1_code":"83","admin2_code":"","admin3_code":"","admin4_code":"","population":"6442","elevation":"","dem":"282","timezone":"Europe/Prague","modification_date":"2008-11-28"},{"geonameid":"3062213","name":"Vysoké nad Jizerou","asciiname":"Vysoke nad Jizerou","alternatenames":["Hochstadt"],"latitude":"50.68559","longitude":"15.40152","feature_class":"P","feature_code":"PPL","country_code":"CZ","cc2":"","admin1_code":"83","admin2_code":"0514","admin3_code":"","admin4_code":"","population":"1363","elevation":"","dem":"699","timezone":"Europe/Prague","modification_date":"2012-12-24"},{"geonameid":"3062836","name":"Višňova","asciiname":"Visnova","alternatenames":["Weigsdorf"],"latitude":"50.96663","longitude":"15.02495","feature_class":"P","feature_code":"PPL","country_code":"CZ","cc2":"","admin1_code":"83","admin2_code":"","admin3_code":"","admin4_code":"","population":"1319","elevation":"","dem":"234","timezone":"Europe/Prague","modification_date":"2006-11-25"},{"geonameid":"3063209","name":"Velké Hamry","asciiname":"Velke Hamry","alternatenames":["Ober Hammer","Unter Hammer"],"latitude":"50.71373","longitude":"15.31539","feature_class":"P","feature_code":"PPL","country_code":"CZ","cc2":"","admin1_code":"83","admin2_code":"","admin3_code":"","admin4_code":"","population":"2754","elevation":"","dem":"411","timezone":"Europe/Prague","modification_date":"2006-11-25"},{"geonameid":"3063436","name":"Valdice","asciiname":"Valdice","alternatenames":[""],"latitude":"50.5835","longitude":"15.41248","feature_class":"P","feature_code":"PPL","country_code":"CZ","cc2":"","admin1_code":"83","admin2_code":"","admin3_code":"","admin4_code":"","population":"1459","elevation":"","dem":"433","timezone":"Europe/Prague","modification_date":"2011-03-07"},{"geonameid":"3063853","name":"Turnov","asciiname":"Turnov","alternatenames":["Turnau","Turnov","Turnovas","tu er nuo fu","tuleunopeu","Турнов","图尔诺夫","투르노프"],"latitude":"50.58356","longitude":"15.15186","feature_class":"P","feature_code":"PPL","country_code":"CZ","cc2":"","admin1_code":"83","admin2_code":"0514","admin3_code":"","admin4_code":"","population":"14507","elevation":"","dem":"255","timezone":"Europe/Prague","modification_date":"2013-01-04"},{"geonameid":"3064358","name":"Tanvald","asciiname":"Tanvald","alternatenames":["Tannwald"],"latitude":"50.73735","longitude":"15.30585","feature_class":"P","feature_code":"PPL","country_code":"CZ","cc2":"","admin1_code":"83","admin2_code":"0512","admin3_code":"","admin4_code":"","population":"6921","elevation":"","dem":"479","timezone":"Europe/Prague","modification_date":"2013-01-11"},{"geonameid":"3064811","name":"Studenec","asciiname":"Studenec","alternatenames":[""],"latitude":"50.55344","longitude":"15.54936","feature_class":"P","feature_code":"PPL","country_code":"CZ","cc2":"","admin1_code":"83","admin2_code":"","admin3_code":"","admin4_code":"","population":"1734","elevation":"","dem":"535","timezone":"Europe/Prague","modification_date":"2006-11-25"},{"geonameid":"3064983","name":"Stráž pod Ralskem","asciiname":"Straz pod Ralskem","alternatenames":["Wartenberg"],"latitude":"50.7028","longitude":"14.80102","feature_class":"P","feature_code":"PPL","country_code":"CZ","cc2":"","admin1_code":"83","admin2_code":"0511","admin3_code":"","admin4_code":"","population":"4068","elevation":"","dem":"315","timezone":"Europe/Prague","modification_date":"2013-01-11"},{"geonameid":"3065684","name":"Smržovka","asciiname":"Smrzovka","alternatenames":["Morchenstern"],"latitude":"50.7382","longitude":"15.24639","feature_class":"P","feature_code":"PPL","country_code":"CZ","cc2":"","admin1_code":"83","admin2_code":"0512","admin3_code":"","admin4_code":"","population":"3433","elevation":"","dem":"583","timezone":"Europe/Prague","modification_date":"2012-12-18"},{"geonameid":"3066220","name":"Semily","asciiname":"Semily","alternatenames":["Semil"],"latitude":"50.60191","longitude":"15.33552","feature_class":"P","feature_code":"PPL","country_code":"CZ","cc2":"","admin1_code":"83","admin2_code":"","admin3_code":"","admin4_code":"","population":"9040","elevation":"","dem":"321","timezone":"Europe/Prague","modification_date":"2006-11-25"},{"geonameid":"3066703","name":"Rovensko pod Troskami","asciiname":"Rovensko pod Troskami","alternatenames":["Rovensko","Rowensko"],"latitude":"50.53532","longitude":"15.25941","feature_class":"P","feature_code":"PPL","country_code":"CZ","cc2":"","admin1_code":"83","admin2_code":"","admin3_code":"","admin4_code":"","population":"1267","elevation":"","dem":"304","timezone":"Europe/Prague","modification_date":"2006-11-25"},{"geonameid":"3066783","name":"Rokytnice nad Jizerou","asciiname":"Rokytnice nad Jizerou","alternatenames":["Rochlitz an der Iser","Rokytnice"],"latitude":"50.72561","longitude":"15.43357","feature_class":"P","feature_code":"PPL","country_code":"CZ","cc2":"","admin1_code":"83","admin2_code":"0514","admin3_code":"","admin4_code":"","population":"3281","elevation":"","dem":"513","timezone":"Europe/Prague","modification_date":"2013-09-22"},{"geonameid":"3067006","name":"Raspenava","asciiname":"Raspenava","alternatenames":["Raspenau"],"latitude":"50.90415","longitude":"15.11465","feature_class":"P","feature_code":"PPL","country_code":"CZ","cc2":"","admin1_code":"83","admin2_code":"0513","admin3_code":"","admin4_code":"","population":"2826","elevation":"","dem":"325","timezone":"Europe/Prague","modification_date":"2013-01-25"},{"geonameid":"3067834","name":"Poniklá","asciiname":"Ponikla","alternatenames":["Pinklau"],"latitude":"50.66152","longitude":"15.46329","feature_class":"P","feature_code":"PPL","country_code":"CZ","cc2":"","admin1_code":"83","admin2_code":"0514","admin3_code":"","admin4_code":"","population":"1247","elevation":"","dem":"497","timezone":"Europe/Prague","modification_date":"2013-09-22"},{"geonameid":"3069464","name":"Nové Město pod Smrkem","asciiname":"Nove Mesto pod Smrkem","alternatenames":["Neustadt an der Tafelfichte","Nove Mesto","Nové Město"],"latitude":"50.92491","longitude":"15.22943","feature_class":"P","feature_code":"PPL","country_code":"CZ","cc2":"","admin1_code":"83","admin2_code":"","admin3_code":"","admin4_code":"","population":"3915","elevation":"","dem":"467","timezone":"Europe/Prague","modification_date":"2006-11-25"},{"geonameid":"3070447","name":"Mníšek","asciiname":"Mnisek","alternatenames":["Einsiedel","Mnisk"],"latitude":"50.83163","longitude":"15.0563","feature_class":"P","feature_code":"PPL","country_code":"CZ","cc2":"","admin1_code":"83","admin2_code":"","admin3_code":"","admin4_code":"","population":"1133","elevation":"","dem":"387","timezone":"Europe/Prague","modification_date":"2006-11-25"},{"geonameid":"3071223","name":"Malá Skála","asciiname":"Mala Skala","alternatenames":[""],"latitude":"50.64631","longitude":"15.19543","feature_class":"P","feature_code":"PPL","country_code":"CZ","cc2":"","admin1_code":"83","admin2_code":"","admin3_code":"","admin4_code":"","population":"1067","elevation":"","dem":"326","timezone":"Europe/Prague","modification_date":"2012-12-24"},{"geonameid":"3071447","name":"Lučany nad Nisou","asciiname":"Lucany nad Nisou","alternatenames":["Lucany","Lučany","Wiesenthal","Wiesenthal an der Neisse"],"latitude":"50.74136","longitude":"15.22046","feature_class":"P","feature_code":"PPL","country_code":"CZ","cc2":"","admin1_code":"83","admin2_code":"0512","admin3_code":"","admin4_code":"","population":"1636","elevation":"","dem":"593","timezone":"Europe/Prague","modification_date":"2013-01-25"},{"geonameid":"3071606","name":"Lomnice nad Popelkou","asciiname":"Lomnice nad Popelkou","alternatenames":["Lomnice","Lomnitz an der Popelka"],"latitude":"50.53062","longitude":"15.37341","feature_class":"P","feature_code":"PPL","country_code":"CZ","cc2":"","admin1_code":"83","admin2_code":"0514","admin3_code":"","admin4_code":"","population":"5957","elevation":"","dem":"479","timezone":"Europe/Prague","modification_date":"2013-01-17"},{"geonameid":"3071961","name":"Liberec","asciiname":"Liberec","alternatenames":["Gorad Liberehc","Liberec","Liberec'","Libereca","Liberecas","Liberets","Libereç","Limperets","Reichenberg","Reichenberga","li bei lei ci","libelecheu","liberetsi","lybrts","lybrz","lybyryts","riberetsu","Λίμπερετς","Горад Ліберэц","Либеретс","Либерец","Ліберець","ליברץ","ليبيريتس","لیبرتس","ლიბერეცი","リベレツ","利贝雷茨","리베레츠"],"latitude":"50.76711","longitude":"15.05619","feature_class":"P","feature_code":"PPLA","country_code":"CZ","cc2":"","admin1_code":"83","admin2_code":"0513","admin3_code":"","admin4_code":"","population":"97770","elevation":"","dem":"359","timezone":"Europe/Prague","modification_date":"2012-11-23"},{"geonameid":"3073172","name":"Košťálov","asciiname":"Kost'alov","alternatenames":[""],"latitude":"50.57165","longitude":"15.40403","feature_class":"P","feature_code":"PPL","country_code":"CZ","cc2":"","admin1_code":"83","admin2_code":"","admin3_code":"","admin4_code":"","population":"1671","elevation":"","dem":"362","timezone":"Europe/Prague","modification_date":"2006-11-25"},{"geonameid":"3073241","name":"Kořenov","asciiname":"Korenov","alternatenames":["Wurzelsdorf"],"latitude":"50.75926","longitude":"15.36532","feature_class":"P","feature_code":"PPL","country_code":"CZ","cc2":"","admin1_code":"83","admin2_code":"0512","admin3_code":"","admin4_code":"","population":"1014","elevation":"","dem":"748","timezone":"Europe/Prague","modification_date":"2012-12-18"},{"geonameid":"3074049","name":"Josefův Důl","asciiname":"Josefuv Dul","alternatenames":["Josefodol","Josefsthal"],"latitude":"50.78191","longitude":"15.23146","feature_class":"P","feature_code":"PPL","country_code":"CZ","cc2":"CZ","admin1_code":"83","admin2_code":"0512","admin3_code":"","admin4_code":"","population":"1024","elevation":"","dem":"581","timezone":"Europe/Prague","modification_date":"2012-12-19"},{"geonameid":"3074187","name":"Jilemnice","asciiname":"Jilemnice","alternatenames":[""],"latitude":"50.6089","longitude":"15.50653","feature_class":"P","feature_code":"PPL","country_code":"CZ","cc2":"","admin1_code":"83","admin2_code":"","admin3_code":"","admin4_code":"","population":"5777","elevation":"","dem":"462","timezone":"Europe/Prague","modification_date":"2006-11-25"},{"geonameid":"3074482","name":"Janov nad Nisou","asciiname":"Janov nad Nisou","alternatenames":["Honsberg","Honsberk","Johannesberg"],"latitude":"50.77204","longitude":"15.16913","feature_class":"P","feature_code":"PPL","country_code":"CZ","cc2":"","admin1_code":"83","admin2_code":"0512","admin3_code":"","admin4_code":"","population":"1186","elevation":"","dem":"546","timezone":"Europe/Prague","modification_date":"2012-12-18"},{"geonameid":"3074603","name":"Jablonec nad Nisou","asciiname":"Jablonec nad Nisou","alternatenames":["Gablonz","Gablonz an der Neisse","Jablonec","Jablonec nad Nisou","Jablonec nad Nysa","Jablonec nad Nysą","Jablonecas prie Nisos","yabeullonecheunateunisou","Яблонец","야블로네츠나트니소우"],"latitude":"50.72431","longitude":"15.17108","feature_class":"P","feature_code":"PPL","country_code":"CZ","cc2":"","admin1_code":"83","admin2_code":"0512","admin3_code":"","admin4_code":"","population":"44878","elevation":"","dem":"518","timezone":"Europe/Prague","modification_date":"2014-10-27"},{"geonameid":"3074604","name":"Jablonec nad Jizerou","asciiname":"Jablonec nad Jizerou","alternatenames":["Jablonec","Jablonec an der Iser","Jablonetz"],"latitude":"50.70347","longitude":"15.42959","feature_class":"P","feature_code":"PPL","country_code":"CZ","cc2":"","admin1_code":"83","admin2_code":"","admin3_code":"","admin4_code":"","population":"1968","elevation":"","dem":"450","timezone":"Europe/Prague","modification_date":"2006-11-25"},{"geonameid":"3075664","name":"Hodkovice nad Mohelkou","asciiname":"Hodkovice nad Mohelkou","alternatenames":["Hodkovice","Liebenau","Liebenau in Bohmen","Liebenau in Böhmen"],"latitude":"50.66586","longitude":"15.08985","feature_class":"P","feature_code":"PPL","country_code":"CZ","cc2":"","admin1_code":"83","admin2_code":"","admin3_code":"","admin4_code":"","population":"2659","elevation":"","dem":"378","timezone":"Europe/Prague","modification_date":"2006-11-25"},{"geonameid":"3075894","name":"Hejnice","asciiname":"Hejnice","alternatenames":["Haindorf"],"latitude":"50.8772","longitude":"15.18168","feature_class":"P","feature_code":"PPL","country_code":"CZ","cc2":"","admin1_code":"83","admin2_code":"0513","admin3_code":"","admin4_code":"","population":"2751","elevation":"","dem":"377","timezone":"Europe/Prague","modification_date":"2012-11-26"},{"geonameid":"3075953","name":"Harrachov","asciiname":"Harrachov","alternatenames":["Garrakhov","Harachovas","Harrachsdorf","ha la huo fu","halahopeu","Гаррахов","哈拉霍夫","하라호프"],"latitude":"50.77209","longitude":"15.43141","feature_class":"P","feature_code":"PPL","country_code":"CZ","cc2":"","admin1_code":"83","admin2_code":"","admin3_code":"","admin4_code":"","population":"1700","elevation":"","dem":"689","timezone":"Europe/Prague","modification_date":"2006-11-25"},{"geonameid":"3076124","name":"Frýdlant","asciiname":"Frydlant","alternatenames":["Fridlant","Friedland","Friedland in Bohmen","Friedland in Böhmen","Frydlant v Cechach","Frýdlant v Čechách","fu li de lan te","Фридлант","弗里德蘭特"],"latitude":"50.92139","longitude":"15.07974","feature_class":"P","feature_code":"PPL","country_code":"CZ","cc2":"","admin1_code":"83","admin2_code":"0513","admin3_code":"","admin4_code":"","population":"7471","elevation":"","dem":"296","timezone":"Europe/Prague","modification_date":"2012-12-24"},{"geonameid":"3077929","name":"Česká Lípa","asciiname":"Ceska Lipa","alternatenames":["Boehmisch-Leipa","Böhmisch-Leipa","Ceska Lipa","Cheshka Lipa","Cheska Lipa","Cheska-Lipa","Czeska Lipa","Lipa","chska lypa","jie ke li pa","Česká Lípa","Ческа Липа","Ческа-Липа","Чешка Липа","چسکا لیپا","捷克利帕"],"latitude":"50.68551","longitude":"14.53764","feature_class":"P","feature_code":"PPL","country_code":"CZ","cc2":"","admin1_code":"83","admin2_code":"0511","admin3_code":"","admin4_code":"","population":"38841","elevation":"","dem":"263","timezone":"Europe/Prague","modification_date":"2013-01-04"}]}