{"region_data":{"adminCode1":"84","lng":"17.16667","geonameId":3339542,"toponymName":"Olomoucký kraj","countryId":"3077311","fcl":"A","population":635675,"numberOfChildren":5,"countryCode":"CZ","name":"Olomoucký kraj","fclName":"country, state, region,...","countryName":"Czech Republic","fcodeName":"first-order administrative division","adminName1":"Olomoucký","lat":"49.75","fcode":"ADM1"},"country_data":{"ISO":"CZ","ISO3":"CZE","ISO_Numeric":"203","fips":"EZ","country":"Czech Republic","capital":"Prague","area":"78866","Population":"10476000","Continent":"EU","tld":".cz","CurrencyCode":"CZK","CurrencyName":"Koruna","Phone":"420","Postal_Code_Format":"### ##","Postal_Code_Regex":"^(\\d{5})$","Languages":"cs,sk","geonameid":"3077311","neighbours":"PL,DE,SK,AT","EquivalentFipsCode":""},"cities":[{"geonameid":"3061321","name":"Žulová","asciiname":"Zulova","alternatenames":["Friedeberg","Frydberk","Frydeberk","Frýdberk","Frýdeberk","Zaludova","Žaludová"],"latitude":"50.30933","longitude":"17.09871","feature_class":"P","feature_code":"PPL","country_code":"CZ","cc2":"","admin1_code":"84","admin2_code":"","admin3_code":"","admin4_code":"","population":"1332","elevation":"","dem":"358","timezone":"Europe/Prague","modification_date":"2006-11-25"},{"geonameid":"3061393","name":"Zlaté Hory","asciiname":"Zlate Hory","alternatenames":["Cukmantl","Zuckmantel"],"latitude":"50.2638","longitude":"17.39602","feature_class":"P","feature_code":"PPL","country_code":"CZ","cc2":"","admin1_code":"84","admin2_code":"","admin3_code":"","admin4_code":"","population":"4446","elevation":"","dem":"409","timezone":"Europe/Prague","modification_date":"2006-11-25"},{"geonameid":"3062111","name":"Zábřeh","asciiname":"Zabreh","alternatenames":["Azbreh","Hohenstadt","Zabrekh","Zabrzeha","Zebreh","Zābržeha","zha bu re he","Забрех","扎布熱赫"],"latitude":"49.8826","longitude":"16.87223","feature_class":"P","feature_code":"PPL","country_code":"CZ","cc2":"","admin1_code":"84","admin2_code":"","admin3_code":"","admin4_code":"","population":"14360","elevation":"","dem":"304","timezone":"Europe/Prague","modification_date":"2006-11-25"},{"geonameid":"3062477","name":"Vrbátky","asciiname":"Vrbatky","alternatenames":[""],"latitude":"49.50805","longitude":"17.19994","feature_class":"P","feature_code":"PPL","country_code":"CZ","cc2":"","admin1_code":"84","admin2_code":"","admin3_code":"","admin4_code":"","population":"1562","elevation":"","dem":"211","timezone":"Europe/Prague","modification_date":"2006-11-25"},{"geonameid":"3062909","name":"Vikýřovice","asciiname":"Vikyrovice","alternatenames":["Weikersdorf"],"latitude":"49.97792","longitude":"17.01234","feature_class":"P","feature_code":"PPL","country_code":"CZ","cc2":"","admin1_code":"84","admin2_code":"0715","admin3_code":"","admin4_code":"","population":"2064","elevation":"","dem":"336","timezone":"Europe/Prague","modification_date":"2013-01-04"},{"geonameid":"3062924","name":"Vidnava","asciiname":"Vidnava","alternatenames":["Weidenau"],"latitude":"50.37234","longitude":"17.18626","feature_class":"P","feature_code":"PPL","country_code":"CZ","cc2":"","admin1_code":"84","admin2_code":"","admin3_code":"","admin4_code":"","population":"1425","elevation":"","dem":"233","timezone":"Europe/Prague","modification_date":"2006-11-25"},{"geonameid":"3063083","name":"Věrovany","asciiname":"Verovany","alternatenames":["Wierowan"],"latitude":"49.46109","longitude":"17.28795","feature_class":"P","feature_code":"PPL","country_code":"CZ","cc2":"","admin1_code":"84","admin2_code":"","admin3_code":"","admin4_code":"","population":"1306","elevation":"","dem":"203","timezone":"Europe/Prague","modification_date":"2006-11-25"},{"geonameid":"3063124","name":"Velký Újezd","asciiname":"Velky Ujezd","alternatenames":["Gross Aujezd"],"latitude":"49.57858","longitude":"17.48347","feature_class":"P","feature_code":"PPL","country_code":"CZ","cc2":"","admin1_code":"84","admin2_code":"","admin3_code":"","admin4_code":"","population":"1068","elevation":"","dem":"372","timezone":"Europe/Prague","modification_date":"2006-11-25"},{"geonameid":"3063127","name":"Velký Týnec","asciiname":"Velky Tynec","alternatenames":["Gross Teinitz"],"latitude":"49.54994","longitude":"17.33359","feature_class":"P","feature_code":"PPL","country_code":"CZ","cc2":"","admin1_code":"84","admin2_code":"","admin3_code":"","admin4_code":"","population":"2150","elevation":"","dem":"235","timezone":"Europe/Prague","modification_date":"2008-05-16"},{"geonameid":"3063197","name":"Velké Losiny","asciiname":"Velke Losiny","alternatenames":["Gross-Ullersdorf","Grossullersdorf"],"latitude":"50.03197","longitude":"17.04058","feature_class":"P","feature_code":"PPL","country_code":"CZ","cc2":"","admin1_code":"84","admin2_code":"0715","admin3_code":"","admin4_code":"","population":"2862","elevation":"","dem":"396","timezone":"Europe/Prague","modification_date":"2013-01-16"},{"geonameid":"3063271","name":"Velká Bystřice","asciiname":"Velka Bystrice","alternatenames":["Gross Wisternitz"],"latitude":"49.5948","longitude":"17.36544","feature_class":"P","feature_code":"PPL","country_code":"CZ","cc2":"","admin1_code":"84","admin2_code":"0712","admin3_code":"","admin4_code":"","population":"2913","elevation":"","dem":"253","timezone":"Europe/Prague","modification_date":"2012-11-26"},{"geonameid":"3063385","name":"Vápenná","asciiname":"Vapenna","alternatenames":["Setzdorf","Zighartice"],"latitude":"50.28338","longitude":"17.09762","feature_class":"P","feature_code":"PPL","country_code":"CZ","cc2":"","admin1_code":"84","admin2_code":"","admin3_code":"","admin4_code":"","population":"1271","elevation":"","dem":"409","timezone":"Europe/Prague","modification_date":"2006-11-25"},{"geonameid":"3063561","name":"Úsov","asciiname":"Usov","alternatenames":["Mahrisch Aussee","Mährisch Aussee","Usov","Usova","wu suo fu","Ūsova","Усов","烏索夫"],"latitude":"49.79831","longitude":"17.01055","feature_class":"P","feature_code":"PPL","country_code":"CZ","cc2":"","admin1_code":"84","admin2_code":"","admin3_code":"","admin4_code":"","population":"1186","elevation":"","dem":"285","timezone":"Europe/Prague","modification_date":"2006-11-25"},{"geonameid":"3063578","name":"Určice","asciiname":"Urcice","alternatenames":["Urcitz","Určitz"],"latitude":"49.43045","longitude":"17.07291","feature_class":"P","feature_code":"PPL","country_code":"CZ","cc2":"","admin1_code":"84","admin2_code":"","admin3_code":"","admin4_code":"","population":"1305","elevation":"","dem":"255","timezone":"Europe/Prague","modification_date":"2006-11-25"},{"geonameid":"3063596","name":"Uničov","asciiname":"Unicov","alternatenames":["Mahrisch Neustadt","Mährisch Neustadt","Unichov","Unicova","Uničova","wu ni qiao fu","Уничов","烏尼喬夫"],"latitude":"49.77092","longitude":"17.12144","feature_class":"P","feature_code":"PPL","country_code":"CZ","cc2":"","admin1_code":"84","admin2_code":"0712","admin3_code":"","admin4_code":"","population":"12385","elevation":"","dem":"242","timezone":"Europe/Prague","modification_date":"2013-01-03"},{"geonameid":"3063683","name":"Újezd","asciiname":"Ujezd","alternatenames":["Augezd"],"latitude":"49.76397","longitude":"17.1804","feature_class":"P","feature_code":"PPL","country_code":"CZ","cc2":"","admin1_code":"84","admin2_code":"","admin3_code":"","admin4_code":"","population":"1341","elevation":"","dem":"240","timezone":"Europe/Prague","modification_date":"2006-11-25"},{"geonameid":"3063927","name":"Tršice","asciiname":"Trsice","alternatenames":["Trschitz","Trsnice","Tršnice"],"latitude":"49.54237","longitude":"17.42483","feature_class":"P","feature_code":"PPL","country_code":"CZ","cc2":"","admin1_code":"84","admin2_code":"0712","admin3_code":"","admin4_code":"","population":"1559","elevation":"","dem":"267","timezone":"Europe/Prague","modification_date":"2012-12-18"},{"geonameid":"3063939","name":"Troubky","asciiname":"Troubky","alternatenames":["Troubek","Troubkach","Troubky nad Becvou","Troubky nad Bečvou"],"latitude":"49.43215","longitude":"17.34914","feature_class":"P","feature_code":"PPL","country_code":"CZ","cc2":"","admin1_code":"84","admin2_code":"","admin3_code":"","admin4_code":"","population":"1993","elevation":"","dem":"199","timezone":"Europe/Prague","modification_date":"2006-11-25"},{"geonameid":"3063941","name":"Troubelice","asciiname":"Troubelice","alternatenames":["Treublitz"],"latitude":"49.81731","longitude":"17.081","feature_class":"P","feature_code":"PPL","country_code":"CZ","cc2":"","admin1_code":"84","admin2_code":"","admin3_code":"","admin4_code":"","population":"1802","elevation":"","dem":"255","timezone":"Europe/Prague","modification_date":"2006-11-25"},{"geonameid":"3064143","name":"Tovačov","asciiname":"Tovacov","alternatenames":["Tobitschau"],"latitude":"49.43083","longitude":"17.28795","feature_class":"P","feature_code":"PPL","country_code":"CZ","cc2":"","admin1_code":"84","admin2_code":"","admin3_code":"","admin4_code":"","population":"2605","elevation":"","dem":"203","timezone":"Europe/Prague","modification_date":"2006-11-25"},{"geonameid":"3064257","name":"Těšetice","asciiname":"Tesetice","alternatenames":[""],"latitude":"49.59317","longitude":"17.12607","feature_class":"P","feature_code":"PPL","country_code":"CZ","cc2":"","admin1_code":"84","admin2_code":"","admin3_code":"","admin4_code":"","population":"1212","elevation":"","dem":"227","timezone":"Europe/Prague","modification_date":"2006-11-25"},{"geonameid":"3064673","name":"Šumperk","asciiname":"Sumperk","alternatenames":["Maehrisch-Schoenberg","Mährisch-Schönberg","Shumperk","Sumperka","shumuperuku","shun pei er ke","shwmprk","Šumperka","Шумперк","شومپرک","シュムペルク","順佩爾克"],"latitude":"49.96528","longitude":"16.97061","feature_class":"P","feature_code":"PPL","country_code":"CZ","cc2":"","admin1_code":"84","admin2_code":"0715","admin3_code":"","admin4_code":"","population":"28768","elevation":"","dem":"336","timezone":"Europe/Prague","modification_date":"2012-12-10"},{"geonameid":"3064713","name":"Sudkov","asciiname":"Sudkov","alternatenames":["Zautke"],"latitude":"49.91903","longitude":"16.94516","feature_class":"P","feature_code":"PPL","country_code":"CZ","cc2":"","admin1_code":"84","admin2_code":"","admin3_code":"","admin4_code":"","population":"1185","elevation":"","dem":"292","timezone":"Europe/Prague","modification_date":"2006-11-25"},{"geonameid":"3064999","name":"Strážná","asciiname":"Strazna","alternatenames":["Moravsky Sumvald","Moravský Šumvald","Schonwald","Schönwald","Sumvald","Sumwald","Šumvald","Šumwald"],"latitude":"49.83104","longitude":"17.13275","feature_class":"P","feature_code":"PPL","country_code":"CZ","cc2":"CZ","admin1_code":"84","admin2_code":"","admin3_code":"","admin4_code":"","population":"1770","elevation":"","dem":"263","timezone":"Europe/Prague","modification_date":"2006-11-25"},{"geonameid":"3065118","name":"Štíty","asciiname":"Stity","alternatenames":["Schildberg","Silperk","Šilperk"],"latitude":"49.96122","longitude":"16.76576","feature_class":"P","feature_code":"PPL","country_code":"CZ","cc2":"","admin1_code":"84","admin2_code":"","admin3_code":"","admin4_code":"","population":"2049","elevation":"","dem":"442","timezone":"Europe/Prague","modification_date":"2006-11-25"},{"geonameid":"3065166","name":"Šternberk","asciiname":"Sternberk","alternatenames":["Shternberk","Sternberg","Sternberk","Sternberka","shi teng bei ke","Šternberk","Šternberka","Штернберк","施滕貝克"],"latitude":"49.73044","longitude":"17.29889","feature_class":"P","feature_code":"PPL","country_code":"CZ","cc2":"","admin1_code":"84","admin2_code":"0712","admin3_code":"","admin4_code":"","population":"13967","elevation":"","dem":"280","timezone":"Europe/Prague","modification_date":"2012-11-26"},{"geonameid":"3065180","name":"Štěpánov","asciiname":"Stepanov","alternatenames":["Stepanov","Stiepanau","Štěpánov"],"latitude":"50.16238","longitude":"16.91702","feature_class":"P","feature_code":"PPL","country_code":"CZ","cc2":"","admin1_code":"84","admin2_code":"","admin3_code":"","admin4_code":"","population":"3306","elevation":"","dem":"598","timezone":"Europe/Prague","modification_date":"2012-01-19"},{"geonameid":"3065330","name":"Staré Město","asciiname":"Stare Mesto","alternatenames":["Altstadt","Mahrisch-Altstadt","Mährisch-Altstadt"],"latitude":"50.16174","longitude":"16.94734","feature_class":"P","feature_code":"PPL","country_code":"CZ","cc2":"","admin1_code":"84","admin2_code":"0715","admin3_code":"","admin4_code":"","population":"2054","elevation":"","dem":"544","timezone":"Europe/Prague","modification_date":"2012-12-19"},{"geonameid":"3065627","name":"Sobotín","asciiname":"Sobotin","alternatenames":["Zoptau","Zöptau"],"latitude":"50.01039","longitude":"17.09129","feature_class":"P","feature_code":"PPL","country_code":"CZ","cc2":"","admin1_code":"84","admin2_code":"0712","admin3_code":"","admin4_code":"","population":"2468","elevation":"","dem":"439","timezone":"Europe/Prague","modification_date":"2012-11-26"},{"geonameid":"3065689","name":"Smržice","asciiname":"Smrzice","alternatenames":["Smrzitz"],"latitude":"49.50569","longitude":"17.10698","feature_class":"P","feature_code":"PPL","country_code":"CZ","cc2":"","admin1_code":"84","admin2_code":"","admin3_code":"","admin4_code":"","population":"1575","elevation":"","dem":"223","timezone":"Europe/Prague","modification_date":"2006-11-25"},{"geonameid":"3065872","name":"Slatinice","asciiname":"Slatinice","alternatenames":[""],"latitude":"49.56155","longitude":"17.09992","feature_class":"P","feature_code":"PPL","country_code":"CZ","cc2":"","admin1_code":"84","admin2_code":"0712","admin3_code":"","admin4_code":"","population":"1457","elevation":"","dem":"233","timezone":"Europe/Prague","modification_date":"2012-12-19"},{"geonameid":"3065976","name":"Skrbeň","asciiname":"Skrben","alternatenames":["Kirwein"],"latitude":"49.64115","longitude":"17.1765","feature_class":"P","feature_code":"PPL","country_code":"CZ","cc2":"","admin1_code":"84","admin2_code":"","admin3_code":"","admin4_code":"","population":"1081","elevation":"","dem":"224","timezone":"Europe/Prague","modification_date":"2006-11-25"},{"geonameid":"3066195","name":"Senice na Hané","asciiname":"Senice na Hane","alternatenames":["Gross Senitz","Senice"],"latitude":"49.62401","longitude":"17.08578","feature_class":"P","feature_code":"PPL","country_code":"CZ","cc2":"","admin1_code":"84","admin2_code":"","admin3_code":"","admin4_code":"","population":"1824","elevation":"","dem":"239","timezone":"Europe/Prague","modification_date":"2006-11-25"},{"geonameid":"3066416","name":"Samotíšky","asciiname":"Samotisky","alternatenames":[""],"latitude":"49.63042","longitude":"17.32807","feature_class":"P","feature_code":"PPL","country_code":"CZ","cc2":"","admin1_code":"84","admin2_code":"","admin3_code":"","admin4_code":"","population":"1137","elevation":"","dem":"275","timezone":"Europe/Prague","modification_date":"2006-11-25"},{"geonameid":"3066613","name":"Ruda nad Moravou","asciiname":"Ruda nad Moravou","alternatenames":["Eisenberg an der March","Eisenberg an der Morava","Ober Eisenberg","Ruda na Morave","Ruda na Moravě"],"latitude":"49.981","longitude":"16.87782","feature_class":"P","feature_code":"PPL","country_code":"CZ","cc2":"","admin1_code":"84","admin2_code":"","admin3_code":"","admin4_code":"","population":"2490","elevation":"","dem":"329","timezone":"Europe/Prague","modification_date":"2006-11-25"},{"geonameid":"3066786","name":"Rokytnice","asciiname":"Rokytnice","alternatenames":["Roketnitz"],"latitude":"49.46592","longitude":"17.3912","feature_class":"P","feature_code":"PPL","country_code":"CZ","cc2":"","admin1_code":"84","admin2_code":"","admin3_code":"","admin4_code":"","population":"1422","elevation":"","dem":"215","timezone":"Europe/Prague","modification_date":"2006-11-25"},{"geonameid":"3067026","name":"Rapotín","asciiname":"Rapotin","alternatenames":["Reitendorf"],"latitude":"50.01094","longitude":"17.03121","feature_class":"P","feature_code":"PPL","country_code":"CZ","cc2":"","admin1_code":"84","admin2_code":"","admin3_code":"","admin4_code":"","population":"3009","elevation":"","dem":"367","timezone":"Europe/Prague","modification_date":"2008-01-29"},{"geonameid":"3067110","name":"Radslavice","asciiname":"Radslavice","alternatenames":[""],"latitude":"49.47817","longitude":"17.51656","feature_class":"P","feature_code":"PPL","country_code":"CZ","cc2":"","admin1_code":"84","admin2_code":"","admin3_code":"","admin4_code":"","population":"1110","elevation":"","dem":"224","timezone":"Europe/Prague","modification_date":"2006-11-25"},{"geonameid":"3067351","name":"Ptení","asciiname":"Pteni","alternatenames":["Ptin"],"latitude":"49.51163","longitude":"16.9611","feature_class":"P","feature_code":"PPL","country_code":"CZ","cc2":"","admin1_code":"84","admin2_code":"","admin3_code":"","admin4_code":"","population":"1093","elevation":"","dem":"326","timezone":"Europe/Prague","modification_date":"2006-11-25"},{"geonameid":"3067398","name":"Protivanov","asciiname":"Protivanov","alternatenames":["Protiwanow"],"latitude":"49.48351","longitude":"16.83594","feature_class":"P","feature_code":"PPL","country_code":"CZ","cc2":"","admin1_code":"84","admin2_code":"","admin3_code":"","admin4_code":"","population":"1077","elevation":"","dem":"665","timezone":"Europe/Prague","modification_date":"2006-11-25"},{"geonameid":"3067421","name":"Prostějov","asciiname":"Prostejov","alternatenames":["Prosciejow","Prosnitz","Prossnitz","Prostejov","Prostejova","Prostejovas","Prostjejov","Prostějov","Prosznitz","Prościejów","peuloseuteyopeu","prwstywb","prxs teiy yxf","pu luo si jie yue fu","purosucheyofu","Простейов","Простеёв","Простјејов","פראסטיץ","פרוסטיוב","پرستیه‌یو","ปรอสเตียยอฟ","プロスチェヨフ","普羅斯捷約夫","프로스테요프"],"latitude":"49.47188","longitude":"17.11184","feature_class":"P","feature_code":"PPL","country_code":"CZ","cc2":"","admin1_code":"84","admin2_code":"0713","admin3_code":"","admin4_code":"","population":"47374","elevation":"","dem":"227","timezone":"Europe/Prague","modification_date":"2012-12-19"},{"geonameid":"3067514","name":"Příkazy","asciiname":"Prikazy","alternatenames":["Przikaz"],"latitude":"49.6436","longitude":"17.14337","feature_class":"P","feature_code":"PPL","country_code":"CZ","cc2":"","admin1_code":"84","admin2_code":"","admin3_code":"","admin4_code":"","population":"1224","elevation":"","dem":"229","timezone":"Europe/Prague","modification_date":"2006-11-25"},{"geonameid":"3067580","name":"Přerov","asciiname":"Prerov","alternatenames":["PRV","Prerau","Prerov","Prserova","Prsherov","Przerow","Przerów","Pršerova","Pursherov","Přerov","peuleujelopeu","przhrw","pu re luo fu","purujerofu","Преров","Пршеров","Пършеров","پرژرو","პრშეროვი","プルジェロフ","普熱羅夫","프르제로프"],"latitude":"49.45511","longitude":"17.4509","feature_class":"P","feature_code":"PPL","country_code":"CZ","cc2":"","admin1_code":"84","admin2_code":"","admin3_code":"","admin4_code":"","population":"47311","elevation":"","dem":"221","timezone":"Europe/Prague","modification_date":"2013-03-09"},{"geonameid":"3067587","name":"Přemyslovice","asciiname":"Premyslovice","alternatenames":["Przemislowitz"],"latitude":"49.55637","longitude":"16.95581","feature_class":"P","feature_code":"PPL","country_code":"CZ","cc2":"","admin1_code":"84","admin2_code":"","admin3_code":"","admin4_code":"","population":"1268","elevation":"","dem":"411","timezone":"Europe/Prague","modification_date":"2006-11-25"},{"geonameid":"3067676","name":"Přáslavice","asciiname":"Praslavice","alternatenames":["Przaslawitz"],"latitude":"49.58568","longitude":"17.38209","feature_class":"P","feature_code":"PPL","country_code":"CZ","cc2":"","admin1_code":"84","admin2_code":"","admin3_code":"","admin4_code":"","population":"1290","elevation":"","dem":"300","timezone":"Europe/Prague","modification_date":"2008-07-04"},{"geonameid":"3067752","name":"Potštát","asciiname":"Potstat","alternatenames":["Bodenstadt","Potstata","Potštāta","bo te shi ta te","波特施塔特"],"latitude":"49.63693","longitude":"17.65174","feature_class":"P","feature_code":"PPL","country_code":"CZ","cc2":"","admin1_code":"84","admin2_code":"","admin3_code":"","admin4_code":"","population":"1214","elevation":"","dem":"498","timezone":"Europe/Prague","modification_date":"2006-11-25"},{"geonameid":"3067765","name":"Postřelmov","asciiname":"Postrelmov","alternatenames":["Gross Heilendorf"],"latitude":"49.90756","longitude":"16.91226","feature_class":"P","feature_code":"PPL","country_code":"CZ","cc2":"","admin1_code":"84","admin2_code":"","admin3_code":"","admin4_code":"","population":"3314","elevation":"","dem":"285","timezone":"Europe/Prague","modification_date":"2006-11-25"},{"geonameid":"3068162","name":"Plumlov","asciiname":"Plumlov","alternatenames":["Plumenau"],"latitude":"49.46614","longitude":"17.01502","feature_class":"P","feature_code":"PPL","country_code":"CZ","cc2":"","admin1_code":"84","admin2_code":"0713","admin3_code":"","admin4_code":"","population":"2384","elevation":"","dem":"307","timezone":"Europe/Prague","modification_date":"2013-01-25"},{"geonameid":"3068298","name":"Písečná","asciiname":"Pisecna","alternatenames":["Sandhubel","Sandhybl","Sandhübel","Sandhýbl"],"latitude":"50.27303","longitude":"17.25373","feature_class":"P","feature_code":"PPL","country_code":"CZ","cc2":"","admin1_code":"84","admin2_code":"","admin3_code":"","admin4_code":"","population":"1063","elevation":"","dem":"384","timezone":"Europe/Prague","modification_date":"2006-11-25"},{"geonameid":"3068564","name":"Paseka","asciiname":"Paseka","alternatenames":["Paseha","Passek"],"latitude":"49.79644","longitude":"17.22276","feature_class":"P","feature_code":"PPL","country_code":"CZ","cc2":"","admin1_code":"84","admin2_code":"","admin3_code":"","admin4_code":"","population":"1162","elevation":"","dem":"277","timezone":"Europe/Prague","modification_date":"2006-11-25"},{"geonameid":"3068727","name":"Otaslavice","asciiname":"Otaslavice","alternatenames":["Dolni Otaslavice","Dolní Otaslavice","Unter Ottaslawitz"],"latitude":"49.38833","longitude":"17.07108","feature_class":"P","feature_code":"PPL","country_code":"CZ","cc2":"","admin1_code":"84","admin2_code":"","admin3_code":"","admin4_code":"","population":"1275","elevation":"","dem":"252","timezone":"Europe/Prague","modification_date":"2006-11-25"},{"geonameid":"3068837","name":"Oskava","asciiname":"Oskava","alternatenames":["Oskau"],"latitude":"49.89523","longitude":"17.13214","feature_class":"P","feature_code":"PPL","country_code":"CZ","cc2":"","admin1_code":"84","admin2_code":"","admin3_code":"","admin4_code":"","population":"1471","elevation":"","dem":"339","timezone":"Europe/Prague","modification_date":"2006-11-25"},{"geonameid":"3068856","name":"Osek nad Bečvou","asciiname":"Osek nad Becvou","alternatenames":["Osek"],"latitude":"49.51121","longitude":"17.52829","feature_class":"P","feature_code":"PPL","country_code":"CZ","cc2":"","admin1_code":"84","admin2_code":"","admin3_code":"","admin4_code":"","population":"1097","elevation":"","dem":"225","timezone":"Europe/Prague","modification_date":"2006-11-25"},{"geonameid":"3068997","name":"Olšany","asciiname":"Olsany","alternatenames":[""],"latitude":"49.96509","longitude":"16.85894","feature_class":"P","feature_code":"PPL","country_code":"CZ","cc2":"","admin1_code":"84","admin2_code":"","admin3_code":"","admin4_code":"","population":"1108","elevation":"","dem":"320","timezone":"Europe/Prague","modification_date":"2006-11-25"},{"geonameid":"3069011","name":"Olomouc","asciiname":"Olomouc","alternatenames":["Aebura","Eburum","Gorad Olamauc","Iuliomontium","OLO","Olmic","Olmuetz","Olmütz","Olomouc","Olomouca","Olomoucas","Olomouch","Olomouts","Olomouç","Olomuniec","Ołomuniec","Wolomuc","Wołomuc","ao luo mu ke","awlwmwts","ollomoucheu","olomauka","olomoutsi","oromoutsu","xxlx mots","Όλομουτς","Горад Оламаўц","Оломоутс","Оломоуц","אולומוץ","أولوموتس","اولوموتس","اولوموڅ","ओलोमौक","ออลอโมตซ์","ოლომოუცი","オロモウツ","奧洛穆克","올로모우츠"],"latitude":"49.59552","longitude":"17.25175","feature_class":"P","feature_code":"PPLA","country_code":"CZ","cc2":"","admin1_code":"84","admin2_code":"0712","admin3_code":"","admin4_code":"","population":"101268","elevation":"","dem":"223","timezone":"Europe/Prague","modification_date":"2012-12-10"},{"geonameid":"3069290","name":"Nový Malín","asciiname":"Novy Malin","alternatenames":["Frankstadt","Frankstat","Frankštát"],"latitude":"49.94262","longitude":"17.03191","feature_class":"P","feature_code":"PPL","country_code":"CZ","cc2":"","admin1_code":"84","admin2_code":"","admin3_code":"","admin4_code":"","population":"2713","elevation":"","dem":"369","timezone":"Europe/Prague","modification_date":"2006-11-25"},{"geonameid":"3069773","name":"Nezamyslice","asciiname":"Nezamyslice","alternatenames":["Nezamislitz"],"latitude":"49.32543","longitude":"17.17326","feature_class":"P","feature_code":"PPL","country_code":"CZ","cc2":"","admin1_code":"84","admin2_code":"","admin3_code":"","admin4_code":"","population":"1278","elevation":"","dem":"207","timezone":"Europe/Prague","modification_date":"2006-11-25"},{"geonameid":"3069900","name":"Němčice nad Hanou","asciiname":"Nemcice nad Hanou","alternatenames":["Nemcice na Hane","Němčice na Hané"],"latitude":"49.34181","longitude":"17.20596","feature_class":"P","feature_code":"PPL","country_code":"CZ","cc2":"","admin1_code":"84","admin2_code":"","admin3_code":"","admin4_code":"","population":"2095","elevation":"","dem":"204","timezone":"Europe/Prague","modification_date":"2006-11-25"},{"geonameid":"3070054","name":"Náměšť na Hané","asciiname":"Namest' na Hane","alternatenames":["Namiescht"],"latitude":"49.60213","longitude":"17.06539","feature_class":"P","feature_code":"PPL","country_code":"CZ","cc2":"CZ","admin1_code":"84","admin2_code":"","admin3_code":"","admin4_code":"","population":"1872","elevation":"","dem":"247","timezone":"Europe/Prague","modification_date":"2006-11-25"},{"geonameid":"3070071","name":"Náklo","asciiname":"Naklo","alternatenames":[""],"latitude":"49.65462","longitude":"17.12969","feature_class":"P","feature_code":"PPL","country_code":"CZ","cc2":"","admin1_code":"84","admin2_code":"","admin3_code":"","admin4_code":"","population":"1425","elevation":"","dem":"232","timezone":"Europe/Prague","modification_date":"2006-11-25"},{"geonameid":"3070276","name":"Mostkovice","asciiname":"Mostkovice","alternatenames":[""],"latitude":"49.47215","longitude":"17.05212","feature_class":"P","feature_code":"PPL","country_code":"CZ","cc2":"","admin1_code":"84","admin2_code":"","admin3_code":"","admin4_code":"","population":"1313","elevation":"","dem":"254","timezone":"Europe/Prague","modification_date":"2006-11-25"},{"geonameid":"3070344","name":"Moravičany","asciiname":"Moravicany","alternatenames":["Morawiczan"],"latitude":"49.75694","longitude":"16.96042","feature_class":"P","feature_code":"PPL","country_code":"CZ","cc2":"","admin1_code":"84","admin2_code":"","admin3_code":"","admin4_code":"","population":"1184","elevation":"","dem":"249","timezone":"Europe/Prague","modification_date":"2006-11-25"},{"geonameid":"3070409","name":"Mohelnice","asciiname":"Mohelnice","alternatenames":["Muglitz","Müglitz","mo hai er ni cai","莫海爾尼采"],"latitude":"49.77698","longitude":"16.91946","feature_class":"P","feature_code":"PPL","country_code":"CZ","cc2":"","admin1_code":"84","admin2_code":"0715","admin3_code":"","admin4_code":"","population":"9742","elevation":"","dem":"278","timezone":"Europe/Prague","modification_date":"2012-12-10"},{"geonameid":"3070715","name":"Mikulovice","asciiname":"Mikulovice","alternatenames":["Niklasdorf"],"latitude":"50.29854","longitude":"17.32155","feature_class":"P","feature_code":"PPL","country_code":"CZ","cc2":"","admin1_code":"84","admin2_code":"","admin3_code":"","admin4_code":"","population":"2750","elevation":"","dem":"324","timezone":"Europe/Prague","modification_date":"2006-11-25"},{"geonameid":"3070816","name":"Město Libavá","asciiname":"Mesto Libava","alternatenames":["Libava","Libavá","Stadt Liebau"],"latitude":"49.72162","longitude":"17.52013","feature_class":"P","feature_code":"PPL","country_code":"CZ","cc2":"","admin1_code":"84","admin2_code":"","admin3_code":"","admin4_code":"","population":"1213","elevation":"","dem":"544","timezone":"Europe/Prague","modification_date":"2006-11-25"},{"geonameid":"3070886","name":"Medlov","asciiname":"Medlov","alternatenames":["Meedl"],"latitude":"49.78754","longitude":"17.06261","feature_class":"P","feature_code":"PPL","country_code":"CZ","cc2":"","admin1_code":"84","admin2_code":"","admin3_code":"","admin4_code":"","population":"1560","elevation":"","dem":"252","timezone":"Europe/Prague","modification_date":"2006-11-25"},{"geonameid":"3071272","name":"Majetín","asciiname":"Majetin","alternatenames":[""],"latitude":"49.49808","longitude":"17.33314","feature_class":"P","feature_code":"PPL","country_code":"CZ","cc2":"","admin1_code":"84","admin2_code":"","admin3_code":"","admin4_code":"","population":"1087","elevation":"","dem":"206","timezone":"Europe/Prague","modification_date":"2006-11-25"},{"geonameid":"3071350","name":"Lutín","asciiname":"Lutin","alternatenames":["Luttein"],"latitude":"49.55845","longitude":"17.13572","feature_class":"P","feature_code":"PPL","country_code":"CZ","cc2":"","admin1_code":"84","admin2_code":"","admin3_code":"","admin4_code":"","population":"3194","elevation":"","dem":"222","timezone":"Europe/Prague","modification_date":"2006-11-25"},{"geonameid":"3071536","name":"Loučná nad Desnou","asciiname":"Loucna nad Desnou","alternatenames":["Vizmberk","Vízmberk","Wiesenberg"],"latitude":"50.07433","longitude":"17.09052","feature_class":"P","feature_code":"PPL","country_code":"CZ","cc2":"","admin1_code":"84","admin2_code":"0715","admin3_code":"","admin4_code":"","population":"1949","elevation":"","dem":"493","timezone":"Europe/Prague","modification_date":"2012-12-12"},{"geonameid":"3071579","name":"Loštice","asciiname":"Lostice","alternatenames":["Loschitz"],"latitude":"49.7447","longitude":"16.92892","feature_class":"P","feature_code":"PPL","country_code":"CZ","cc2":"","admin1_code":"84","admin2_code":"","admin3_code":"","admin4_code":"","population":"3098","elevation":"","dem":"260","timezone":"Europe/Prague","modification_date":"2006-11-25"},{"geonameid":"3071669","name":"Litovel","asciiname":"Litovel","alternatenames":["Litovela","Littau","li tuo wei er","利托韋爾"],"latitude":"49.70121","longitude":"17.07615","feature_class":"P","feature_code":"PPL","country_code":"CZ","cc2":"","admin1_code":"84","admin2_code":"","admin3_code":"","admin4_code":"","population":"10062","elevation":"","dem":"239","timezone":"Europe/Prague","modification_date":"2006-11-25"},{"geonameid":"3071791","name":"Lipník nad Bečvou","asciiname":"Lipnik nad Becvou","alternatenames":["Lipnik","Lipnik-nad-Bechvou","Lipnika pie Becvas","Lipník","Lipnīka pie Bečvas","bei qi wa he pan li pu ni ke","Липник-над-Бечвоу","貝奇瓦河畔利普尼克"],"latitude":"49.52721","longitude":"17.58594","feature_class":"P","feature_code":"PPL","country_code":"CZ","cc2":"","admin1_code":"84","admin2_code":"0714","admin3_code":"","admin4_code":"","population":"8369","elevation":"","dem":"248","timezone":"Europe/Prague","modification_date":"2013-01-25"},{"geonameid":"3072155","name":"Leština","asciiname":"Lestina","alternatenames":["Lesche"],"latitude":"49.86879","longitude":"16.92748","feature_class":"P","feature_code":"PPL","country_code":"CZ","cc2":"","admin1_code":"84","admin2_code":"","admin3_code":"","admin4_code":"","population":"1246","elevation":"","dem":"270","timezone":"Europe/Prague","modification_date":"2006-11-25"},{"geonameid":"3072954","name":"Kralice na Hané","asciiname":"Kralice na Hane","alternatenames":["Kralice","Kralitz"],"latitude":"49.46296","longitude":"17.18048","feature_class":"P","feature_code":"PPL","country_code":"CZ","cc2":"","admin1_code":"84","admin2_code":"","admin3_code":"","admin4_code":"","population":"1427","elevation":"","dem":"213","timezone":"Europe/Prague","modification_date":"2007-07-14"},{"geonameid":"3073147","name":"Kostelec na Hané","asciiname":"Kostelec na Hane","alternatenames":["Kostelec","Kosteletz"],"latitude":"49.51398","longitude":"17.05824","feature_class":"P","feature_code":"PPL","country_code":"CZ","cc2":"","admin1_code":"84","admin2_code":"0713","admin3_code":"","admin4_code":"","population":"2851","elevation":"","dem":"241","timezone":"Europe/Prague","modification_date":"2013-01-03"},{"geonameid":"3073299","name":"Konice","asciiname":"Konice","alternatenames":["Konitz"],"latitude":"49.5903","longitude":"16.88911","feature_class":"P","feature_code":"PPL","country_code":"CZ","cc2":"","admin1_code":"84","admin2_code":"","admin3_code":"","admin4_code":"","population":"2931","elevation":"","dem":"426","timezone":"Europe/Prague","modification_date":"2006-11-25"},{"geonameid":"3073389","name":"Kokory","asciiname":"Kokory","alternatenames":["Kokor"],"latitude":"49.49482","longitude":"17.37544","feature_class":"P","feature_code":"PPL","country_code":"CZ","cc2":"","admin1_code":"84","admin2_code":"","admin3_code":"","admin4_code":"","population":"1099","elevation":"","dem":"221","timezone":"Europe/Prague","modification_date":"2006-11-25"},{"geonameid":"3073407","name":"Kojetín","asciiname":"Kojetin","alternatenames":["Koetin","Kojetein","Kojetina","Kojetīna","ke ye ting","Коетин","科耶廷"],"latitude":"49.35179","longitude":"17.30207","feature_class":"P","feature_code":"PPL","country_code":"CZ","cc2":"","admin1_code":"84","admin2_code":"","admin3_code":"","admin4_code":"","population":"6397","elevation":"","dem":"203","timezone":"Europe/Prague","modification_date":"2006-11-25"},{"geonameid":"3074281","name":"Jeseník","asciiname":"Jesenik","alternatenames":["Freiwaldau","Fryvaldov","Frývaldov"],"latitude":"50.22937","longitude":"17.20464","feature_class":"P","feature_code":"PPL","country_code":"CZ","cc2":"","admin1_code":"84","admin2_code":"0711","admin3_code":"","admin4_code":"","population":"12457","elevation":"","dem":"440","timezone":"Europe/Prague","modification_date":"2012-12-13"},{"geonameid":"3074398","name":"Javorník","asciiname":"Javornik","alternatenames":["Jauernig","Javornika","Javornīka","ya wo er ni ke","亞沃爾尼克"],"latitude":"50.39077","longitude":"17.00272","feature_class":"P","feature_code":"PPL","country_code":"CZ","cc2":"","admin1_code":"84","admin2_code":"","admin3_code":"","admin4_code":"","population":"2967","elevation":"","dem":"301","timezone":"Europe/Prague","modification_date":"2006-11-25"},{"geonameid":"3074676","name":"Hustopeče Nad Bečvou","asciiname":"Hustopece Nad Becvou","alternatenames":["Hustopetsch"],"latitude":"49.53053","longitude":"17.86994","feature_class":"P","feature_code":"PPL","country_code":"CZ","cc2":"CZ","admin1_code":"84","admin2_code":"","admin3_code":"","admin4_code":"","population":"1748","elevation":"","dem":"273","timezone":"Europe/Prague","modification_date":"2006-11-25"},{"geonameid":"3074893","name":"Hranice","asciiname":"Hranice","alternatenames":["Granice","Hranice na Morave","Hranice na Moravě","Khranice","Mahrisch Weisskirchen","Mährisch Weisskirchen","he la ni cai","Границе","Хранице","フラニツェ・ナ・モラヴィェ","赫拉尼采"],"latitude":"49.54796","longitude":"17.73469","feature_class":"P","feature_code":"PPL","country_code":"CZ","cc2":"","admin1_code":"84","admin2_code":"0714","admin3_code":"","admin4_code":"","population":"19582","elevation":"","dem":"261","timezone":"Europe/Prague","modification_date":"2012-12-19"},{"geonameid":"3075193","name":"Horní Štěpánov","asciiname":"Horni Stepanov","alternatenames":["Horni Stefanau","Horní Stefanau","Stefanau"],"latitude":"49.54901","longitude":"16.79078","feature_class":"P","feature_code":"PPL","country_code":"CZ","cc2":"","admin1_code":"84","admin2_code":"","admin3_code":"","admin4_code":"","population":"1002","elevation":"","dem":"596","timezone":"Europe/Prague","modification_date":"2006-11-25"},{"geonameid":"3075289","name":"Horní Moštěnice","asciiname":"Horni Mostenice","alternatenames":["Ober Moschtienitz"],"latitude":"49.41213","longitude":"17.45879","feature_class":"P","feature_code":"PPL","country_code":"CZ","cc2":"","admin1_code":"84","admin2_code":"","admin3_code":"","admin4_code":"","population":"1581","elevation":"","dem":"206","timezone":"Europe/Prague","modification_date":"2006-11-25"},{"geonameid":"3075319","name":"Horní Libina","asciiname":"Horni Libina","alternatenames":["Deutsch Liebau","Horni Libina","Horní Libina","Labau","Libina","Nemecka Libina","Německá Libina"],"latitude":"49.88987","longitude":"17.07262","feature_class":"P","feature_code":"PPL","country_code":"CZ","cc2":"","admin1_code":"84","admin2_code":"","admin3_code":"","admin4_code":"","population":"3501","elevation":"","dem":"306","timezone":"Europe/Prague","modification_date":"2013-06-10"},{"geonameid":"3075471","name":"Horka nad Moravou","asciiname":"Horka nad Moravou","alternatenames":["Horka"],"latitude":"49.64009","longitude":"17.2107","feature_class":"P","feature_code":"PPL","country_code":"CZ","cc2":"","admin1_code":"84","admin2_code":"","admin3_code":"","admin4_code":"","population":"2101","elevation":"","dem":"222","timezone":"Europe/Prague","modification_date":"2006-11-25"},{"geonameid":"3075690","name":"Hněvotín","asciiname":"Hnevotin","alternatenames":["Nebotein"],"latitude":"49.57205","longitude":"17.17954","feature_class":"P","feature_code":"PPL","country_code":"CZ","cc2":"","admin1_code":"84","admin2_code":"","admin3_code":"","admin4_code":"","population":"1201","elevation":"","dem":"244","timezone":"Europe/Prague","modification_date":"2006-11-25"},{"geonameid":"3075744","name":"Hlubočky","asciiname":"Hlubocky","alternatenames":["Hombock"],"latitude":"49.61783","longitude":"17.39436","feature_class":"P","feature_code":"PPL","country_code":"CZ","cc2":"","admin1_code":"84","admin2_code":"","admin3_code":"","admin4_code":"","population":"4448","elevation":"","dem":"271","timezone":"Europe/Prague","modification_date":"2008-07-04"},{"geonameid":"3075958","name":"Hanušovice","asciiname":"Hanusovice","alternatenames":["Hannsdorf","Hansovice","ha nu shao wei cai","哈努紹維采"],"latitude":"50.08049","longitude":"16.93641","feature_class":"P","feature_code":"PPL","country_code":"CZ","cc2":"","admin1_code":"84","admin2_code":"0715","admin3_code":"","admin4_code":"","population":"3556","elevation":"","dem":"414","timezone":"Europe/Prague","modification_date":"2012-12-19"},{"geonameid":"3076084","name":"Grygov","asciiname":"Grygov","alternatenames":["Gru"],"latitude":"49.53841","longitude":"17.30887","feature_class":"P","feature_code":"PPL","country_code":"CZ","cc2":"","admin1_code":"84","admin2_code":"","admin3_code":"","admin4_code":"","population":"1385","elevation":"","dem":"204","timezone":"Europe/Prague","modification_date":"2008-06-03"}]}