{"region_data":{"adminCode1":"86","lng":"16.08333","geonameId":3339574,"toponymName":"Pardubický kraj","countryId":"3077311","fcl":"A","population":504641,"numberOfChildren":4,"countryCode":"CZ","name":"Pardubický kraj","fclName":"country, state, region,...","countryName":"Czech Republic","fcodeName":"first-order administrative division","adminName1":"Pardubický","lat":"49.83333","fcode":"ADM1"},"country_data":{"ISO":"CZ","ISO3":"CZE","ISO_Numeric":"203","fips":"EZ","country":"Czech Republic","capital":"Prague","area":"78866","Population":"10476000","Continent":"EU","tld":".cz","CurrencyCode":"CZK","CurrencyName":"Koruna","Phone":"420","Postal_Code_Format":"### ##","Postal_Code_Regex":"^(\\d{5})$","Languages":"cs,sk","geonameid":"3077311","neighbours":"PL,DE,SK,AT","EquivalentFipsCode":""},"cities":[{"geonameid":"3061888","name":"Žamberk","asciiname":"Zamberk","alternatenames":["Senftenberg","Zamberka","Zhamberk","jambeleukeu","ran bei er ke","Žamberka","Жамберк","然貝爾克","잠베르크"],"latitude":"50.08601","longitude":"16.46738","feature_class":"P","feature_code":"PPL","country_code":"CZ","cc2":"","admin1_code":"86","admin2_code":"","admin3_code":"","admin4_code":"","population":"6082","elevation":"","dem":"425","timezone":"Europe/Prague","modification_date":"2006-11-25"},{"geonameid":"3062214","name":"Vysoké Mýto","asciiname":"Vysoke Myto","alternatenames":["Hohenmauth","Vyskoe Myto"],"latitude":"49.9532","longitude":"16.16169","feature_class":"P","feature_code":"PPL","country_code":"CZ","cc2":"","admin1_code":"86","admin2_code":"0532","admin3_code":"","admin4_code":"","population":"12293","elevation":"","dem":"291","timezone":"Europe/Prague","modification_date":"2012-11-26"},{"geonameid":"3063546","name":"Ústí nad Orlicí","asciiname":"Usti nad Orlici","alternatenames":["Uscie nad Orlica","Usti na Orlici","Usti pie Orlices","Usti-nad-Orlici","Ustin Orl","Uście nad Orlicą","Wildenschwert","ao er li cai he pan wu si ji","Ústin Orl","Ūsti pie Orlices","Усти на Орлици","Усти-над-Орлици","奧爾利采河畔烏斯季"],"latitude":"49.97387","longitude":"16.39361","feature_class":"P","feature_code":"PPL","country_code":"CZ","cc2":"","admin1_code":"86","admin2_code":"0534","admin3_code":"","admin4_code":"","population":"15151","elevation":"340","dem":"346","timezone":"Europe/Prague","modification_date":"2007-10-01"},{"geonameid":"3064043","name":"Třemošnice","asciiname":"Tremosnice","alternatenames":[""],"latitude":"49.86912","longitude":"15.58002","feature_class":"P","feature_code":"PPL","country_code":"CZ","cc2":"","admin1_code":"86","admin2_code":"0531","admin3_code":"","admin4_code":"","population":"3273","elevation":"","dem":"305","timezone":"Europe/Prague","modification_date":"2013-01-25"},{"geonameid":"3064454","name":"Svitavy","asciiname":"Svitavy","alternatenames":["Svitave","Svitavi","Svitavy","Zwittau","si wei ta wei","Свитави","斯維塔維"],"latitude":"49.75594","longitude":"16.46829","feature_class":"P","feature_code":"PPL","country_code":"CZ","cc2":"","admin1_code":"86","admin2_code":"0533","admin3_code":"","admin4_code":"","population":"17427","elevation":"","dem":"442","timezone":"Europe/Prague","modification_date":"2012-11-27"},{"geonameid":"3065353","name":"Staré Hradiště","asciiname":"Stare Hradiste","alternatenames":[""],"latitude":"50.0654","longitude":"15.77885","feature_class":"P","feature_code":"PPL","country_code":"CZ","cc2":"","admin1_code":"86","admin2_code":"","admin3_code":"","admin4_code":"","population":"1219","elevation":"","dem":"219","timezone":"Europe/Prague","modification_date":"2006-11-25"},{"geonameid":"3065873","name":"Slatiňany","asciiname":"Slatinany","alternatenames":["Slatinan"],"latitude":"49.9211","longitude":"15.81377","feature_class":"P","feature_code":"PPL","country_code":"CZ","cc2":"","admin1_code":"86","admin2_code":"0531","admin3_code":"","admin4_code":"","population":"4004","elevation":"","dem":"267","timezone":"Europe/Prague","modification_date":"2013-01-25"},{"geonameid":"3065921","name":"Skuteč","asciiname":"Skutec","alternatenames":["Skutsch"],"latitude":"49.84347","longitude":"15.99655","feature_class":"P","feature_code":"PPL","country_code":"CZ","cc2":"","admin1_code":"86","admin2_code":"0531","admin3_code":"","admin4_code":"","population":"5415","elevation":"","dem":"412","timezone":"Europe/Prague","modification_date":"2013-01-16"},{"geonameid":"3066159","name":"Sezemice","asciiname":"Sezemice","alternatenames":["Sezemitz"],"latitude":"50.06651","longitude":"15.8527","feature_class":"P","feature_code":"PPL","country_code":"CZ","cc2":"","admin1_code":"86","admin2_code":"","admin3_code":"","admin4_code":"","population":"3097","elevation":"","dem":"233","timezone":"Europe/Prague","modification_date":"2006-11-25"},{"geonameid":"3066342","name":"Seč","asciiname":"Sec","alternatenames":[""],"latitude":"49.84694","longitude":"15.65643","feature_class":"P","feature_code":"PPL","country_code":"CZ","cc2":"","admin1_code":"86","admin2_code":"0531","admin3_code":"","admin4_code":"","population":"1686","elevation":"","dem":"535","timezone":"Europe/Prague","modification_date":"2012-11-19"},{"geonameid":"3066536","name":"Rybitví","asciiname":"Rybitvi","alternatenames":["Rybitew"],"latitude":"50.06015","longitude":"15.70472","feature_class":"P","feature_code":"PPL","country_code":"CZ","cc2":"","admin1_code":"86","admin2_code":"","admin3_code":"","admin4_code":"","population":"1379","elevation":"","dem":"221","timezone":"Europe/Prague","modification_date":"2006-11-25"},{"geonameid":"3066757","name":"Rosice","asciiname":"Rosice","alternatenames":["Rositz"],"latitude":"49.92226","longitude":"15.95127","feature_class":"P","feature_code":"PPL","country_code":"CZ","cc2":"CZ","admin1_code":"86","admin2_code":"","admin3_code":"","admin4_code":"","population":"1323","elevation":"","dem":"261","timezone":"Europe/Prague","modification_date":"2006-11-25"},{"geonameid":"3066765","name":"Ronov nad Doubravou","asciiname":"Ronov nad Doubravou","alternatenames":["Ronow an der Doubrava"],"latitude":"49.88825","longitude":"15.53144","feature_class":"P","feature_code":"PPL","country_code":"CZ","cc2":"","admin1_code":"86","admin2_code":"","admin3_code":"","admin4_code":"","population":"1645","elevation":"","dem":"259","timezone":"Europe/Prague","modification_date":"2006-11-25"},{"geonameid":"3066974","name":"Řečany nad Labem","asciiname":"Recany nad Labem","alternatenames":["Recan","Rečan"],"latitude":"50.03589","longitude":"15.47735","feature_class":"P","feature_code":"PPL","country_code":"CZ","cc2":"","admin1_code":"86","admin2_code":"","admin3_code":"","admin4_code":"","population":"1364","elevation":"","dem":"206","timezone":"Europe/Prague","modification_date":"2006-11-25"},{"geonameid":"3067204","name":"Radiměř","asciiname":"Radimer","alternatenames":["Bohmisch Rothmuhl","Böhmisch Rothmühl","Ceska Radimer","Mahrisch Rothmuhl","Moravska Radimer","Moravská Radiměř","Mährisch Rothmühl","Rothmuhl","Rothmühl","Česká Radiměř"],"latitude":"49.6985","longitude":"16.4407","feature_class":"P","feature_code":"PPL","country_code":"CZ","cc2":"","admin1_code":"86","admin2_code":"","admin3_code":"","admin4_code":"","population":"1117","elevation":"","dem":"444","timezone":"Europe/Prague","modification_date":"2008-07-08"},{"geonameid":"3067443","name":"Proseč","asciiname":"Prosec","alternatenames":[""],"latitude":"49.8059","longitude":"16.11621","feature_class":"P","feature_code":"PPL","country_code":"CZ","cc2":"","admin1_code":"86","admin2_code":"","admin3_code":"","admin4_code":"","population":"2098","elevation":"","dem":"519","timezone":"Europe/Prague","modification_date":"2006-11-25"},{"geonameid":"3067594","name":"Přelouč","asciiname":"Prelouc","alternatenames":["Prelauc","Přelauč"],"latitude":"50.03985","longitude":"15.56031","feature_class":"P","feature_code":"PPL","country_code":"CZ","cc2":"","admin1_code":"86","admin2_code":"0532","admin3_code":"","admin4_code":"","population":"8586","elevation":"","dem":"222","timezone":"Europe/Prague","modification_date":"2013-01-25"},{"geonameid":"3067707","name":"Prachovice","asciiname":"Prachovice","alternatenames":[""],"latitude":"49.89379","longitude":"15.62872","feature_class":"P","feature_code":"PPL","country_code":"CZ","cc2":"","admin1_code":"86","admin2_code":"","admin3_code":"","admin4_code":"","population":"1522","elevation":"","dem":"456","timezone":"Europe/Prague","modification_date":"2006-11-25"},{"geonameid":"3067846","name":"Pomezí","asciiname":"Pomezi","alternatenames":["Laubendorf","Limberk"],"latitude":"49.71026","longitude":"16.31729","feature_class":"P","feature_code":"PPL","country_code":"CZ","cc2":"","admin1_code":"86","admin2_code":"","admin3_code":"","admin4_code":"","population":"1031","elevation":"","dem":"588","timezone":"Europe/Prague","modification_date":"2006-11-25"},{"geonameid":"3067882","name":"Polička","asciiname":"Policka","alternatenames":["bo li qi ka","波利奇卡"],"latitude":"49.71465","longitude":"16.26543","feature_class":"P","feature_code":"PPL","country_code":"CZ","cc2":"","admin1_code":"86","admin2_code":"0533","admin3_code":"","admin4_code":"","population":"9129","elevation":"","dem":"559","timezone":"Europe/Prague","modification_date":"2013-01-16"},{"geonameid":"3068582","name":"Pardubice","asciiname":"Pardubice","alternatenames":["PED","Pardubice","Pardubices","Pardubicy","Pardubicės","Pardubitse","Pardubitz","Pardubiçe","Parntoumpitse","bardwbytsh","pa er du bi cai","paleudubiche","par du bit se","pardwbytsh","parudo~ubitsu~e","prdwbyzh","Παρντουμπίτσε","Пардубитсе","Пардубице","פרדוביצה","باردوبيتسه","پاردوبیتسه","ปาร์ดูบีตเซ","პარდუბიცე","パルドゥビツェ","帕尔杜比采","파르두비체"],"latitude":"50.04075","longitude":"15.77659","feature_class":"P","feature_code":"PPLA","country_code":"CZ","cc2":"","admin1_code":"86","admin2_code":"0532","admin3_code":"","admin4_code":"","population":"88741","elevation":"","dem":"227","timezone":"Europe/Prague","modification_date":"2012-12-13"},{"geonameid":"3068844","name":"Osík","asciiname":"Osik","alternatenames":[""],"latitude":"49.84355","longitude":"16.28467","feature_class":"P","feature_code":"PPL","country_code":"CZ","cc2":"","admin1_code":"86","admin2_code":"","admin3_code":"","admin4_code":"","population":"1051","elevation":"","dem":"361","timezone":"Europe/Prague","modification_date":"2006-11-25"},{"geonameid":"3068933","name":"Opatovice nad Labem","asciiname":"Opatovice nad Labem","alternatenames":["Opatovic","Opatovice"],"latitude":"50.14541","longitude":"15.79045","feature_class":"P","feature_code":"PPL","country_code":"CZ","cc2":"","admin1_code":"86","admin2_code":"","admin3_code":"","admin4_code":"","population":"2218","elevation":"","dem":"227","timezone":"Europe/Prague","modification_date":"2006-11-25"},{"geonameid":"3068946","name":"Opatov","asciiname":"Opatov","alternatenames":["Abtsdorf"],"latitude":"49.825","longitude":"16.50458","feature_class":"P","feature_code":"PPL","country_code":"CZ","cc2":"","admin1_code":"86","admin2_code":"","admin3_code":"","admin4_code":"","population":"1124","elevation":"","dem":"436","timezone":"Europe/Prague","modification_date":"2006-11-25"},{"geonameid":"3070030","name":"Nasavrky","asciiname":"Nasavrky","alternatenames":["Nassaberg"],"latitude":"49.8445","longitude":"15.80461","feature_class":"P","feature_code":"PPL","country_code":"CZ","cc2":"CZ","admin1_code":"86","admin2_code":"0531","admin3_code":"","admin4_code":"","population":"1526","elevation":"","dem":"487","timezone":"Europe/Prague","modification_date":"2012-12-10"},{"geonameid":"3070325","name":"Moravská Třebová","asciiname":"Moravska Trebova","alternatenames":["Mahrisch Trubau","Moravska Trebova","Moravska Trsebova","Moravska Tršebova","Moravska-Trshebova","Mährisch Trübau","mo la wa te re bo wa","Моравска Требова","Моравска-Тршебова","摩拉瓦特熱博瓦"],"latitude":"49.75793","longitude":"16.66426","feature_class":"P","feature_code":"PPL","country_code":"CZ","cc2":"","admin1_code":"86","admin2_code":"0533","admin3_code":"","admin4_code":"","population":"11414","elevation":"","dem":"364","timezone":"Europe/Prague","modification_date":"2013-01-11"},{"geonameid":"3070354","name":"Moravany","asciiname":"Moravany","alternatenames":["Morawan"],"latitude":"50.00095","longitude":"15.94071","feature_class":"P","feature_code":"PPL","country_code":"CZ","cc2":"","admin1_code":"86","admin2_code":"","admin3_code":"","admin4_code":"","population":"1706","elevation":"","dem":"248","timezone":"Europe/Prague","modification_date":"2006-11-25"},{"geonameid":"3070603","name":"Miřetice","asciiname":"Miretice","alternatenames":[""],"latitude":"49.84126","longitude":"15.88472","feature_class":"P","feature_code":"PPL","country_code":"CZ","cc2":"","admin1_code":"86","admin2_code":"","admin3_code":"","admin4_code":"","population":"1205","elevation":"","dem":"394","timezone":"Europe/Prague","modification_date":"2006-11-25"},{"geonameid":"3070823","name":"Městečko Trnávka","asciiname":"Mestecko Trnavka","alternatenames":["Markt Turnau","Markt Türnau","Trnavka","Trnávka","Turnau","Türnau"],"latitude":"49.70926","longitude":"16.72744","feature_class":"P","feature_code":"PPL","country_code":"CZ","cc2":"","admin1_code":"86","admin2_code":"","admin3_code":"","admin4_code":"","population":"1502","elevation":"","dem":"319","timezone":"Europe/Prague","modification_date":"2006-11-25"},{"geonameid":"3071339","name":"Luže","asciiname":"Luze","alternatenames":[""],"latitude":"49.89341","longitude":"16.0285","feature_class":"P","feature_code":"PPL","country_code":"CZ","cc2":"","admin1_code":"86","admin2_code":"0531","admin3_code":"","admin4_code":"","population":"2591","elevation":"","dem":"306","timezone":"Europe/Prague","modification_date":"2013-01-15"},{"geonameid":"3071381","name":"Lukavice","asciiname":"Lukavice","alternatenames":[""],"latitude":"50.06029","longitude":"16.48207","feature_class":"P","feature_code":"PPL","country_code":"CZ","cc2":"","admin1_code":"86","admin2_code":"","admin3_code":"","admin4_code":"","population":"1066","elevation":"","dem":"386","timezone":"Europe/Prague","modification_date":"2006-11-25"},{"geonameid":"3071675","name":"Litomyšl","asciiname":"Litomysl","alternatenames":["Leitomischl","Litomishl'","Litomisl","Litomisla","Litomišl","Litomišla","Litomyshl'","Litomysl","Litomyslis","Litomyšl","Litomyšlis","li tuo mi shen er","ritomishuru","Литомишль","Литомышль","ლიტომიშლი","リトミシュル","利托米什爾"],"latitude":"49.86809","longitude":"16.31298","feature_class":"P","feature_code":"PPL","country_code":"CZ","cc2":"","admin1_code":"86","admin2_code":"0533","admin3_code":"","admin4_code":"","population":"10146","elevation":"","dem":"334","timezone":"Europe/Prague","modification_date":"2012-12-10"},{"geonameid":"3072134","name":"Letohrad","asciiname":"Letohrad","alternatenames":["Geiersberg","Kysperk","Kyšperk","Supi Hora","Supí Hora"],"latitude":"50.0358","longitude":"16.49879","feature_class":"P","feature_code":"PPL","country_code":"CZ","cc2":"","admin1_code":"86","admin2_code":"","admin3_code":"","admin4_code":"","population":"6195","elevation":"","dem":"373","timezone":"Europe/Prague","modification_date":"2006-11-25"},{"geonameid":"3072332","name":"Lanškroun","asciiname":"Lanskroun","alternatenames":["Landskron","Lanshkroun","Lanskrouna","Lanškrouna","lan shen ke long","Ланшкроун","蘭什克龍"],"latitude":"49.91217","longitude":"16.6119","feature_class":"P","feature_code":"PPL","country_code":"CZ","cc2":"","admin1_code":"86","admin2_code":"0534","admin3_code":"","admin4_code":"","population":"9847","elevation":"","dem":"383","timezone":"Europe/Prague","modification_date":"2012-12-24"},{"geonameid":"3072484","name":"Kunvald","asciiname":"Kunvald","alternatenames":["Kunwald"],"latitude":"50.12927","longitude":"16.49996","feature_class":"P","feature_code":"PPL","country_code":"CZ","cc2":"","admin1_code":"86","admin2_code":"0534","admin3_code":"","admin4_code":"","population":"1009","elevation":"","dem":"481","timezone":"Europe/Prague","modification_date":"2012-11-28"},{"geonameid":"3072527","name":"Kunčina","asciiname":"Kuncina","alternatenames":["Kunzendorf"],"latitude":"49.79455","longitude":"16.62763","feature_class":"P","feature_code":"PPL","country_code":"CZ","cc2":"","admin1_code":"86","admin2_code":"","admin3_code":"","admin4_code":"","population":"1191","elevation":"","dem":"374","timezone":"Europe/Prague","modification_date":"2006-11-25"},{"geonameid":"3072638","name":"Krouna","asciiname":"Krouna","alternatenames":["Krauna"],"latitude":"49.7724","longitude":"16.02674","feature_class":"P","feature_code":"PPL","country_code":"CZ","cc2":"","admin1_code":"86","admin2_code":"","admin3_code":"","admin4_code":"","population":"1352","elevation":"","dem":"537","timezone":"Europe/Prague","modification_date":"2006-11-25"},{"geonameid":"3072952","name":"Králíky","asciiname":"Kraliky","alternatenames":["Grulich","Kraliki","Krālīki","ke la li ji","Кралики","克拉利基"],"latitude":"50.08384","longitude":"16.76054","feature_class":"P","feature_code":"PPL","country_code":"CZ","cc2":"","admin1_code":"86","admin2_code":"0534","admin3_code":"","admin4_code":"","population":"4723","elevation":"","dem":"575","timezone":"Europe/Prague","modification_date":"2013-01-25"},{"geonameid":"3074241","name":"Jevíčko","asciiname":"Jevicko","alternatenames":["Gewitsch","Jevicko","Jevīčko","ye wei qi ke","耶維奇科"],"latitude":"49.6322","longitude":"16.71125","feature_class":"P","feature_code":"PPL","country_code":"CZ","cc2":"","admin1_code":"86","admin2_code":"0533","admin3_code":"","admin4_code":"","population":"2886","elevation":"","dem":"363","timezone":"Europe/Prague","modification_date":"2013-01-03"},{"geonameid":"3074373","name":"Jedlová","asciiname":"Jedlova","alternatenames":["Schonbrunn","Schönbrunn"],"latitude":"49.661","longitude":"16.30608","feature_class":"P","feature_code":"PPL","country_code":"CZ","cc2":"","admin1_code":"86","admin2_code":"","admin3_code":"","admin4_code":"","population":"1010","elevation":"","dem":"599","timezone":"Europe/Prague","modification_date":"2006-11-25"},{"geonameid":"3074461","name":"Jaroměřice","asciiname":"Jaromerice","alternatenames":["Jarmeritz","Jaromeritz","Jaroměřitz"],"latitude":"49.62556","longitude":"16.75185","feature_class":"P","feature_code":"PPL","country_code":"CZ","cc2":"","admin1_code":"86","admin2_code":"","admin3_code":"","admin4_code":"","population":"1242","elevation":"","dem":"364","timezone":"Europe/Prague","modification_date":"2006-11-25"},{"geonameid":"3074598","name":"Jablonné nad Orlicí","asciiname":"Jablonne nad Orlici","alternatenames":["Gabl"],"latitude":"50.02964","longitude":"16.60059","feature_class":"P","feature_code":"PPL","country_code":"CZ","cc2":"","admin1_code":"86","admin2_code":"","admin3_code":"","admin4_code":"","population":"3147","elevation":"","dem":"428","timezone":"Europe/Prague","modification_date":"2006-11-25"},{"geonameid":"3074808","name":"Hrochův Týnec","asciiname":"Hrochuv Tynec","alternatenames":["Hrochowteinitz"],"latitude":"49.95946","longitude":"15.91054","feature_class":"P","feature_code":"PPL","country_code":"CZ","cc2":"CZ","admin1_code":"86","admin2_code":"","admin3_code":"","admin4_code":"","population":"1899","elevation":"","dem":"243","timezone":"Europe/Prague","modification_date":"2006-11-25"},{"geonameid":"3074961","name":"Hradec nad Svitavou","asciiname":"Hradec nad Svitavou","alternatenames":["Graendorf","Grandorf","Greifendorf","Grándorf"],"latitude":"49.71143","longitude":"16.48058","feature_class":"P","feature_code":"PPL","country_code":"CZ","cc2":"","admin1_code":"86","admin2_code":"","admin3_code":"","admin4_code":"","population":"1584","elevation":"","dem":"423","timezone":"Europe/Prague","modification_date":"2006-11-25"},{"geonameid":"3075206","name":"Horní Sloupnice","asciiname":"Horni Sloupnice","alternatenames":["Sloupnice","Sloupnitz"],"latitude":"49.92138","longitude":"16.33948","feature_class":"P","feature_code":"PPL","country_code":"CZ","cc2":"CZ","admin1_code":"86","admin2_code":"","admin3_code":"","admin4_code":"","population":"1742","elevation":"","dem":"423","timezone":"Europe/Prague","modification_date":"2006-11-25"},{"geonameid":"3075361","name":"Horní Jelení","asciiname":"Horni Jeleni","alternatenames":["Ober Jeleni","Ober Jelení"],"latitude":"50.04901","longitude":"16.08396","feature_class":"P","feature_code":"PPL","country_code":"CZ","cc2":"","admin1_code":"86","admin2_code":"","admin3_code":"","admin4_code":"","population":"1811","elevation":"","dem":"307","timezone":"Europe/Prague","modification_date":"2006-11-25"},{"geonameid":"3075422","name":"Horní Čermná","asciiname":"Horni Cermna","alternatenames":[""],"latitude":"49.97053","longitude":"16.60772","feature_class":"P","feature_code":"PPL","country_code":"CZ","cc2":"","admin1_code":"86","admin2_code":"","admin3_code":"","admin4_code":"","population":"1016","elevation":"","dem":"431","timezone":"Europe/Prague","modification_date":"2006-11-25"},{"geonameid":"3075599","name":"Holice","asciiname":"Holice","alternatenames":["Holitz"],"latitude":"50.06601","longitude":"15.9859","feature_class":"P","feature_code":"PPL","country_code":"CZ","cc2":"","admin1_code":"86","admin2_code":"","admin3_code":"","admin4_code":"","population":"6219","elevation":"","dem":"253","timezone":"Europe/Prague","modification_date":"2006-11-25"},{"geonameid":"3075766","name":"Hlinsko","asciiname":"Hlinsko","alternatenames":["Glinsko","Hlinsko v Cechach","Hlinsko v Čechách","Khlinsko","he lin si ke","Глинско","Хлинско","赫林斯科"],"latitude":"49.76213","longitude":"15.90756","feature_class":"P","feature_code":"PPL","country_code":"CZ","cc2":"","admin1_code":"86","admin2_code":"0531","admin3_code":"","admin4_code":"","population":"10411","elevation":"","dem":"561","timezone":"Europe/Prague","modification_date":"2012-12-14"},{"geonameid":"3075841","name":"Heřmanův Městec","asciiname":"Hermanuv Mestec","alternatenames":["Hermanmestetz","Heřmanměstetz"],"latitude":"49.94707","longitude":"15.66492","feature_class":"P","feature_code":"PPL","country_code":"CZ","cc2":"CZ","admin1_code":"86","admin2_code":"0531","admin3_code":"","admin4_code":"","population":"4841","elevation":"","dem":"281","timezone":"Europe/Prague","modification_date":"2013-01-25"},{"geonameid":"3077539","name":"Chrudim","asciiname":"Chrudim","alternatenames":["Hrudima","Khrudim","he lu di mu","khrwdym","Хрудим","خرودیم","赫魯迪姆"],"latitude":"49.95109","longitude":"15.79558","feature_class":"P","feature_code":"PPL","country_code":"CZ","cc2":"","admin1_code":"86","admin2_code":"0531","admin3_code":"","admin4_code":"","population":"23630","elevation":"","dem":"274","timezone":"Europe/Prague","modification_date":"2013-01-17"},{"geonameid":"3077725","name":"Choceň","asciiname":"Chocen","alternatenames":["Checen","Checeň","Chotzen","Hocena","Hoceņa","Khocen'","huo cai ni","Хоцень","霍采尼"],"latitude":"50.00161","longitude":"16.22303","feature_class":"P","feature_code":"PPL","country_code":"CZ","cc2":"","admin1_code":"86","admin2_code":"","admin3_code":"","admin4_code":"","population":"9008","elevation":"","dem":"291","timezone":"Europe/Prague","modification_date":"2006-11-25"},{"geonameid":"3077920","name":"Česká Třebová","asciiname":"Ceska Trebova","alternatenames":["Bohmisch-Trubau","Böhmisch-Trübau","Ceska Trsebova","Cheshka Trebova","Cheska-Trshebova","jie ke te re bo wa","Česka Tršebova","Ческа-Тршебова","Чешка Требова","捷克特熱博瓦"],"latitude":"49.90436","longitude":"16.44413","feature_class":"P","feature_code":"PPL","country_code":"CZ","cc2":"","admin1_code":"86","admin2_code":"","admin3_code":"","admin4_code":"","population":"16655","elevation":"","dem":"370","timezone":"Europe/Prague","modification_date":"2008-07-08"}]}